<?xml version="1.0"?>
<markers><marker lat="40.392791548965086" lng="-80.014935981047657" zone="Zone 6" incidentdate="2015-05-08" incidenttime="20:40:00" incidentnumber="15081514" address="1100 block Bellaire Ave" type="OFFENSE" age="" gender="" description="*********************************************** &lt;br/&gt;9018, Accidental Fire&lt;br/&gt;"/><marker lat="40.411351908337011" lng="-79.975571753972645" zone="Zone 3" incidentdate="2015-05-08" incidenttime="14:25:00" incidentnumber="15081227" address="Fisher St &amp; Engstler St" type="OFFENSE" age="" gender="" description="*********************************************** &lt;br/&gt;9501, Bench Warrant&lt;br/&gt;"/><marker lat="40.457116042215844" lng="-80.062951348875856" zone="Zone 6" incidentdate="2015-05-08" incidenttime="12:51:00" incidentnumber="15081185" address="1000 block Stanhope St" type="OFFENSE" age="" gender="" description="*********************************************** &lt;br/&gt;9501, Bench Warrant&lt;br/&gt;"/><marker lat="40.452210852851195" lng="-79.998676352919205" zone="Zone 1" incidentdate="2015-05-08" incidenttime="00:53:00" incidentnumber="15080885" address="600 block Pressley St" type="OFFENSE" age="" gender="" description="*********************************************** &lt;br/&gt;9999, 9999 - (Misc. Incident):&lt;br/&gt;"/><marker lat="40.437339105606732" lng="-79.977732648133241" zone="Zone 2" incidentdate="2015-05-08" incidenttime="16:42:00" incidentnumber="15081320" address="Forbes Ave &amp; Jumonville St" type="OFFENSE" age="" gender="" description="*********************************************** &lt;br/&gt;1511, Carrying and Exhibiting Drivers License on Demand.&lt;br/&gt;4304(a)(1), Endangering Welfare of Children - Course of Conduct Enhanced&lt;br/&gt;3323, Stop Signs and Yield Signs.&lt;br/&gt;3743, Accidents Involving Damage to Attended Veh. or Property&lt;br/&gt;3308, One-Way Roadways and Rotary Traffic Islands.&lt;br/&gt;3736, Reckless Driving&lt;br/&gt;3733, Fleeing or Attempting to Elude Police Officer&lt;br/&gt;13(a)(31), Marijuana: Possession Small Amount&lt;br/&gt;4581, Restraint Systems.&lt;br/&gt;"/><marker lat="40.455479200809719" lng="-80.030827820910446" zone="Zone 1" incidentdate="2015-05-08" incidenttime="08:30:00" incidentnumber="15081094" address="1600 block Metropolitan St" type="OFFENSE" age="" gender="" description="*********************************************** &lt;br/&gt;3934, Theft from Vehicle&lt;br/&gt;"/><marker lat="40.434348049519336" lng="-80.006335021862654" zone="Zone 3" incidentdate="2015-05-08" incidenttime="06:30:00" incidentnumber="15081065" address="300 block Station Square Dr W" type="OFFENSE" age="" gender="" description="*********************************************** &lt;br/&gt;3304, Criminal Mischief.&lt;br/&gt;901, Criminal Attempt&lt;br/&gt;"/><marker lat="40.416372730823738" lng="-80.07360897091317" zone="Zone 6" incidentdate="2015-05-08" incidenttime="10:30:00" incidentnumber="15081122" address="200 block Moffat St" type="OFFENSE" age="" gender="" description="*********************************************** &lt;br/&gt;2709, Harassment (Non-Specific)&lt;br/&gt;"/><marker lat="40.427843721970007" lng="-79.916067309280137" zone="Zone 4" incidentdate="2015-05-08" incidenttime="15:52:00" incidentnumber="15081258" address="2600 block Beechwood Blvd" type="OFFENSE" age="" gender="" description="*********************************************** &lt;br/&gt;9488, False  Burglar Alarm&lt;br/&gt;"/><marker lat="40.407157314003982" lng="-79.945492006824182" zone="Zone 4" incidentdate="2015-05-08" incidenttime="16:09:00" incidentnumber="15081292" address="Lytle St &amp; Path Way" type="OFFENSE" age="" gender="" description="*********************************************** &lt;br/&gt;7721, Operation on Streets and Highways&lt;br/&gt;"/><marker lat="40.441919441965581" lng="-79.982892744621594" zone="Zone 2" incidentdate="2015-05-08" incidenttime="20:50:00" incidentnumber="15081522" address="1800 block Centre Ave" type="OFFENSE" age="" gender="" description="*********************************************** &lt;br/&gt;3701, Robbery.&lt;br/&gt;4952, Intimidation of Witnesses or Victims&lt;br/&gt;"/><marker lat="40.458346762330798" lng="-80.049978566202512" zone="Zone 6" incidentdate="2015-05-08" incidenttime="13:34:00" incidentnumber="15081214" address="300 block Minton St" type="OFFENSE" age="" gender="" description="*********************************************** &lt;br/&gt;8106, Shots Fired&lt;br/&gt;"/><marker lat="40.484550069346753" lng="-80.035692783449747" zone="Zone 1" incidentdate="2015-05-08" incidenttime="17:00:00" incidentnumber="15081535" address="3800 block Brighton Rd" type="OFFENSE" age="" gender="" description="*********************************************** &lt;br/&gt;029, Missing Juvenile&lt;br/&gt;"/><marker lat="40.428038031036849" lng="-79.976314371878317" zone="Zone 3" incidentdate="2015-05-08" incidenttime="17:36:00" incidentnumber="15081370" address="S 21st St &amp; Carey Way" type="OFFENSE" age="" gender="" description="*********************************************** &lt;br/&gt;13(a)(31), Marijuana: Possession Small Amount&lt;br/&gt;4706, Prohib. on Expend. for Emission Insp Prog..&lt;br/&gt;4702, Requirement for Periodic Inspection of Vehicles&lt;br/&gt;"/><marker lat="40.438912325092055" lng="-80.027448874348522" zone="Zone 3" incidentdate="2015-05-08" incidenttime="04:19:00" incidentnumber="15080978" address="300 block Fingal St" type="OFFENSE" age="" gender="" description="*********************************************** &lt;br/&gt;9999, 9999 - (Misc. Incident):&lt;br/&gt;"/><marker lat="40.434299677403494" lng="-79.961173018071435" zone="Zone 4" incidentdate="2015-05-08" incidenttime="06:00:00" incidentnumber="15080995" address="3200 block Kennett Sq" type="OFFENSE" age="" gender="" description="*********************************************** &lt;br/&gt;9093, Indirect Criminal Contempt&lt;br/&gt;"/><marker lat="40.409289553540539" lng="-80.019751342756379" zone="Zone 6" incidentdate="2015-05-08" incidenttime="20:00:00" incidentnumber="15081519" address="200 block Cape May Ave" type="OFFENSE" age="" gender="" description="*********************************************** &lt;br/&gt;3304, Criminal Mischief.&lt;br/&gt;"/><marker lat="40.416353733953727" lng="-79.934079309457871" zone="Zone 4" incidentdate="2015-05-08" incidenttime="10:15:00" incidentnumber="15081102" address="200 block Blackstone St" type="OFFENSE" age="" gender="" description="*********************************************** &lt;br/&gt;3304, Criminal Mischief.&lt;br/&gt;3701, Robbery.&lt;br/&gt;2701, Simple Assault.&lt;br/&gt;3921, Theft by Unlawful Taking or Disposition.&lt;br/&gt;"/><marker lat="40.467778633702743" lng="-79.924379771158982" zone="Zone 5" incidentdate="2015-05-08" incidenttime="07:00:00" incidentnumber="15081018" address="600 block N Euclid Ave" type="OFFENSE" age="" gender="" description="*********************************************** &lt;br/&gt;3304, Criminal Mischief.&lt;br/&gt;3503, Criminal Trespass&lt;br/&gt;"/><marker lat="40.443251306040722" lng="-79.976139975283601" zone="Zone 2" incidentdate="2015-05-08" incidenttime="11:20:00" incidentnumber="15081137" address="100 block Elmore St" type="OFFENSE" age="" gender="" description="*********************************************** &lt;br/&gt;3304, Criminal Mischief.&lt;br/&gt;2705, Recklessly Endangering Another Person.&lt;br/&gt;901, Criminal Attempt&lt;br/&gt;"/><marker lat="40.400918687645913" lng="-80.014538121304213" zone="Zone 6" incidentdate="2015-05-08" incidenttime="17:07:00" incidentnumber="15081346" address="400 block Fernhill Ave" type="OFFENSE" age="" gender="" description="*********************************************** &lt;br/&gt;2701, Simple Assault.&lt;br/&gt;"/><marker lat="40.4642764" lng="-79.9802776" zone="Zone 1" incidentdate="2015-05-08" incidenttime="07:10:00" incidentnumber="15081007" address="200 block East Ohio St" type="OFFENSE" age="" gender="" description="*********************************************** &lt;br/&gt;3304, Criminal Mischief.&lt;br/&gt;"/><marker lat="40.419119165871031" lng="-79.988020009516745" zone="Zone 3" incidentdate="2015-05-08" incidenttime="15:22:00" incidentnumber="15081261" address="E Amanda Ave" type="OFFENSE" age="" gender="" description="*********************************************** &lt;br/&gt;9501, Bench Warrant&lt;br/&gt;"/><marker lat="40.442273086548795" lng="-80.00411265495255" zone="Zone 2" incidentdate="2015-05-08" incidenttime="13:15:00" incidentnumber="15081302" address="500 block Penn Ave" type="OFFENSE" age="" gender="" description="*********************************************** &lt;br/&gt;3921, Theft by Unlawful Taking or Disposition.&lt;br/&gt;"/><marker lat="40.439006584679376" lng="-79.988178136603338" zone="Zone 5" incidentdate="2015-05-08" incidenttime="19:30:00" incidentnumber="15081431" address="1300 block Missouri St" type="OFFENSE" age="" gender="" description="*********************************************** &lt;br/&gt;2709(a)(4), Harassment Communicates Prohibited Acts&lt;br/&gt;2709(a)(1), Harassment by Physical Contact, or Attempts or Threats&lt;br/&gt;5503, Disorderly Conduct.&lt;br/&gt;9501, Bench Warrant&lt;br/&gt;2709, Harassment (Non-Specific)&lt;br/&gt;2706, Terroristic Threats.&lt;br/&gt;"/><marker lat="40.421103596071127" lng="-79.985317176382438" zone="Zone 3" incidentdate="2015-05-08" incidenttime="02:53:00" incidentnumber="14184095" address="2600 block S 18th St" type="OFFENSE" age="" gender="" description="*********************************************** &lt;br/&gt;4117, Insurance Fraud&lt;br/&gt;3736, Reckless Driving&lt;br/&gt;3745, Accidents Involving Damage to Unattended Veh.or Prop.&lt;br/&gt;4906, False Reports to Law Enforcement Authorities.&lt;br/&gt;"/><marker lat="40.44243727543337" lng="-79.999890570559657" zone="Zone 2" incidentdate="2015-05-08" incidenttime="08:00:00" incidentnumber="15081037" address="7th St &amp; Liberty Ave" type="OFFENSE" age="" gender="" description="*********************************************** &lt;br/&gt;3924, Theft of Property Lost, Mislaid or Delivered by Mistake.&lt;br/&gt;"/><marker lat="40.440332076098812" lng="-79.99811615543635" zone="Zone 2" incidentdate="2015-05-08" incidenttime="18:40:00" incidentnumber="15081420" address="500 block Smithfield St" type="OFFENSE" age="" gender="" description="*********************************************** &lt;br/&gt;2702, Aggravated Assault.&lt;br/&gt;2701, Simple Assault.&lt;br/&gt;2709, Harassment (Non-Specific)&lt;br/&gt;5505, Public Drunkenness&lt;br/&gt;"/><marker lat="40.441772984812665" lng="-80.001620450643472" zone="Zone 2" incidentdate="2015-05-08" incidenttime="00:01:00" incidentnumber="15081267" address="600 block Liberty Ave" type="OFFENSE" age="" gender="" description="*********************************************** &lt;br/&gt;4106, Access Device Fraud&lt;br/&gt;"/><marker lat="40.489145267059243" lng="-79.933278582818474" zone="Zone 5" incidentdate="2015-05-08" incidenttime="02:37:00" incidentnumber="15080939" address="Butler St &amp; Baker St" type="OFFENSE" age="" gender="" description="*********************************************** &lt;br/&gt;3746, Immediate Notice of Accident to Police Department&lt;br/&gt;3743, Accidents Involving Damage to Attended Veh. or Property&lt;br/&gt;2705, Recklessly Endangering Another Person.&lt;br/&gt;"/><marker lat="40.387040737230748" lng="-80.00224956741755" zone="Zone 3" incidentdate="2015-05-08" incidenttime="16:00:00" incidentnumber="15081427" address="Glenbury St" type="OFFENSE" age="" gender="" description="*********************************************** &lt;br/&gt;902, Criminal Solicitation.&lt;br/&gt;"/><marker lat="40.399184649147095" lng="-80.025493435297477" zone="Zone 6" incidentdate="2015-05-08" incidenttime="09:00:00" incidentnumber="15081048" address="2500 block West Liberty Ave" type="OFFENSE" age="" gender="" description="*********************************************** &lt;br/&gt;9501, Bench Warrant&lt;br/&gt;13(a)(16), Possession of Controlled Substance&lt;br/&gt;1543, Driving While Operating Privilege is Suspended or Revoked.&lt;br/&gt;"/><marker lat="40.458124412082178" lng="-79.893503500341438" zone="Zone 5" incidentdate="2015-05-08" incidenttime="18:03:00" incidentnumber="15081397" address="7300 block Race St" type="OFFENSE" age="" gender="" description="*********************************************** &lt;br/&gt;2701, Simple Assault.&lt;br/&gt;"/><marker lat="40.395745816638026" lng="-79.991434293605025" zone="Zone 3" incidentdate="2015-05-08" incidenttime="00:08:00" incidentnumber="15080863" address="300 block Riota Way" type="OFFENSE" age="" gender="" description="*********************************************** &lt;br/&gt;13(a)(31), Marijuana: Possession Small Amount&lt;br/&gt;9501, Bench Warrant&lt;br/&gt;"/><marker lat="40.439357443553178" lng="-79.999121070597084" zone="Zone 2" incidentdate="2015-05-08" incidenttime="12:30:00" incidentnumber="15081170" address="400 block Forbes Ave" type="OFFENSE" age="" gender="" description="*********************************************** &lt;br/&gt;9017, Found Drugs&lt;br/&gt;"/><marker lat="40.395627635856464" lng="-80.02356665623752" zone="Zone 6" incidentdate="2015-05-08" incidenttime="15:35:00" incidentnumber="15081271" address="500 block Brookline Blvd" type="OFFENSE" age="" gender="" description="*********************************************** &lt;br/&gt;3929(a)(1), Retail Theft; takes possession of, carries away, or transfers displayed merchandise&lt;br/&gt;"/><marker lat="40.442149856978411" lng="-79.957840380080995" zone="Zone 4" incidentdate="2015-05-08" incidenttime="17:30:00" incidentnumber="15081437" address="100 block Oakland Ave" type="OFFENSE" age="" gender="" description="*********************************************** &lt;br/&gt;3921(a), Theft by Unlawful Taking or Disposition - Movable item&lt;br/&gt;"/><marker lat="40.452785597686209" lng="-80.063358410815553" zone="Zone 6" incidentdate="2015-05-08" incidenttime="17:01:00" incidentnumber="15081335" address="3100 block Kelvin St" type="OFFENSE" age="" gender="" description="*********************************************** &lt;br/&gt;2702, Aggravated Assault.&lt;br/&gt;3304(a)(5), CRIMINAL MISCHIEF - Intentionally Damages Real Or Personal Property Of Another&lt;br/&gt;2706, Terroristic Threats.&lt;br/&gt;"/><marker lat="40.424744519877997" lng="-79.932837833677311" zone="Zone 4" incidentdate="2015-05-08" incidenttime="07:50:00" incidentnumber="15081080" address="900 block Lilac St" type="OFFENSE" age="" gender="" description="*********************************************** &lt;br/&gt;3934, Theft from Vehicle&lt;br/&gt;"/><marker lat="40.455446716079855" lng="-80.015132045255754" zone="Zone 1" incidentdate="2015-05-08" incidenttime="13:18:00" incidentnumber="15081203" address="800 block Riversea Rd" type="OFFENSE" age="" gender="" description="*********************************************** &lt;br/&gt;9488, False  Burglar Alarm&lt;br/&gt;"/><marker lat="40.428606966018023" lng="-79.985175111647919" zone="Zone 3" incidentdate="2015-05-08" incidenttime="00:10:00" incidentnumber="15080850" address="1300 block E Carson St" type="OFFENSE" age="" gender="" description="*********************************************** &lt;br/&gt;5505, Public Drunkenness&lt;br/&gt;"/><marker lat="40.446870792504882" lng="-79.954782459149413" zone="Zone 4" incidentdate="2015-05-08" incidenttime="21:40:00" incidentnumber="15081560" address="Tennyson Ave &amp; Bigelow Blvd" type="OFFENSE" age="" gender="" description="*********************************************** &lt;br/&gt;3701, Robbery.&lt;br/&gt;"/><marker lat="40.470636763018227" lng="-79.932787163462763" zone="Zone 5" incidentdate="2015-05-08" incidenttime="02:00:00" incidentnumber="15080966" address="N Aiken Ave &amp; Black St" type="OFFENSE" age="" gender="" description="*********************************************** &lt;br/&gt;3921(a), Theft by Unlawful Taking or Disposition - Movable item&lt;br/&gt;"/><marker lat="40.39139356283922" lng="-79.990191742090474" zone="Zone 3" incidentdate="2015-05-08" incidenttime="16:28:00" incidentnumber="15081307" address="Parkfield Ave &amp; Spokane Ave" type="OFFENSE" age="" gender="" description="*********************************************** &lt;br/&gt;2707, Propulsion of Missiles&lt;br/&gt;3304, Criminal Mischief.&lt;br/&gt;"/><marker lat="40.427658783724418" lng="-79.985290120354563" zone="Zone 3" incidentdate="2015-05-08" incidenttime="01:52:00" incidentnumber="15080917" address="S 13th St &amp; Sarah St" type="OFFENSE" age="" gender="" description="*********************************************** &lt;br/&gt;3308, One-Way Roadways and Rotary Traffic Islands.&lt;br/&gt;3802(c), DUI - Highest Rate of Alcohol - BAC &gt;= .16%&lt;br/&gt;3802(a)(1), DUI - General Impairment&lt;br/&gt;"/><marker lat="40.412935043158697" lng="-79.995578101752258" zone="Zone 3" incidentdate="2015-05-08" incidenttime="16:53:00" incidentnumber="15081323" address="400 block Parklow St" type="OFFENSE" age="" gender="" description="*********************************************** &lt;br/&gt;3502, Burglary.&lt;br/&gt;"/><marker lat="40.468619358902544" lng="-80.033405422277085" zone="Zone 1" incidentdate="2015-05-08" incidenttime="01:05:00" incidentnumber="15080892" address="1500 block Woodland Ave" type="OFFENSE" age="" gender="" description="*********************************************** &lt;br/&gt;3745, Accidents Involving Damage to Unattended Veh.or Prop.&lt;br/&gt;"/><marker lat="40.453243549148254" lng="-79.932460459158222" zone="Zone 4" incidentdate="2015-05-08" incidenttime="08:15:00" incidentnumber="15081068" address="5600 block Elmer St" type="OFFENSE" age="" gender="" description="*********************************************** &lt;br/&gt;3934, Theft from Vehicle&lt;br/&gt;"/><marker lat="40.449556287533937" lng="-80.064295606577844" zone="Zone 6" incidentdate="2015-05-08" incidenttime="19:33:00" incidentnumber="15081401" address="Tyndall St &amp; Middletown Rd" type="OFFENSE" age="" gender="" description="*********************************************** &lt;br/&gt;9999, 9999 - (Misc. Incident):&lt;br/&gt;"/><marker lat="40.436866669720686" lng="-79.896426322485695" zone="Zone 4" incidentdate="2015-05-08" incidenttime="08:30:00" incidentnumber="15081042" address="Biddle Ave &amp; S Braddock Ave" type="OFFENSE" age="" gender="" description="*********************************************** &lt;br/&gt;3743, Accidents Involving Damage to Attended Veh. or Property&lt;br/&gt;"/><marker lat="40.461996254274133" lng="-79.940666380663913" zone="Zone 5" incidentdate="2015-05-08" incidenttime="12:00:00" incidentnumber="15076152" address="300 block S Pacific Ave" type="OFFENSE" age="" gender="" description="*********************************************** &lt;br/&gt;3921(a), Theft by Unlawful Taking or Disposition - Movable item&lt;br/&gt;"/><marker lat="40.452042212663898" lng="-80.008738896002342" zone="Zone 1" incidentdate="2015-05-08" incidenttime="00:10:00" incidentnumber="15080867" address="200 block Ridge Ave" type="OFFENSE" age="" gender="" description="*********************************************** &lt;br/&gt;029, Missing Juvenile&lt;br/&gt;"/><marker lat="40.453663009093752" lng="-79.888821214185512" zone="Zone 5" incidentdate="2015-05-08" incidenttime="00:15:00" incidentnumber="15080872" address="Brushton Ave &amp; Kelly St" type="OFFENSE" age="" gender="" description="*********************************************** &lt;br/&gt;1543, Driving While Operating Privilege is Suspended or Revoked.&lt;br/&gt;13(a)(32), Paraphernalia - Use or Possession&lt;br/&gt;1786, Required Financial Responsibility.&lt;br/&gt;"/><marker lat="40.424882673625689" lng="-79.978431870229343" zone="Zone 3" incidentdate="2015-05-08" incidenttime="02:56:00" incidentnumber="15080963" address="2000 block Josephine St" type="OFFENSE" age="" gender="" description="*********************************************** &lt;br/&gt;3304, Criminal Mischief.&lt;br/&gt;"/><marker lat="40.42778097891572" lng="-79.980615009619669" zone="Zone 3" incidentdate="2015-05-08" incidenttime="01:39:00" incidentnumber="15080938" address="1800 block Sarah St" type="OFFENSE" age="" gender="" description="*********************************************** &lt;br/&gt;5503, Disorderly Conduct.&lt;br/&gt;"/><marker lat="40.454948691850667" lng="-80.009640272832598" zone="Zone 1" incidentdate="2015-05-08" incidenttime="04:00:00" incidentnumber="15080984" address="300 block W North Ave" type="OFFENSE" age="" gender="" description="*********************************************** &lt;br/&gt;9999, 9999 - (Misc. Incident):&lt;br/&gt;"/><marker lat="40.441406159731216" lng="-80.002873255548053" zone="Zone 2" incidentdate="2015-05-08" incidenttime="12:30:00" incidentnumber="15081484" address="100 block 5th Ave" type="OFFENSE" age="" gender="" description="*********************************************** &lt;br/&gt;4101, Forgery.&lt;br/&gt;3922, Theft by Deception.&lt;br/&gt;"/><marker lat="40.465318160052163" lng="-79.938412125934605" zone="Zone 5" incidentdate="2015-05-08" incidenttime="02:12:00" incidentnumber="15080929" address="N Atlantic Ave &amp; Dearborn St" type="OFFENSE" age="" gender="" description="*********************************************** &lt;br/&gt;3323, Stop Signs and Yield Signs.&lt;br/&gt;3733, Fleeing or Attempting to Elude Police Officer&lt;br/&gt;3736, Reckless Driving&lt;br/&gt;"/><marker lat="40.400918687645913" lng="-80.014538121304213" zone="Zone 6" incidentdate="2015-05-08" incidenttime="00:20:00" incidentnumber="15080869" address="400 block Fernhill Ave" type="OFFENSE" age="" gender="" description="*********************************************** &lt;br/&gt;9999, 9999 - (Misc. Incident):&lt;br/&gt;"/><marker lat="40.439534165811146" lng="-79.99836772444668" zone="Zone 2" incidentdate="2015-05-08" incidenttime="10:15:00" incidentnumber="15081100" address="400 block 5th Ave" type="OFFENSE" age="" gender="" description="*********************************************** &lt;br/&gt;3929(a)(1), Retail Theft; takes possession of, carries away, or transfers displayed merchandise&lt;br/&gt;"/><marker lat="40.458346762330798" lng="-80.049978566202512" zone="Zone 6" incidentdate="2015-05-08" incidenttime="19:45:00" incidentnumber="15081481" address="300 block Minton St" type="OFFENSE" age="" gender="" description="*********************************************** &lt;br/&gt;2705, Recklessly Endangering Another Person.&lt;br/&gt;3304(a)(3), MISCHIEF- Cause Another Pecuniary Loss (By Deception  Threat)&lt;br/&gt;607.03, Discharging Firearm or Airgun&lt;br/&gt;"/><marker lat="40.439730833032399" lng="-79.959469980072669" zone="Zone 4" incidentdate="2015-05-08" incidenttime="10:11:00" incidentnumber="15081096" address="200 block Mc Kee Pl" type="OFFENSE" age="" gender="" description="*********************************************** &lt;br/&gt;2709, Harassment (Non-Specific)&lt;br/&gt;2710, Ethnic Intimidation.&lt;br/&gt;"/><marker lat="40.45688934517613" lng="-79.938486703499024" zone="Zone 5" incidentdate="2015-05-08" incidenttime="11:18:00" incidentnumber="15081134" address="5400 block Baum Blvd" type="OFFENSE" age="" gender="" description="*********************************************** &lt;br/&gt;3743, Accidents Involving Damage to Attended Veh. or Property&lt;br/&gt;"/><marker lat="40.451647068929596" lng="-79.970280420255506" zone="Zone 2" incidentdate="2015-05-08" incidenttime="21:22:00" incidentnumber="15081540" address="Bedford Ave &amp; Francis St" type="OFFENSE" age="" gender="" description="*********************************************** &lt;br/&gt;3743, Accidents Involving Damage to Attended Veh. or Property&lt;br/&gt;"/><marker lat="40.4629498" lng="-79.8923735" zone="Zone 5" incidentdate="2015-05-08" incidenttime="01:00:00" incidentnumber="15081031" address="7100 block Everton St" type="OFFENSE" age="" gender="" description="*********************************************** &lt;br/&gt;2706, Terroristic Threats.&lt;br/&gt;3304, Criminal Mischief.&lt;br/&gt;"/><marker lat="40.453312242754301" lng="-80.001693845474151" zone="Zone 1" incidentdate="2015-05-08" incidenttime="03:15:00" incidentnumber="15080956" address="Cedar Ave &amp; East Ohio St" type="OFFENSE" age="" gender="" description="*********************************************** &lt;br/&gt;9501, Bench Warrant&lt;br/&gt;"/><marker lat="40.453814792432453" lng="-79.936185049162745" zone="Zone 4" incidentdate="2015-05-08" incidenttime="07:00:00" incidentnumber="15081016" address="500 block Roslyn Pl" type="OFFENSE" age="" gender="" description="*********************************************** &lt;br/&gt;3934, Theft from Vehicle&lt;br/&gt;"/><marker lat="40.460594319900963" lng="-79.922716789802806" zone="Zone 5" incidentdate="2015-05-08" incidenttime="15:21:00" incidentnumber="15081264" address="6200 block Penn Ave" type="OFFENSE" age="" gender="" description="*********************************************** &lt;br/&gt;2701, Simple Assault.&lt;br/&gt;3929, Retail Theft.&lt;br/&gt;903, Criminal Conspiracy.&lt;br/&gt;"/><marker lat="40.404939361855945" lng="-79.990899233620965" zone="Zone 3" incidentdate="2015-05-08" incidenttime="17:15:00" incidentnumber="15081469" address="1100 block Brownsville Rd" type="OFFENSE" age="" gender="" description="*********************************************** &lt;br/&gt;3924, Theft of Property Lost, Mislaid or Delivered by Mistake.&lt;br/&gt;"/><marker lat="40.396947386530783" lng="-79.981210133707236" zone="Zone 3" incidentdate="2015-05-08" incidenttime="08:30:00" incidentnumber="15080290" address="E Agnew Ave" type="OFFENSE" age="" gender="" description="*********************************************** &lt;br/&gt;4304(a)(1), Endangering Welfare of Children - Course of Conduct Enhanced&lt;br/&gt;2701, Simple Assault.&lt;br/&gt;"/><marker lat="40.410329699394516" lng="-80.028507724722616" zone="Zone 6" incidentdate="2015-05-08" incidenttime="16:18:00" incidentnumber="15081284" address="1600 block Alverado Ave" type="OFFENSE" age="" gender="" description="*********************************************** &lt;br/&gt;3301, Arson&lt;br/&gt;"/><marker lat="40.455185259891799" lng="-80.011620256446818" zone="Zone 1" incidentdate="2015-05-08" incidenttime="18:05:00" incidentnumber="15081601" address="1200 block Resaca Pl" type="OFFENSE" age="" gender="" description="*********************************************** &lt;br/&gt;2709(a), Harassment.&lt;br/&gt;"/><marker lat="40.452966162510073" lng="-79.891011747036316" zone="Zone 5" incidentdate="2015-05-08" incidenttime="12:30:00" incidentnumber="15081167" address="7600 block Hamilton Ave" type="OFFENSE" age="" gender="" description="*********************************************** &lt;br/&gt;029, Missing Juvenile&lt;br/&gt;"/><marker lat="40.414983296810647" lng="-79.993074408092554" zone="Zone 3" incidentdate="2015-05-08" incidenttime="23:52:00" incidentnumber="15081633" address="300 block Rochelle St" type="OFFENSE" age="" gender="" description="*********************************************** &lt;br/&gt;5503, Disorderly Conduct.&lt;br/&gt;2701(a)(3), Simple Assault - Attempts by Physical Menace&lt;br/&gt;"/><marker lat="40.466616756829907" lng="-79.993676874083434" zone="Zone 1" incidentdate="2015-05-08" incidenttime="11:56:00" incidentnumber="15081154" address="2100 block Rhine St" type="OFFENSE" age="" gender="" description="*********************************************** &lt;br/&gt;2701, Simple Assault.&lt;br/&gt;908, Prohibited Offensive Weapons.&lt;br/&gt;"/><marker lat="40.470459852290823" lng="-80.0111378348073" zone="Zone 1" incidentdate="2015-05-08" incidenttime="00:48:00" incidentnumber="15080811" address="2900 block N Charles St" type="OFFENSE" age="" gender="" description="*********************************************** &lt;br/&gt;9497, Aided Case&lt;br/&gt;"/><marker lat="40.4864949" lng="-80.0412703" zone="Zone OSC" incidentdate="2015-05-08" incidenttime="09:55:00" incidentnumber="15081086" address="300 block Marguerite Ave" type="OFFENSE" age="" gender="" description="*********************************************** &lt;br/&gt;029, Missing Juvenile&lt;br/&gt;"/><marker lat="40.431135693148185" lng="-79.95920277983889" zone="Zone 4" incidentdate="2015-05-08" incidenttime="13:21:00" incidentnumber="15081205" address="2nd Ave &amp; Tecnology Dr" type="OFFENSE" age="" gender="" description="*********************************************** &lt;br/&gt;9498, 302 (Mental)&lt;br/&gt;"/><marker lat="40.447791383449896" lng="-80.003763673123132" zone="Zone 1" incidentdate="2015-05-08" incidenttime="07:28:00" incidentnumber="15081011" address="100 block Federal St" type="OFFENSE" age="" gender="" description="*********************************************** &lt;br/&gt;3921, Theft by Unlawful Taking or Disposition.&lt;br/&gt;"/><marker lat="40.409989086501" lng="-79.944077203924408" zone="Zone 4" incidentdate="2015-05-08" incidenttime="18:00:00" incidentnumber="15081328" address="Flowers Ave &amp; 2nd Ave" type="OFFENSE" age="" gender="" description="*********************************************** &lt;br/&gt;9999, 9999 - (Misc. Incident):&lt;br/&gt;5505, Public Drunkenness&lt;br/&gt;"/><marker lat="40.432300975675005" lng="-79.923057983127705" zone="Zone 4" incidentdate="2015-05-08" incidenttime="12:00:00" incidentnumber="15081158" address="5800 block Phillips Ave" type="OFFENSE" age="" gender="" description="*********************************************** &lt;br/&gt;9504, Lost Property&lt;br/&gt;"/><marker lat="40.431464673671677" lng="-79.921702079597651" zone="Zone 4" incidentdate="2015-05-08" incidenttime="11:00:00" incidentnumber="15081145" address="2300 block Sherbrook St" type="OFFENSE" age="" gender="" description="*********************************************** &lt;br/&gt;3921(a), Theft by Unlawful Taking or Disposition - Movable item&lt;br/&gt;"/><marker lat="40.450892721440539" lng="-80.000843891836467" zone="Zone 1" incidentdate="2015-05-08" incidenttime="15:40:00" incidentnumber="15081291" address="300 block Cedar Ave" type="OFFENSE" age="" gender="" description="*********************************************** &lt;br/&gt;3745, Accidents Involving Damage to Unattended Veh.or Prop.&lt;br/&gt;"/><marker lat="40.45474510446261" lng="-80.006336445365193" zone="Zone 1" incidentdate="2015-05-08" incidenttime="19:49:00" incidentnumber="15081446" address="Montgomery Pl" type="OFFENSE" age="" gender="" description="*********************************************** &lt;br/&gt;3701, Robbery.&lt;br/&gt;"/><marker lat="40.423709771760656" lng="-80.000873968973863" zone="Zone 3" incidentdate="2015-05-08" incidenttime="00:07:00" incidentnumber="14121033" address="400 block Eureka St" type="ARREST" age="42" gender="M" description="*********************************************** &lt;br/&gt;2701, Simple Assault.&lt;br/&gt;"/><marker lat="40.461353731915985" lng="-79.92481731514026" zone="Zone 5" incidentdate="2015-05-08" incidenttime="21:00:00" incidentnumber="15053114" address="6000 block Penn Ave" type="ARREST" age="22" gender="M" description="*********************************************** &lt;br/&gt;2701(a)(3), Simple Assault - Attempts by Physical Menace&lt;br/&gt;5503(a)(3), DISORDERLY CONDUCT - OBSCENE LANG/GEST&lt;br/&gt;2706, Terroristic Threats.&lt;br/&gt;"/><marker lat="40.4534768" lng="-80.0005931" zone="Zone 1" incidentdate="2015-05-08" incidenttime="10:20:00" incidentnumber="14193097" address="East Ohio St &amp; James St" type="ARREST" age="25" gender="F" description="*********************************************** &lt;br/&gt;13(a)(31), Marijuana: Possession Small Amount&lt;br/&gt;13(a)(16), Possession of Controlled Substance&lt;br/&gt;"/><marker lat="40.457116042215844" lng="-80.062951348875856" zone="Zone 6" incidentdate="2015-05-08" incidenttime="12:51:00" incidentnumber="15081185" address="1000 block Stanhope St" type="ARREST" age="33" gender="M" description="*********************************************** &lt;br/&gt;9501, Bench Warrant&lt;br/&gt;"/><marker lat="40.419119165871031" lng="-79.988020009516745" zone="Zone 3" incidentdate="2015-05-08" incidenttime="15:22:00" incidentnumber="15081261" address="E Amanda Ave" type="ARREST" age="20" gender="M" description="*********************************************** &lt;br/&gt;9501, Bench Warrant&lt;br/&gt;"/><marker lat="40.45474510446261" lng="-80.006336445365193" zone="Zone 1" incidentdate="2015-05-08" incidenttime="19:49:00" incidentnumber="15081446" address="Montgomery Pl" type="ARREST" age="19" gender="M" description="*********************************************** &lt;br/&gt;3701, Robbery.&lt;br/&gt;"/><marker lat="40.439006584679376" lng="-79.988178136603338" zone="Zone 5" incidentdate="2015-05-08" incidenttime="19:35:00" incidentnumber="15081431" address="1300 block Missouri St" type="ARREST" age="52" gender="M" description="*********************************************** &lt;br/&gt;2709(a)(4), Harassment Communicates Prohibited Acts&lt;br/&gt;2709(a)(1), Harassment by Physical Contact, or Attempts or Threats&lt;br/&gt;5503, Disorderly Conduct.&lt;br/&gt;9501, Bench Warrant&lt;br/&gt;2709, Harassment (Non-Specific)&lt;br/&gt;2706, Terroristic Threats.&lt;br/&gt;"/><marker lat="40.453663009093752" lng="-79.888821214185512" zone="Zone 5" incidentdate="2015-05-08" incidenttime="00:20:00" incidentnumber="15080872" address="Brushton Ave &amp; Kelly St" type="ARREST" age="52" gender="M" description="*********************************************** &lt;br/&gt;1543, Driving While Operating Privilege is Suspended or Revoked.&lt;br/&gt;13(a)(32), Paraphernalia - Use or Possession&lt;br/&gt;1786, Required Financial Responsibility.&lt;br/&gt;"/><marker lat="40.453312242754301" lng="-80.001693845474151" zone="Zone 1" incidentdate="2015-05-08" incidenttime="03:10:00" incidentnumber="15080956" address="Cedar Ave &amp; East Ohio St" type="ARREST" age="45" gender="M" description="*********************************************** &lt;br/&gt;9501, Bench Warrant&lt;br/&gt;"/><marker lat="40.427658783724418" lng="-79.985290120354563" zone="Zone 3" incidentdate="2015-05-08" incidenttime="01:52:00" incidentnumber="15080917" address="S 13th St &amp; Sarah St" type="ARREST" age="27" gender="M" description="*********************************************** &lt;br/&gt;3308, One-Way Roadways and Rotary Traffic Islands.&lt;br/&gt;3802(c), DUI - Highest Rate of Alcohol - BAC &gt;= .16%&lt;br/&gt;3802(a)(1), DUI - General Impairment&lt;br/&gt;"/><marker lat="40.458124412082178" lng="-79.893503500341438" zone="Zone 5" incidentdate="2015-05-08" incidenttime="18:03:00" incidentnumber="15081397" address="7300 block Race St" type="ARREST" age="58" gender="M" description="*********************************************** &lt;br/&gt;2701, Simple Assault.&lt;br/&gt;"/><marker lat="40.411351908337011" lng="-79.975571753972645" zone="Zone 3" incidentdate="2015-05-08" incidenttime="14:25:00" incidentnumber="15081227" address="Fisher St &amp; Engstler St" type="ARREST" age="30" gender="F" description="*********************************************** &lt;br/&gt;9501, Bench Warrant&lt;br/&gt;"/><marker lat="40.428038031036849" lng="-79.976314371878317" zone="Zone 3" incidentdate="2015-05-08" incidenttime="17:45:00" incidentnumber="15081370" address="S 21st St &amp; Carey Way" type="ARREST" age="27" gender="M" description="*********************************************** &lt;br/&gt;13(a)(31), Marijuana: Possession Small Amount&lt;br/&gt;4706, Prohib. on Expend. for Emission Insp Prog..&lt;br/&gt;4702, Requirement for Periodic Inspection of Vehicles&lt;br/&gt;"/><marker lat="40.395745816638026" lng="-79.991434293605025" zone="Zone 3" incidentdate="2015-05-08" incidenttime="00:08:00" incidentnumber="15080863" address="300 block Riota Way" type="ARREST" age="23" gender="F" description="*********************************************** &lt;br/&gt;13(a)(31), Marijuana: Possession Small Amount&lt;br/&gt;9501, Bench Warrant&lt;br/&gt;"/><marker lat="40.399184649147095" lng="-80.025493435297477" zone="Zone 6" incidentdate="2015-05-08" incidenttime="09:24:00" incidentnumber="15081048" address="2500 block West Liberty Ave" type="ARREST" age="37" gender="F" description="*********************************************** &lt;br/&gt;9501, Bench Warrant&lt;br/&gt;13(a)(16), Possession of Controlled Substance&lt;br/&gt;1543, Driving While Operating Privilege is Suspended or Revoked.&lt;br/&gt;"/><marker lat="40.439534165811146" lng="-79.99836772444668" zone="Zone 2" incidentdate="2015-05-08" incidenttime="10:45:00" incidentnumber="15081100" address="400 block 5th Ave" type="ARREST" age="50" gender="F" description="*********************************************** &lt;br/&gt;3929(a)(1), Retail Theft; takes possession of, carries away, or transfers displayed merchandise&lt;br/&gt;"/><marker lat="40.437339105606732" lng="-79.977732648133241" zone="Zone 2" incidentdate="2015-05-08" incidenttime="16:45:00" incidentnumber="15081320" address="Forbes Ave &amp; Jumonville St" type="ARREST" age="28" gender="M" description="*********************************************** &lt;br/&gt;1511, Carrying and Exhibiting Drivers License on Demand.&lt;br/&gt;4304(a)(1), Endangering Welfare of Children - Course of Conduct Enhanced&lt;br/&gt;3323, Stop Signs and Yield Signs.&lt;br/&gt;3743, Accidents Involving Damage to Attended Veh. or Property&lt;br/&gt;3308, One-Way Roadways and Rotary Traffic Islands.&lt;br/&gt;3736, Reckless Driving&lt;br/&gt;3733, Fleeing or Attempting to Elude Police Officer&lt;br/&gt;13(a)(31), Marijuana: Possession Small Amount&lt;br/&gt;4581, Restraint Systems.&lt;br/&gt;"/><marker lat="40.378603408616705" lng="-79.992900162766659" zone="Zone 3" incidentdate="2015-05-08" incidenttime="07:50:00" incidentnumber="15010019" address="Saw Mill Run Blvd &amp; Stewart Ave" type="ARREST" age="30" gender="M" description="*********************************************** &lt;br/&gt;3921(a), Theft by Unlawful Taking or Disposition - Movable item&lt;br/&gt;9501, Bench Warrant&lt;br/&gt;"/><marker lat="40.4539862" lng="-80.0524091" zone="Zone 6" incidentdate="2015-05-08" incidenttime="12:20:00" incidentnumber="15006818" address="600 block Hillsboro St" type="ARREST" age="47" gender="F" description="*********************************************** &lt;br/&gt;3921, Theft by Unlawful Taking or Disposition.&lt;br/&gt;"/><marker lat="40.421103596071127" lng="-79.985317176382438" zone="Zone 3" incidentdate="2015-05-08" incidenttime="02:54:00" incidentnumber="14184095" address="2600 block S 18th St" type="ARREST" age="26" gender="M" description="*********************************************** &lt;br/&gt;4117, Insurance Fraud&lt;br/&gt;3736, Reckless Driving&lt;br/&gt;3745, Accidents Involving Damage to Unattended Veh.or Prop.&lt;br/&gt;4906, False Reports to Law Enforcement Authorities.&lt;br/&gt;"/><marker lat="40.434299677403494" lng="-79.961173018071435" zone="Zone 4" incidentdate="2015-05-08" incidenttime="06:39:00" incidentnumber="15080995" address="3200 block Kennett Sq" type="ARREST" age="54" gender="M" description="*********************************************** &lt;br/&gt;9093, Indirect Criminal Contempt&lt;br/&gt;"/><marker lat="40.434696587775576" lng="-79.996300985228572" zone="Zone 2" incidentdate="2015-05-08" incidenttime="21:00:00" incidentnumber="15047082" address="600 block 1st Ave" type="ARREST" age="24" gender="M" description="*********************************************** &lt;br/&gt;3922, Theft by Deception.&lt;br/&gt;4101, Forgery.&lt;br/&gt;4106, Access Device Fraud&lt;br/&gt;"/><marker lat="40.443610698976059" lng="-79.998043561602501" zone="Zone 2" incidentdate="2015-05-08" incidenttime="10:00:00" incidentnumber="15074137" address="900 block Penn Ave" type="ARREST" age="26" gender="M" description="*********************************************** &lt;br/&gt;901, Criminal Attempt&lt;br/&gt;"/><marker lat="40.441919441965581" lng="-79.982892744621594" zone="Zone 2" incidentdate="2015-05-08" incidenttime="21:20:00" incidentnumber="15081522" address="1800 block Centre Ave" type="ARREST" age="15" gender="M" description="*********************************************** &lt;br/&gt;3701, Robbery.&lt;br/&gt;4952, Intimidation of Witnesses or Victims&lt;br/&gt;"/><marker lat="40.466616756829907" lng="-79.993676874083434" zone="Zone 1" incidentdate="2015-05-08" incidenttime="11:56:00" incidentnumber="15081154" address="2100 block Rhine St" type="ARREST" age="30" gender="M" description="*********************************************** &lt;br/&gt;2701, Simple Assault.&lt;br/&gt;908, Prohibited Offensive Weapons.&lt;br/&gt;"/><marker lat="40.4640522" lng="-79.9527564" zone="Zone 5" incidentdate="2015-05-08" incidenttime="09:20:00" incidentnumber="15069768" address="4400 block Howley St" type="ARREST" age="27" gender="M" description="*********************************************** &lt;br/&gt;3929, Retail Theft.&lt;br/&gt;"/></markers>
