<?xml version="1.0"?>
<markers><marker lat="40.429411662710983" lng="-79.986139605924578" zone="Zone 3" incidentdate="2016-04-29" incidenttime="21:50:00" incidentnumber="16078265" address="Bedford Sq" type="OFFENSE" age="" gender="" description="*********************************************** &lt;br/&gt;3921, Theft by Unlawful Taking or Disposition.&lt;br/&gt;"/><marker lat="40.441569295747946" lng="-80.040474475526466" zone="Zone 6" incidentdate="2016-04-29" incidenttime="18:49:00" incidentnumber="16078145" address="800 block Steuben St" type="OFFENSE" age="" gender="" description="*********************************************** &lt;br/&gt;2709(a), Harassment.&lt;br/&gt;"/><marker lat="40.450349551044347" lng="-79.870079209367304" zone="Zone 5" incidentdate="2016-04-29" incidenttime="16:53:00" incidentnumber="16078075" address="2000 block Fairlawn St" type="OFFENSE" age="" gender="" description="*********************************************** &lt;br/&gt;9496, Dead on Arrival (DOA)&lt;br/&gt;"/><marker lat="40.453883573577833" lng="-80.065065064905042" zone="Zone 6" incidentdate="2016-04-29" incidenttime="16:25:00" incidentnumber="16078051" address="Kelvin St &amp; Chartiers Ave" type="OFFENSE" age="" gender="" description="*********************************************** &lt;br/&gt;3736, Reckless Driving&lt;br/&gt;3745, Accidents Involving Damage to Unattended Veh.or Prop.&lt;br/&gt;1501, Drivers Required to be Licensed.&lt;br/&gt;3802(a)(1), DUI - General Impairment&lt;br/&gt;3802(b), DUI - High Rate of Alchol - BAC &gt;=.10% &lt;.16%&lt;br/&gt;"/><marker lat="40.445099987229362" lng="-79.999050002208406" zone="Zone 2" incidentdate="2016-04-29" incidenttime="02:20:00" incidentnumber="16077747" address="100 block 9th St" type="OFFENSE" age="" gender="" description="*********************************************** &lt;br/&gt;2701, Simple Assault.&lt;br/&gt;"/><marker lat="40.446754611217841" lng="-79.978798970700083" zone="Zone 2" incidentdate="2016-04-29" incidenttime="07:00:00" incidentnumber="16078091" address="Elmore St" type="OFFENSE" age="" gender="" description="*********************************************** &lt;br/&gt;3745, Accidents Involving Damage to Unattended Veh.or Prop.&lt;br/&gt;"/><marker lat="40.441228428031053" lng="-80.002073791411135" zone="Zone 2" incidentdate="2016-04-29" incidenttime="14:45:00" incidentnumber="16078040" address="200 block 5th Ave" type="OFFENSE" age="" gender="" description="*********************************************** &lt;br/&gt;3921, Theft by Unlawful Taking or Disposition.&lt;br/&gt;"/><marker lat="40.446935785650446" lng="-79.949029458315451" zone="Zone 4" incidentdate="2016-04-29" incidenttime="15:30:00" incidentnumber="16078020" address="N Craig St &amp; 5th Ave" type="OFFENSE" age="" gender="" description="*********************************************** &lt;br/&gt;3743, Accidents Involving Damage to Attended Veh. or Property&lt;br/&gt;"/><marker lat="40.402205868785494" lng="-79.988418115860782" zone="Zone 3" incidentdate="2016-04-29" incidenttime="08:40:00" incidentnumber="16077829" address="100 block Birmingham Ave" type="OFFENSE" age="" gender="" description="*********************************************** &lt;br/&gt;9496, Dead on Arrival (DOA)&lt;br/&gt;"/><marker lat="40.4600940" lng="-79.9238524" zone="Zone 4" incidentdate="2016-04-29" incidenttime="20:34:00" incidentnumber="16078194" address="6300 block Shakespeare St" type="OFFENSE" age="" gender="" description="*********************************************** &lt;br/&gt;9092, Bond Forfeiture Warrant&lt;br/&gt;"/><marker lat="40.412867872402522" lng="-80.026872654094134" zone="Zone 6" incidentdate="2016-04-29" incidenttime="20:53:00" incidentnumber="16078209" address="1500 block Rutherford Ave" type="OFFENSE" age="" gender="" description="*********************************************** &lt;br/&gt;2701, Simple Assault.&lt;br/&gt;"/><marker lat="40.426315067503658" lng="-79.969102826391776" zone="Zone 3" incidentdate="2016-04-29" incidenttime="12:46:00" incidentnumber="16077934" address="100 block S 26th St" type="OFFENSE" age="" gender="" description="*********************************************** &lt;br/&gt;9999, 9999 - (Misc. Incident):&lt;br/&gt;"/><marker lat="40.440443069237119" lng="-79.953722453915574" zone="Zone 4" incidentdate="2016-04-29" incidenttime="02:16:00" incidentnumber="16077729" address="S Bouquet St &amp; Joncaire St" type="OFFENSE" age="" gender="" description="*********************************************** &lt;br/&gt;5505, Public Drunkenness&lt;br/&gt;"/><marker lat="40.46855136676831" lng="-79.906391023787634" zone="Zone 5" incidentdate="2016-04-29" incidenttime="01:47:00" incidentnumber="16077717" address="6400 block Apple Ave" type="OFFENSE" age="" gender="" description="*********************************************** &lt;br/&gt;3304, Criminal Mischief.&lt;br/&gt;8106, Shots Fired&lt;br/&gt;"/><marker lat="40.450038965886904" lng="-79.927210618766054" zone="Zone 4" incidentdate="2016-04-29" incidenttime="09:00:00" incidentnumber="16077847" address="5800 block 5th Ave" type="OFFENSE" age="" gender="" description="*********************************************** &lt;br/&gt;3745, Accidents Involving Damage to Unattended Veh.or Prop.&lt;br/&gt;"/><marker lat="40.463628978177795" lng="-80.012239660723822" zone="Zone 1" incidentdate="2016-04-29" incidenttime="08:00:00" incidentnumber="16077836" address="2100 block Perrysville Ave" type="OFFENSE" age="" gender="" description="*********************************************** &lt;br/&gt;3934, Theft from Vehicle&lt;br/&gt;"/><marker lat="40.478846468228319" lng="-80.043103207786132" zone="Zone 1" incidentdate="2016-04-29" incidenttime="18:19:00" incidentnumber="16078122" address="Mckees Rocks Brg &amp; Ohio River Blvd" type="OFFENSE" age="" gender="" description="*********************************************** &lt;br/&gt;13(a)(16), Possession of Controlled Substance&lt;br/&gt;13(a)(30), Possession w/ Intent to Del. Controlled Substance&lt;br/&gt;5104, Resisting Arrest or Other Law Enforcement.&lt;br/&gt;2702, Aggravated Assault.&lt;br/&gt;1501, Drivers Required to be Licensed.&lt;br/&gt;1543, Driving While Operating Privilege is Suspended or Revoked.&lt;br/&gt;3802(d)(2), DUI - Drug - Impaired Ability&lt;br/&gt;"/><marker lat="40.470123134149183" lng="-80.026200344629331" zone="Zone 1" incidentdate="2016-04-29" incidenttime="23:23:00" incidentnumber="16078282" address="1100 block Woodland Ave" type="OFFENSE" age="" gender="" description="*********************************************** &lt;br/&gt;13(a)(16), Possession of Controlled Substance&lt;br/&gt;13(a)(32), Paraphernalia - Use or Possession&lt;br/&gt;4910, Tampering with or Fabricating Physical Evidence.&lt;br/&gt;"/><marker lat="40.467060449430626" lng="-79.942227634636566" zone="Zone 5" incidentdate="2016-04-29" incidenttime="00:33:00" incidentnumber="16077682" address="5100 block Kincaid St" type="OFFENSE" age="" gender="" description="*********************************************** &lt;br/&gt;029, Missing Juvenile&lt;br/&gt;"/><marker lat="40.459220430259037" lng="-79.910881573554278" zone="Zone 5" incidentdate="2016-04-29" incidenttime="09:39:00" incidentnumber="16077846" address="6600 block Frankstown Ave" type="OFFENSE" age="" gender="" description="*********************************************** &lt;br/&gt;9498, 302 (Mental)&lt;br/&gt;"/><marker lat="40.447054980783577" lng="-80.051047596405752" zone="Zone 6" incidentdate="2016-04-29" incidenttime="08:25:00" incidentnumber="16077822" address="Woodlow St &amp; Crucible St" type="OFFENSE" age="" gender="" description="*********************************************** &lt;br/&gt;9999, 9999 - (Misc. Incident):&lt;br/&gt;"/><marker lat="40.439134875179292" lng="-79.980460317668332" zone="Zone 2" incidentdate="2016-04-29" incidenttime="18:09:00" incidentnumber="16078124" address="200 block Dinwiddie St" type="OFFENSE" age="" gender="" description="*********************************************** &lt;br/&gt;9488, False  Burglar Alarm&lt;br/&gt;"/><marker lat="40.428585203983602" lng="-79.981869007680203" zone="Zone 3" incidentdate="2016-04-29" incidenttime="01:47:00" incidentnumber="16077716" address="1700 block E Carson St" type="OFFENSE" age="" gender="" description="*********************************************** &lt;br/&gt;2709(a)(1), Harassment by Physical Contact, or Attempts or Threats&lt;br/&gt;"/><marker lat="40.421531877189601" lng="-79.993577564166102" zone="Zone 3" incidentdate="2016-04-29" incidenttime="07:00:00" incidentnumber="16077803" address="800 block E Warrington Ave" type="OFFENSE" age="" gender="" description="*********************************************** &lt;br/&gt;9124, Drug Investigation&lt;br/&gt;"/><marker lat="40.4199199875451" lng="-79.993675059038551" zone="Zone 3" incidentdate="2016-04-29" incidenttime="21:21:00" incidentnumber="16078225" address="800 block Climax St" type="OFFENSE" age="" gender="" description="*********************************************** &lt;br/&gt;13(a)(32), Paraphernalia - Use or Possession&lt;br/&gt;"/><marker lat="40.462278591338645" lng="-79.943299111251875" zone="Zone 5" incidentdate="2016-04-29" incidenttime="16:00:00" incidentnumber="16078050" address="300 block S Winebiddle St" type="OFFENSE" age="" gender="" description="*********************************************** &lt;br/&gt;3922, Theft by Deception.&lt;br/&gt;"/><marker lat="40.432702002999356" lng="-80.020878302944851" zone="Zone 3" incidentdate="2016-04-29" incidenttime="19:30:00" incidentnumber="16078167" address="400 block Oneida St" type="OFFENSE" age="" gender="" description="*********************************************** &lt;br/&gt;2709(a)(5), Harassment Communicates Repeatedly in Anonymous Manner&lt;br/&gt;"/><marker lat="40.445510889624224" lng="-79.995244891488738" zone="Zone 2" incidentdate="2016-04-29" incidenttime="12:00:00" incidentnumber="16077976" address="1000 block Fort Duquesne Blvd" type="OFFENSE" age="" gender="" description="*********************************************** &lt;br/&gt;3924, Theft of Property Lost, Mislaid or Delivered by Mistake.&lt;br/&gt;"/><marker lat="40.421531877189601" lng="-79.993577564166102" zone="Zone 3" incidentdate="2016-04-29" incidenttime="02:01:00" incidentnumber="16077726" address="800 block E Warrington Ave" type="OFFENSE" age="" gender="" description="*********************************************** &lt;br/&gt;13(a)(16), Possession of Controlled Substance&lt;br/&gt;13(a)(32), Paraphernalia - Use or Possession&lt;br/&gt;"/><marker lat="40.479993099343559" lng="-80.037339160828381" zone="Zone 1" incidentdate="2016-04-29" incidenttime="08:09:00" incidentnumber="16077812" address="1500 block Letort St" type="OFFENSE" age="" gender="" description="*********************************************** &lt;br/&gt;9496, Dead on Arrival (DOA)&lt;br/&gt;"/><marker lat="40.418008673560131" lng="-79.990763868073245" zone="Zone 3" incidentdate="2016-04-29" incidenttime="15:00:00" incidentnumber="16078007" address="200 block Orchard Pl" type="OFFENSE" age="" gender="" description="*********************************************** &lt;br/&gt;3304, Criminal Mischief.&lt;br/&gt;"/><marker lat="40.399568008438834" lng="-79.985619672650458" zone="Zone 3" incidentdate="2016-04-29" incidenttime="01:28:00" incidentnumber="16077708" address="200 block Alries St" type="OFFENSE" age="" gender="" description="*********************************************** &lt;br/&gt;2705, Recklessly Endangering Another Person.&lt;br/&gt;2701(a)(3), Simple Assault - Attempts by Physical Menace&lt;br/&gt;"/><marker lat="40.428990235576741" lng="-79.99836059977649" zone="Zone 3" incidentdate="2016-04-29" incidenttime="03:00:00" incidentnumber="16077757" address="P J Mc Ardle Rdwy &amp; Arlington Ave" type="OFFENSE" age="" gender="" description="*********************************************** &lt;br/&gt;3745, Accidents Involving Damage to Unattended Veh.or Prop.&lt;br/&gt;"/><marker lat="40.449945984416168" lng="-79.950663260585088" zone="Zone 4" incidentdate="2016-04-29" incidenttime="08:00:00" incidentnumber="16077824" address="200 block N Craig St" type="OFFENSE" age="" gender="" description="*********************************************** &lt;br/&gt;9490, Missing Persons (18 and Over)&lt;br/&gt;"/><marker lat="40.462193172783955" lng="-79.942836575601433" zone="Zone 5" incidentdate="2016-04-29" incidenttime="12:00:00" incidentnumber="16077873" address="5100 block Friendship Ave" type="OFFENSE" age="" gender="" description="*********************************************** &lt;br/&gt;3934, Theft from Vehicle&lt;br/&gt;"/><marker lat="40.439120068050713" lng="-79.961787778830598" zone="Zone 4" incidentdate="2016-04-29" incidenttime="09:47:00" incidentnumber="16077854" address="3400 block 5th Ave" type="OFFENSE" age="" gender="" description="*********************************************** &lt;br/&gt;3745, Accidents Involving Damage to Unattended Veh.or Prop.&lt;br/&gt;"/><marker lat="40.481278943265984" lng="-80.036016283463624" zone="Zone 1" incidentdate="2016-04-29" incidenttime="15:15:00" incidentnumber="16078012" address="Davis Ave &amp; McClure Ave" type="OFFENSE" age="" gender="" description="*********************************************** &lt;br/&gt;3743, Accidents Involving Damage to Attended Veh. or Property&lt;br/&gt;"/><marker lat="40.450892721440539" lng="-80.000843891836467" zone="Zone 1" incidentdate="2016-04-29" incidenttime="02:39:00" incidentnumber="16077745" address="300 block Cedar Ave" type="OFFENSE" age="" gender="" description="*********************************************** &lt;br/&gt;9497, Aided Case&lt;br/&gt;"/><marker lat="40.441024249715781" lng="-79.95736833680553" zone="Zone 4" incidentdate="2016-04-29" incidenttime="02:34:00" incidentnumber="16077743" address="3700 block Forbes Ave" type="OFFENSE" age="" gender="" description="*********************************************** &lt;br/&gt;3503(b)(1)(i), Actual Communication&lt;br/&gt;5104, Resisting Arrest or Other Law Enforcement.&lt;br/&gt;2702, Aggravated Assault.&lt;br/&gt;5503(a)(4), DISORDERLY CONDUCT - HAZARDOUS/PHYS. OFF&lt;br/&gt;2701, Simple Assault.&lt;br/&gt;5505, Public Drunkenness&lt;br/&gt;2706, Terroristic Threats.&lt;br/&gt;"/><marker lat="40.432542791990649" lng="-79.92435381355665" zone="Zone 4" incidentdate="2016-04-29" incidenttime="19:00:00" incidentnumber="16078163" address="5700 block Hobart St" type="OFFENSE" age="" gender="" description="*********************************************** &lt;br/&gt;3921, Theft by Unlawful Taking or Disposition.&lt;br/&gt;"/><marker lat="40.460302578526942" lng="-80.006980071080037" zone="Zone 1" incidentdate="2016-04-29" incidenttime="08:30:00" incidentnumber="16077825" address="1700 block Belleau Dr" type="OFFENSE" age="" gender="" description="*********************************************** &lt;br/&gt;2709, Harassment (Non-Specific)&lt;br/&gt;"/><marker lat="40.479581343492164" lng="-79.953268501641176" zone="Zone 2" incidentdate="2016-04-29" incidenttime="13:20:00" incidentnumber="16077992" address="Natrona Way &amp; 52nd St" type="OFFENSE" age="" gender="" description="*********************************************** &lt;br/&gt;13(a)(16), Possession of Controlled Substance&lt;br/&gt;13(a)(30), Possession w/ Intent to Del. Controlled Substance&lt;br/&gt;13(a)(30)*, Delivery of Controlled Substance&lt;br/&gt;7512, Criminal Use of Communication&lt;br/&gt;"/><marker lat="40.445723184301478" lng="-79.981786949615085" zone="Zone 2" incidentdate="2016-04-29" incidenttime="11:45:00" incidentnumber="16077905" address="200 block Devilliers St" type="OFFENSE" age="" gender="" description="*********************************************** &lt;br/&gt;2709(a), Harassment.&lt;br/&gt;"/><marker lat="40.428465808222732" lng="-79.978964991503105" zone="Zone 3" incidentdate="2016-04-29" incidenttime="02:08:00" incidentnumber="16077728" address="1900 block E Carson St" type="OFFENSE" age="" gender="" description="*********************************************** &lt;br/&gt;5503(a)(4), DISORDERLY CONDUCT - HAZARDOUS/PHYS. OFF&lt;br/&gt;2709(a)(1), Harassment by Physical Contact, or Attempts or Threats&lt;br/&gt;"/><marker lat="40.424714617808156" lng="-80.012683053846217" zone="Zone 3" incidentdate="2016-04-29" incidenttime="14:35:00" incidentnumber="16078006" address="Norton St" type="OFFENSE" age="" gender="" description="*********************************************** &lt;br/&gt;3923, Theft by Extortion.&lt;br/&gt;"/><marker lat="40.4561850280882" lng="-80.022979224322313" zone="Zone 1" incidentdate="2016-04-29" incidenttime="02:00:00" incidentnumber="16077735" address="1200 block Decatur St" type="OFFENSE" age="" gender="" description="*********************************************** &lt;br/&gt;3502, Burglary.&lt;br/&gt;"/><marker lat="40.440442202940289" lng="-79.997146029334559" zone="Zone 2" incidentdate="2016-04-29" incidenttime="13:30:00" incidentnumber="16077957" address="500 block William Penn Pl" type="OFFENSE" age="" gender="" description="*********************************************** &lt;br/&gt;9017, Found Drugs&lt;br/&gt;"/><marker lat="40.423181653741167" lng="-79.928733488981621" zone="Zone 4" incidentdate="2016-04-29" incidenttime="23:28:00" incidentnumber="16078288" address="4200 block Murray Ave" type="OFFENSE" age="" gender="" description="*********************************************** &lt;br/&gt;3701, Robbery.&lt;br/&gt;"/><marker lat="40.428478873788158" lng="-79.980265799395895" zone="Zone 3" incidentdate="2016-04-29" incidenttime="02:15:00" incidentnumber="16077736" address="1800 block E Carson St" type="OFFENSE" age="" gender="" description="*********************************************** &lt;br/&gt;2709(a)(1), Harassment by Physical Contact, or Attempts or Threats&lt;br/&gt;"/><marker lat="40.441513849659259" lng="-79.956706195857677" zone="Zone 4" incidentdate="2016-04-29" incidenttime="02:19:00" incidentnumber="16077734" address="3800 block Forbes Ave" type="OFFENSE" age="" gender="" description="*********************************************** &lt;br/&gt;2701, Simple Assault.&lt;br/&gt;"/><marker lat="40.487551319845878" lng="-80.016020890107271" zone="Zone 1" incidentdate="2016-04-29" incidenttime="15:26:00" incidentnumber="16078031" address="3800 block Perrysville Ave" type="OFFENSE" age="" gender="" description="*********************************************** &lt;br/&gt;2709(a), Harassment.&lt;br/&gt;"/><marker lat="40.4317882" lng="-79.9889388" zone="Zone 3" incidentdate="2016-04-29" incidenttime="18:56:00" incidentnumber="16078154" address="Walking trail under 10th St Bridge" type="OFFENSE" age="" gender="" description="*********************************************** &lt;br/&gt;9999, 9999 - (Misc. Incident):&lt;br/&gt;"/><marker lat="40.450934256715165" lng="-79.973807393033383" zone="Zone 2" incidentdate="2016-04-29" incidenttime="16:14:00" incidentnumber="16078046" address="2500 block Chauncey Dr" type="OFFENSE" age="" gender="" description="*********************************************** &lt;br/&gt;5104, Resisting Arrest or Other Law Enforcement.&lt;br/&gt;2701, Simple Assault.&lt;br/&gt;"/><marker lat="40.407942178939123" lng="-79.998205519616363" zone="Zone 3" incidentdate="2016-04-29" incidenttime="07:15:00" incidentnumber="16077804" address="100 block Schuchert St" type="OFFENSE" age="" gender="" description="*********************************************** &lt;br/&gt;3921, Theft by Unlawful Taking or Disposition.&lt;br/&gt;"/><marker lat="40.4741694" lng="-79.9207358" zone="Zone 5" incidentdate="2016-04-29" incidenttime="18:30:00" incidentnumber="16078144" address="1100 block N Euclid Ave" type="OFFENSE" age="" gender="" description="*********************************************** &lt;br/&gt;2709, Harassment (Non-Specific)&lt;br/&gt;"/><marker lat="40.450524087396616" lng="-79.972783406843163" zone="Zone 2" incidentdate="2016-04-29" incidenttime="01:55:00" incidentnumber="16077725" address="2500 block Bedford Ave" type="OFFENSE" age="" gender="" description="*********************************************** &lt;br/&gt;2705, Recklessly Endangering Another Person.&lt;br/&gt;2701, Simple Assault.&lt;br/&gt;2701(a)(3), Simple Assault - Attempts by Physical Menace&lt;br/&gt;"/><marker lat="40.437674058241967" lng="-79.986497040382901" zone="Zone 2" incidentdate="2016-04-29" incidenttime="12:00:00" incidentnumber="16077933" address="1400 block Forbes Ave" type="OFFENSE" age="" gender="" description="*********************************************** &lt;br/&gt;029, Missing Juvenile&lt;br/&gt;"/><marker lat="40.451617038816323" lng="-80.001145711453432" zone="Zone 1" incidentdate="2016-04-29" incidenttime="21:40:00" incidentnumber="16078234" address="Cedar Ave &amp; Pressley St" type="OFFENSE" age="" gender="" description="*********************************************** &lt;br/&gt;13(a)(31), Marijuana: Possession Small Amount&lt;br/&gt;"/><marker lat="40.430705031296732" lng="-79.955478606355044" zone="Zone 4" incidentdate="2016-04-29" incidenttime="20:15:00" incidentnumber="16078205" address="Frazier St &amp; Ward St" type="OFFENSE" age="" gender="" description="*********************************************** &lt;br/&gt;13(a)(16), Possession of Controlled Substance&lt;br/&gt;13(a)(31), Marijuana: Possession Small Amount&lt;br/&gt;"/><marker lat="40.452256855851552" lng="-79.950792650653668" zone="Zone 4" incidentdate="2016-04-29" incidenttime="14:30:00" incidentnumber="16078015" address="300 block Melwood St" type="OFFENSE" age="" gender="" description="*********************************************** &lt;br/&gt;3745, Accidents Involving Damage to Unattended Veh.or Prop.&lt;br/&gt;"/><marker lat="40.470921049887423" lng="-79.902024322903046" zone="Zone 5" incidentdate="2016-04-29" incidenttime="16:00:00" incidentnumber="16078073" address="Dunmore St &amp; Freeman Way" type="OFFENSE" age="" gender="" description="*********************************************** &lt;br/&gt;3304, Criminal Mischief.&lt;br/&gt;"/><marker lat="40.451000936646309" lng="-80.021687046641887" zone="Zone 1" incidentdate="2016-04-29" incidenttime="16:30:00" incidentnumber="16078055" address="Western Ave &amp; Fontella St" type="OFFENSE" age="" gender="" description="*********************************************** &lt;br/&gt;13(a)(16), Possession of Controlled Substance&lt;br/&gt;"/><marker lat="40.419421352718459" lng="-79.987700562273858" zone="Zone 3" incidentdate="2016-04-29" incidenttime="19:10:00" incidentnumber="16078161" address="S 18th St" type="OFFENSE" age="" gender="" description="*********************************************** &lt;br/&gt;3745, Accidents Involving Damage to Unattended Veh.or Prop.&lt;br/&gt;"/><marker lat="40.439780072329306" lng="-79.959431955899845" zone="Zone 4" incidentdate="2016-04-29" incidenttime="05:45:00" incidentnumber="16078002" address="Forbes Ave &amp; McKee Pl" type="OFFENSE" age="" gender="" description="*********************************************** &lt;br/&gt;9999, 9999 - (Misc. Incident):&lt;br/&gt;"/><marker lat="40.456407685410419" lng="-79.896664777334237" zone="Zone 5" incidentdate="2016-04-29" incidenttime="10:00:00" incidentnumber="16077879" address="7200 block Bennett St" type="OFFENSE" age="" gender="" description="*********************************************** &lt;br/&gt;029, Missing Juvenile&lt;br/&gt;"/><marker lat="40.487551319845878" lng="-80.016020890107271" zone="Zone 1" incidentdate="2016-04-29" incidenttime="11:30:00" incidentnumber="16078011" address="3800 block Perrysville Ave" type="OFFENSE" age="" gender="" description="*********************************************** &lt;br/&gt;3934, Theft from Vehicle&lt;br/&gt;"/><marker lat="40.439728180130501" lng="-80.037228741755925" zone="Zone 6" incidentdate="2016-04-29" incidenttime="14:09:00" incidentnumber="16077971" address="700 block Walbridge St" type="OFFENSE" age="" gender="" description="*********************************************** &lt;br/&gt;9490, Missing Persons (18 and Over)&lt;br/&gt;"/><marker lat="40.428585203983602" lng="-79.981869007680203" zone="Zone 3" incidentdate="2016-04-29" incidenttime="01:45:00" incidentnumber="16078284" address="1700 block E Carson St" type="OFFENSE" age="" gender="" description="*********************************************** &lt;br/&gt;9504, Lost Property&lt;br/&gt;"/><marker lat="40.454610285615381" lng="-79.888378482601411" zone="Zone 5" incidentdate="2016-04-29" incidenttime="01:28:00" incidentnumber="16077709" address="800 block Brushton Ave" type="OFFENSE" age="" gender="" description="*********************************************** &lt;br/&gt;1543, Driving While Operating Privilege is Suspended or Revoked.&lt;br/&gt;3743, Accidents Involving Damage to Attended Veh. or Property&lt;br/&gt;"/><marker lat="40.476520801810004" lng="-80.03006073826711" zone="Zone 1" incidentdate="2016-04-29" incidenttime="02:00:00" incidentnumber="16077731" address="1200 block Woods Run Ave" type="OFFENSE" age="" gender="" description="*********************************************** &lt;br/&gt;2701(b)(1), Simple Assault - Fight or Scuffle Entered by Mutual Consent&lt;br/&gt;"/><marker lat="40.455504998738647" lng="-80.007850467221047" zone="Zone 5" incidentdate="2016-04-29" incidenttime="07:45:00" incidentnumber="16077834" address="100 block N Beatty St" type="OFFENSE" age="" gender="" description="*********************************************** &lt;br/&gt;3304(a)(5), CRIMINAL MISCHIEF - Intentionally Damages Real Or Personal Property Of Another&lt;br/&gt;901, Criminal Attempt&lt;br/&gt;"/><marker lat="40.446855033978807" lng="-80.080521456308546" zone="Zone 6" incidentdate="2016-04-29" incidenttime="00:46:00" incidentnumber="16077690" address="3400 block W Prospect Ave" type="OFFENSE" age="" gender="" description="*********************************************** &lt;br/&gt;3304, Criminal Mischief.&lt;br/&gt;2701, Simple Assault.&lt;br/&gt;2709(a), Harassment.&lt;br/&gt;"/><marker lat="40.42895576772829" lng="-79.993538041127408" zone="Zone 3" incidentdate="2016-04-29" incidenttime="00:45:00" incidentnumber="16077669" address="S 6th St" type="OFFENSE" age="" gender="" description="*********************************************** &lt;br/&gt;9501, Bench Warrant&lt;br/&gt;4914, False Identification to Law Enforcement Authorities&lt;br/&gt;"/><marker lat="40.465661540899092" lng="-80.024746213476632" zone="Zone 1" incidentdate="2016-04-29" incidenttime="04:08:00" incidentnumber="16077760" address="2400 block Brighton Rd" type="OFFENSE" age="" gender="" description="*********************************************** &lt;br/&gt;1786, Required Financial Responsibility.&lt;br/&gt;3745, Accidents Involving Damage to Unattended Veh.or Prop.&lt;br/&gt;1543, Driving While Operating Privilege is Suspended or Revoked.&lt;br/&gt;4906, False Reports to Law Enforcement Authorities.&lt;br/&gt;"/><marker lat="40.421786260807202" lng="-80.010407390440832" zone="Zone 3" incidentdate="2016-04-29" incidenttime="03:20:00" incidentnumber="16077618" address="600 block Boggs Ave" type="OFFENSE" age="" gender="" description="*********************************************** &lt;br/&gt;13(a)(16), Possession of Controlled Substance&lt;br/&gt;13(a)(30), Possession w/ Intent to Del. Controlled Substance&lt;br/&gt;13(a)(32), Paraphernalia - Use or Possession&lt;br/&gt;3304(a)(5), CRIMINAL MISCHIEF - Intentionally Damages Real Or Personal Property Of Another&lt;br/&gt;"/><marker lat="40.461263755824248" lng="-79.946362797859464" zone="Zone 5" incidentdate="2016-04-29" incidenttime="18:20:00" incidentnumber="16078130" address="4800 block Friendship Ave" type="OFFENSE" age="" gender="" description="*********************************************** &lt;br/&gt;9999, 9999 - (Misc. Incident):&lt;br/&gt;"/><marker lat="40.438943794278437" lng="-79.956702987700893" zone="Zone 4" incidentdate="2016-04-29" incidenttime="16:30:00" incidentnumber="16078071" address="300 block Meyran Ave" type="OFFENSE" age="" gender="" description="*********************************************** &lt;br/&gt;3745, Accidents Involving Damage to Unattended Veh.or Prop.&lt;br/&gt;"/><marker lat="40.404914940128336" lng="-80.040145473413176" zone="Zone 6" incidentdate="2016-04-29" incidenttime="19:49:00" incidentnumber="16078180" address="2800 block Banksville Rd" type="OFFENSE" age="" gender="" description="*********************************************** &lt;br/&gt;13(a)(16), Possession of Controlled Substance&lt;br/&gt;13(a)(32), Paraphernalia - Use or Possession&lt;br/&gt;"/><marker lat="40.455032441546876" lng="-79.890380631358681" zone="Zone 5" incidentdate="2016-04-29" incidenttime="03:10:00" incidentnumber="16077762" address="Bennett St &amp; N Braddock Ave" type="OFFENSE" age="" gender="" description="*********************************************** &lt;br/&gt;9999, 9999 - (Misc. Incident):&lt;br/&gt;"/><marker lat="40.463897709148654" lng="-79.911417017527569" zone="Zone 5" incidentdate="2016-04-29" incidenttime="12:00:00" incidentnumber="16077918" address="6400 block Winslow St" type="OFFENSE" age="" gender="" description="*********************************************** &lt;br/&gt;3304, Criminal Mischief.&lt;br/&gt;"/><marker lat="40.455768150040051" lng="-79.965939874539444" zone="Zone 2" incidentdate="2016-04-29" incidenttime="12:27:00" incidentnumber="16077937" address="Herron Ave &amp; Bigelow Blvd" type="OFFENSE" age="" gender="" description="*********************************************** &lt;br/&gt;13(a)(31), Marijuana: Possession Small Amount&lt;br/&gt;3334, Turning Movements and Required Signals.&lt;br/&gt;3323, Stop Signs and Yield Signs.&lt;br/&gt;"/><marker lat="40.413479606894768" lng="-79.943809123518733" zone="Zone 4" incidentdate="2016-04-29" incidenttime="11:10:00" incidentnumber="16077899" address="4700 block Monongahela St" type="OFFENSE" age="" gender="" description="*********************************************** &lt;br/&gt;3502, Burglary.&lt;br/&gt;2701, Simple Assault.&lt;br/&gt;3701, Robbery.&lt;br/&gt;3304(a)(5), CRIMINAL MISCHIEF - Intentionally Damages Real Or Personal Property Of Another&lt;br/&gt;"/><marker lat="40.41196498488614" lng="-80.044137945154048" zone="Zone 6" incidentdate="2016-04-29" incidenttime="16:40:00" incidentnumber="16078072" address="2600 block Winchester Rd" type="OFFENSE" age="" gender="" description="*********************************************** &lt;br/&gt;3921, Theft by Unlawful Taking or Disposition.&lt;br/&gt;"/><marker lat="40.421786260807202" lng="-80.010407390440832" zone="Zone 3" incidentdate="2016-04-29" incidenttime="03:10:00" incidentnumber="16077618" address="600 block Boggs Ave" type="ARREST" age="24" gender="M" description="*********************************************** &lt;br/&gt;13(a)(16), Possession of Controlled Substance&lt;br/&gt;13(a)(30), Possession w/ Intent to Del. Controlled Substance&lt;br/&gt;13(a)(32), Paraphernalia - Use or Possession&lt;br/&gt;3304(a)(5), CRIMINAL MISCHIEF - Intentionally Damages Real Or Personal Property Of Another&lt;br/&gt;"/><marker lat="40.404704159472502" lng="-79.941470098193179" zone="Zone 4" incidentdate="2016-04-29" incidenttime="13:50:00" incidentnumber="11234845" address="200 block Winston St" type="ARREST" age="53" gender="M" description="*********************************************** &lt;br/&gt;3304, Criminal Mischief.&lt;br/&gt;3503, Criminal Trespass&lt;br/&gt;2701, Simple Assault.&lt;br/&gt;2706, Terroristic Threats.&lt;br/&gt;"/><marker lat="40.4199199875451" lng="-79.993675059038551" zone="Zone 3" incidentdate="2016-04-29" incidenttime="21:21:00" incidentnumber="16078225" address="800 block Climax St" type="ARREST" age="27" gender="M" description="*********************************************** &lt;br/&gt;13(a)(32), Paraphernalia - Use or Possession&lt;br/&gt;"/><marker lat="40.436368261960759" lng="-80.048262638386007" zone="Zone 6" incidentdate="2016-04-29" incidenttime="13:09:00" incidentnumber="16073696" address="1100 block Queensbury St" type="ARREST" age="25" gender="M" description="*********************************************** &lt;br/&gt;2701, Simple Assault.&lt;br/&gt;9093, Indirect Criminal Contempt&lt;br/&gt;2709(b), Stalking&lt;br/&gt;"/><marker lat="40.447232671418007" lng="-80.079545238727377" zone="Zone 6" incidentdate="2016-04-29" incidenttime="17:00:00" incidentnumber="16073270" address="400 block Fairywood St" type="ARREST" age="22" gender="M" description="*********************************************** &lt;br/&gt;3701, Robbery.&lt;br/&gt;903, Criminal Conspiracy.&lt;br/&gt;"/><marker lat="40.451000936646309" lng="-80.021687046641887" zone="Zone 1" incidentdate="2016-04-29" incidenttime="16:33:00" incidentnumber="16078055" address="Western Ave &amp; Fontella St" type="ARREST" age="24" gender="M" description="*********************************************** &lt;br/&gt;13(a)(16), Possession of Controlled Substance&lt;br/&gt;"/><marker lat="40.430705031296732" lng="-79.955478606355044" zone="Zone 4" incidentdate="2016-04-29" incidenttime="20:30:00" incidentnumber="16078205" address="Frazier St &amp; Ward St" type="ARREST" age="19" gender="M" description="*********************************************** &lt;br/&gt;13(a)(16), Possession of Controlled Substance&lt;br/&gt;13(a)(31), Marijuana: Possession Small Amount&lt;br/&gt;"/><marker lat="40.453883573577833" lng="-80.065065064905042" zone="Zone 6" incidentdate="2016-04-29" incidenttime="16:25:00" incidentnumber="16078051" address="Kelvin St &amp; Chartiers Ave" type="ARREST" age="37" gender="F" description="*********************************************** &lt;br/&gt;3736, Reckless Driving&lt;br/&gt;3745, Accidents Involving Damage to Unattended Veh.or Prop.&lt;br/&gt;1501, Drivers Required to be Licensed.&lt;br/&gt;3802(a)(1), DUI - General Impairment&lt;br/&gt;3802(b), DUI - High Rate of Alchol - BAC &gt;=.10% &lt;.16%&lt;br/&gt;"/><marker lat="40.42895576772829" lng="-79.993538041127408" zone="Zone 3" incidentdate="2016-04-29" incidenttime="00:26:00" incidentnumber="16077669" address="S 6th St" type="ARREST" age="57" gender="M" description="*********************************************** &lt;br/&gt;9501, Bench Warrant&lt;br/&gt;4914, False Identification to Law Enforcement Authorities&lt;br/&gt;"/><marker lat="40.434696587775576" lng="-79.996300985228572" zone="Zone 2" incidentdate="2016-04-29" incidenttime="11:42:00" incidentnumber="16071490" address="600 block First Ave" type="ARREST" age="" gender="M" description="*********************************************** &lt;br/&gt;2701(b)(1), Simple Assault - Fight or Scuffle Entered by Mutual Consent&lt;br/&gt;2701, Simple Assault.&lt;br/&gt;"/><marker lat="40.4600940" lng="-79.9238524" zone="Zone 4" incidentdate="2016-04-29" incidenttime="20:30:00" incidentnumber="16078194" address="6300 block Shakespeare St" type="ARREST" age="19" gender="M" description="*********************************************** &lt;br/&gt;9092, Bond Forfeiture Warrant&lt;br/&gt;"/><marker lat="40.451617038816323" lng="-80.001145711453432" zone="Zone 1" incidentdate="2016-04-29" incidenttime="21:35:00" incidentnumber="16078234" address="Cedar Ave &amp; Pressley St" type="ARREST" age="61" gender="M" description="*********************************************** &lt;br/&gt;13(a)(31), Marijuana: Possession Small Amount&lt;br/&gt;"/><marker lat="40.421786260807202" lng="-80.010407390440832" zone="Zone 3" incidentdate="2016-04-29" incidenttime="03:10:00" incidentnumber="16077618" address="600 block Boggs Ave" type="ARREST" age="21" gender="M" description="*********************************************** &lt;br/&gt;13(a)(16), Possession of Controlled Substance&lt;br/&gt;13(a)(30), Possession w/ Intent to Del. Controlled Substance&lt;br/&gt;13(a)(32), Paraphernalia - Use or Possession&lt;br/&gt;3304(a)(5), CRIMINAL MISCHIEF - Intentionally Damages Real Or Personal Property Of Another&lt;br/&gt;"/><marker lat="40.478846468228319" lng="-80.043103207786132" zone="Zone 1" incidentdate="2016-04-29" incidenttime="18:19:00" incidentnumber="16078122" address="Mckees Rocks Brg &amp; Ohio River Blvd" type="ARREST" age="35" gender="M" description="*********************************************** &lt;br/&gt;13(a)(16), Possession of Controlled Substance&lt;br/&gt;13(a)(30), Possession w/ Intent to Del. Controlled Substance&lt;br/&gt;5104, Resisting Arrest or Other Law Enforcement.&lt;br/&gt;2702, Aggravated Assault.&lt;br/&gt;1501, Drivers Required to be Licensed.&lt;br/&gt;1543, Driving While Operating Privilege is Suspended or Revoked.&lt;br/&gt;3802(d)(2), DUI - Drug - Impaired Ability&lt;br/&gt;"/><marker lat="40.470123134149183" lng="-80.026200344629331" zone="Zone 1" incidentdate="2016-04-29" incidenttime="23:25:00" incidentnumber="16078282" address="1100 block Woodland Ave" type="ARREST" age="30" gender="M" description="*********************************************** &lt;br/&gt;13(a)(16), Possession of Controlled Substance&lt;br/&gt;13(a)(32), Paraphernalia - Use or Possession&lt;br/&gt;4910, Tampering with or Fabricating Physical Evidence.&lt;br/&gt;"/><marker lat="40.466877756870879" lng="-79.994177935104844" zone="Zone 1" incidentdate="2016-04-29" incidenttime="15:35:00" incidentnumber="16049648" address="100 block Rhine Pl" type="ARREST" age="20" gender="M" description="*********************************************** &lt;br/&gt;2709(a)(1), Harassment by Physical Contact, or Attempts or Threats&lt;br/&gt;2706, Terroristic Threats.&lt;br/&gt;"/><marker lat="40.404914940128336" lng="-80.040145473413176" zone="Zone 6" incidentdate="2016-04-29" incidenttime="19:55:00" incidentnumber="16078180" address="2800 block Banksville Rd" type="ARREST" age="33" gender="M" description="*********************************************** &lt;br/&gt;13(a)(16), Possession of Controlled Substance&lt;br/&gt;13(a)(32), Paraphernalia - Use or Possession&lt;br/&gt;"/><marker lat="40.434696587775576" lng="-79.996300985228572" zone="Zone 2" incidentdate="2016-04-29" incidenttime="11:42:00" incidentnumber="16071490" address="600 block First Ave" type="ARREST" age="32" gender="M" description="*********************************************** &lt;br/&gt;2701(b)(1), Simple Assault - Fight or Scuffle Entered by Mutual Consent&lt;br/&gt;2701, Simple Assault.&lt;br/&gt;"/><marker lat="40.412867872402522" lng="-80.026872654094134" zone="Zone 6" incidentdate="2016-04-29" incidenttime="23:15:00" incidentnumber="16078209" address="1500 block Rutherford Ave" type="ARREST" age="40" gender="F" description="*********************************************** &lt;br/&gt;2701, Simple Assault.&lt;br/&gt;"/><marker lat="40.448218628467117" lng="-79.978353446609205" zone="Zone 2" incidentdate="2016-04-29" incidenttime="11:28:00" incidentnumber="16036717" address="Bedford Ave &amp; Memory Ln" type="ARREST" age="44" gender="M" description="*********************************************** &lt;br/&gt;13(a)(32), Paraphernalia - Use or Possession&lt;br/&gt;5121, Escape.&lt;br/&gt;5126, Flight to Avoid Apprehension, Trial or Punishment.&lt;br/&gt;"/><marker lat="40.44989011910728" lng="-80.076545221447134" zone="Zone 6" incidentdate="2016-04-29" incidenttime="17:00:00" incidentnumber="16072843" address="1400 block Village Rd" type="ARREST" age="22" gender="M" description="*********************************************** &lt;br/&gt;3701, Robbery.&lt;br/&gt;903, Criminal Conspiracy.&lt;br/&gt;"/><marker lat="40.442350196273111" lng="-79.980479481443609" zone="Zone 2" incidentdate="2016-04-29" incidenttime="16:10:00" incidentnumber="16071692" address="Rose St &amp; Dinwiddie St" type="ARREST" age="31" gender="F" description="*********************************************** &lt;br/&gt;2702, Aggravated Assault.&lt;br/&gt;2706, Terroristic Threats.&lt;br/&gt;2701(a)(3), Simple Assault - Attempts by Physical Menace&lt;br/&gt;4304(a)(2), Endangering Welfare of Children - Child Protective Services (Course of Conduct)&lt;br/&gt;"/><marker lat="40.421786260807202" lng="-80.010407390440832" zone="Zone 3" incidentdate="2016-04-29" incidenttime="03:10:00" incidentnumber="16077618" address="600 block Boggs Ave" type="ARREST" age="23" gender="M" description="*********************************************** &lt;br/&gt;13(a)(16), Possession of Controlled Substance&lt;br/&gt;13(a)(30), Possession w/ Intent to Del. Controlled Substance&lt;br/&gt;13(a)(32), Paraphernalia - Use or Possession&lt;br/&gt;3304(a)(5), CRIMINAL MISCHIEF - Intentionally Damages Real Or Personal Property Of Another&lt;br/&gt;"/><marker lat="40.450524087396616" lng="-79.972783406843163" zone="Zone 2" incidentdate="2016-04-29" incidenttime="02:20:00" incidentnumber="16077725" address="2500 block Bedford Ave" type="ARREST" age="24" gender="M" description="*********************************************** &lt;br/&gt;2705, Recklessly Endangering Another Person.&lt;br/&gt;2701, Simple Assault.&lt;br/&gt;2701(a)(3), Simple Assault - Attempts by Physical Menace&lt;br/&gt;"/><marker lat="40.421531877189601" lng="-79.993577564166102" zone="Zone 3" incidentdate="2016-04-29" incidenttime="02:10:00" incidentnumber="16077726" address="800 block E Warrington Ave" type="ARREST" age="23" gender="M" description="*********************************************** &lt;br/&gt;13(a)(16), Possession of Controlled Substance&lt;br/&gt;13(a)(32), Paraphernalia - Use or Possession&lt;br/&gt;"/><marker lat="40.442465287182827" lng="-79.969989365185654" zone="Zone 2" incidentdate="2016-04-29" incidenttime="02:00:00" incidentnumber="16062114" address="400 block Garner Ct" type="ARREST" age="24" gender="F" description="*********************************************** &lt;br/&gt;3304(a)(5), CRIMINAL MISCHIEF - Intentionally Damages Real Or Personal Property Of Another&lt;br/&gt;3745, Accidents Involving Damage to Unattended Veh.or Prop.&lt;br/&gt;"/><marker lat="40.455768150040051" lng="-79.965939874539444" zone="Zone 2" incidentdate="2016-04-29" incidenttime="12:27:00" incidentnumber="16077937" address="Herron Ave &amp; Bigelow Blvd" type="ARREST" age="23" gender="M" description="*********************************************** &lt;br/&gt;13(a)(31), Marijuana: Possession Small Amount&lt;br/&gt;3334, Turning Movements and Required Signals.&lt;br/&gt;3323, Stop Signs and Yield Signs.&lt;br/&gt;"/><marker lat="40.441024249715781" lng="-79.95736833680553" zone="Zone 4" incidentdate="2016-04-29" incidenttime="02:34:00" incidentnumber="16077743" address="3700 block Forbes Ave" type="ARREST" age="27" gender="M" description="*********************************************** &lt;br/&gt;3503(b)(1)(i), Actual Communication&lt;br/&gt;5104, Resisting Arrest or Other Law Enforcement.&lt;br/&gt;2702, Aggravated Assault.&lt;br/&gt;5503(a)(4), DISORDERLY CONDUCT - HAZARDOUS/PHYS. OFF&lt;br/&gt;2701, Simple Assault.&lt;br/&gt;5505, Public Drunkenness&lt;br/&gt;2706, Terroristic Threats.&lt;br/&gt;"/><marker lat="40.470123134149183" lng="-80.026200344629331" zone="Zone 1" incidentdate="2016-04-29" incidenttime="23:23:00" incidentnumber="16078282" address="1100 block Woodland Ave" type="ARREST" age="26" gender="F" description="*********************************************** &lt;br/&gt;13(a)(16), Possession of Controlled Substance&lt;br/&gt;13(a)(32), Paraphernalia - Use or Possession&lt;br/&gt;4910, Tampering with or Fabricating Physical Evidence.&lt;br/&gt;"/><marker lat="40.450934256715165" lng="-79.973807393033383" zone="Zone 2" incidentdate="2016-04-29" incidenttime="16:18:00" incidentnumber="16078046" address="2500 block Chauncey Dr" type="ARREST" age="26" gender="F" description="*********************************************** &lt;br/&gt;5104, Resisting Arrest or Other Law Enforcement.&lt;br/&gt;2701, Simple Assault.&lt;br/&gt;"/><marker lat="40.411434481817672" lng="-79.943819160293828" zone="Zone 4" incidentdate="2016-04-29" incidenttime="13:00:00" incidentnumber="16073435" address="4800 block Chatsworth Ave" type="ARREST" age="37" gender="M" description="*********************************************** &lt;br/&gt;4304(a)(1), Endangering Welfare of Children - Course of Conduct Enhanced&lt;br/&gt;2701, Simple Assault.&lt;br/&gt;"/><marker lat="40.427650166527833" lng="-79.984741882023201" zone="Zone 3" incidentdate="2016-04-29" incidenttime="20:44:00" incidentnumber="16004832" address="Sarah St &amp; Uxor Way" type="ARREST" age="31" gender="M" description="*********************************************** &lt;br/&gt;3745, Accidents Involving Damage to Unattended Veh.or Prop.&lt;br/&gt;1501, Drivers Required to be Licensed.&lt;br/&gt;1543, Driving While Operating Privilege is Suspended or Revoked.&lt;br/&gt;3802(a)(1), DUI - General Impairment&lt;br/&gt;3802(c), DUI - Highest Rate of Alcohol - BAC &gt;= .16%&lt;br/&gt;4914, False Identification to Law Enforcement Authorities&lt;br/&gt;"/></markers>
