<?xml version="1.0"?>
<markers><marker lat="40.428585203983602" lng="-79.981869007680203" zone="Zone 3" incidentdate="2015-09-04" incidenttime="01:17:00" incidentnumber="15167543" address="1700 block E Carson St" type="OFFENSE" age="" gender="" description="*********************************************** &lt;br/&gt;5104, Resisting Arrest or Other Law Enforcement.&lt;br/&gt;3503.B1I, DEF. TRESPASS ACTUAL COMMUNICATION&lt;br/&gt;5503, Disorderly Conduct.&lt;br/&gt;5505, Public Drunkenness&lt;br/&gt;601.12, Interference with Official Duties&lt;br/&gt;"/><marker lat="40.41720407874444" lng="-80.07638654717644" zone="Zone 6" incidentdate="2015-09-04" incidenttime="06:01:00" incidentnumber="15167651" address="200 block Woodkirk St" type="OFFENSE" age="" gender="" description="*********************************************** &lt;br/&gt;2702, Aggravated Assault.&lt;br/&gt;"/><marker lat="40.453421528804526" lng="-79.892481935834624" zone="Zone 5" incidentdate="2015-09-04" incidenttime="10:00:00" incidentnumber="15167745" address="7500 block Hamilton Ave" type="OFFENSE" age="" gender="" description="*********************************************** &lt;br/&gt;029, Missing Juvenile&lt;br/&gt;"/><marker lat="40.461477877543366" lng="-79.965159005942496" zone="Zone 2" incidentdate="2015-09-04" incidenttime="19:36:00" incidentnumber="15168130" address="3400 block Liberty Ave" type="OFFENSE" age="" gender="" description="*********************************************** &lt;br/&gt;3802(c), DUI - Highest Rate of Alcohol - BAC &gt;= .16%&lt;br/&gt;3802(a)(1), DUI - General Impairment&lt;br/&gt;"/><marker lat="40.396052433870693" lng="-79.987505497219203" zone="Zone 3" incidentdate="2015-09-04" incidenttime="00:12:00" incidentnumber="15167553" address="1900 block Brownsville Rd" type="OFFENSE" age="" gender="" description="*********************************************** &lt;br/&gt;13(a)(31), Marijuana: Possession Small Amount&lt;br/&gt;13(a)(16), Possession of Controlled Substance&lt;br/&gt;6105(a)(1), Persons not to possess, use, manufacture, control, sell or transfer firearms: Former convict enumerated in subsection (b)&lt;br/&gt;6106, Firearms not to be Carried without a License.&lt;br/&gt;"/><marker lat="40.450083821549214" lng="-80.053079992828629" zone="Zone 6" incidentdate="2015-09-04" incidenttime="11:00:00" incidentnumber="15167688" address="700 block Fairston St" type="OFFENSE" age="" gender="" description="*********************************************** &lt;br/&gt;9496, Dead on Arrival (DOA)&lt;br/&gt;"/><marker lat="40.4815254" lng="-79.8761414" zone="Zone OSC" incidentdate="2015-09-04" incidenttime="03:20:00" incidentnumber="15167612" address="Allegheny River Blvd &amp; Nadine Rd" type="OFFENSE" age="" gender="" description="*********************************************** &lt;br/&gt;2701, Simple Assault.&lt;br/&gt;"/><marker lat="40.456564641128566" lng="-79.871361460228911" zone="Zone 5" incidentdate="2015-09-04" incidenttime="05:09:00" incidentnumber="15167641" address="2300 block East Hills Dr" type="OFFENSE" age="" gender="" description="*********************************************** &lt;br/&gt;2709(a)(5), Harassment Communicates Repeatedly in Anonymous Manner&lt;br/&gt;"/><marker lat="40.443657674661509" lng="-79.986631001012626" zone="Zone 2" incidentdate="2015-09-04" incidenttime="11:00:00" incidentnumber="15167789" address="Webster Ave &amp; Mercer St" type="OFFENSE" age="" gender="" description="*********************************************** &lt;br/&gt;3304, Criminal Mischief.&lt;br/&gt;"/><marker lat="40.4830220" lng="-79.9402229" zone="Zone 5" incidentdate="2015-09-04" incidenttime="16:30:00" incidentnumber="15168093" address="4400 block Camelia St" type="OFFENSE" age="" gender="" description="*********************************************** &lt;br/&gt;3304, Criminal Mischief.&lt;br/&gt;"/><marker lat="40.448011981164164" lng="-79.894535528545987" zone="Zone 4" incidentdate="2015-09-04" incidenttime="02:42:00" incidentnumber="15167581" address="Meade St &amp; N Braddock Ave" type="OFFENSE" age="" gender="" description="*********************************************** &lt;br/&gt;13(a)(31), Marijuana: Possession Small Amount&lt;br/&gt;3112, Traffic-Control Signals.&lt;br/&gt;"/><marker lat="40.428834925885639" lng="-79.982047583109136" zone="Zone 3" incidentdate="2015-09-04" incidenttime="02:30:00" incidentnumber="15167742" address="E Carson St &amp; S 17th St" type="OFFENSE" age="" gender="" description="*********************************************** &lt;br/&gt;3701, Robbery.&lt;br/&gt;"/><marker lat="40.433889164142705" lng="-79.927338425532952" zone="Zone 4" incidentdate="2015-09-04" incidenttime="19:30:00" incidentnumber="15168140" address="5600 block Beacon St" type="OFFENSE" age="" gender="" description="*********************************************** &lt;br/&gt;3743, Accidents Involving Damage to Attended Veh. or Property&lt;br/&gt;"/><marker lat="40.490475754887754" lng="-80.022665948349939" zone="Zone 1" incidentdate="2015-09-04" incidenttime="04:20:00" incidentnumber="15167626" address="4000 block Vinceton St" type="OFFENSE" age="" gender="" description="*********************************************** &lt;br/&gt;9488, False  Burglar Alarm&lt;br/&gt;"/><marker lat="40.439469388102047" lng="-79.984976186526112" zone="Zone 2" incidentdate="2015-09-04" incidenttime="21:05:00" incidentnumber="15168198" address="Reed St &amp; Crawford St" type="OFFENSE" age="" gender="" description="*********************************************** &lt;br/&gt;3921(a), Theft by Unlawful Taking or Disposition - Movable item&lt;br/&gt;3304, Criminal Mischief.&lt;br/&gt;"/><marker lat="40.429393481855833" lng="-79.987525103134629" zone="Zone 3" incidentdate="2015-09-04" incidenttime="07:00:00" incidentnumber="15167697" address="Bingham St &amp; S 11th St" type="OFFENSE" age="" gender="" description="*********************************************** &lt;br/&gt;3921(a), Theft by Unlawful Taking or Disposition - Movable item&lt;br/&gt;"/><marker lat="40.428258680734707" lng="-79.967942421604249" zone="Zone 3" incidentdate="2015-09-04" incidenttime="18:50:00" incidentnumber="15168122" address="2600 block Sidney St" type="OFFENSE" age="" gender="" description="*********************************************** &lt;br/&gt;3745, Accidents Involving Damage to Unattended Veh.or Prop.&lt;br/&gt;"/><marker lat="40.443830914011293" lng="-80.043937713316467" zone="Zone 6" incidentdate="2015-09-04" incidenttime="16:47:00" incidentnumber="15168009" address="900 block Berdella St" type="OFFENSE" age="" gender="" description="*********************************************** &lt;br/&gt;9501, Bench Warrant&lt;br/&gt;"/><marker lat="40.452042212663898" lng="-80.008738896002342" zone="Zone 1" incidentdate="2015-09-04" incidenttime="15:45:00" incidentnumber="15167987" address="200 block Ridge Ave" type="OFFENSE" age="" gender="" description="*********************************************** &lt;br/&gt;029, Missing Juvenile&lt;br/&gt;"/><marker lat="40.463198941395092" lng="-79.96401407953087" zone="Zone 2" incidentdate="2015-09-04" incidenttime="03:00:00" incidentnumber="15167705" address="3600 block Mintwood St" type="OFFENSE" age="" gender="" description="*********************************************** &lt;br/&gt;3502, Burglary.&lt;br/&gt;"/><marker lat="40.441228428031053" lng="-80.002073791411135" zone="Zone 2" incidentdate="2015-09-04" incidenttime="13:30:00" incidentnumber="15167880" address="200 block 5th Ave" type="OFFENSE" age="" gender="" description="*********************************************** &lt;br/&gt;3921, Theft by Unlawful Taking or Disposition.&lt;br/&gt;"/><marker lat="40.426315067503658" lng="-79.969102826391776" zone="Zone 3" incidentdate="2015-09-04" incidenttime="20:14:00" incidentnumber="15168156" address="100 block S 26th St" type="OFFENSE" age="" gender="" description="*********************************************** &lt;br/&gt;13(a)(16), Possession of Controlled Substance&lt;br/&gt;13(a)(32), Paraphernalia - Use or Possession&lt;br/&gt;"/><marker lat="40.455275849789821" lng="-79.892204131151161" zone="Zone 5" incidentdate="2015-09-04" incidenttime="07:52:00" incidentnumber="15167687" address="7500 block Bennett St" type="OFFENSE" age="" gender="" description="*********************************************** &lt;br/&gt;2701, Simple Assault.&lt;br/&gt;"/><marker lat="40.461242180783259" lng="-79.967212231521643" zone="Zone 2" incidentdate="2015-09-04" incidenttime="10:25:00" incidentnumber="15167769" address="3300 block Liberty Ave" type="OFFENSE" age="" gender="" description="*********************************************** &lt;br/&gt;3304(a)(4), CRIMINAL MISCHIEF- Intentionally Damage Property (By Graffiti, Aerosol Spray Paint, Broad Tip Marker, or Similar)&lt;br/&gt;"/><marker lat="40.455861531295582" lng="-79.922546052830157" zone="Zone 4" incidentdate="2015-09-04" incidenttime="06:45:00" incidentnumber="15167713" address="Shady Ave &amp; Walnut St" type="OFFENSE" age="" gender="" description="*********************************************** &lt;br/&gt;3745, Accidents Involving Damage to Unattended Veh.or Prop.&lt;br/&gt;"/><marker lat="40.45283452139217" lng="-79.964512094176754" zone="Zone 2" incidentdate="2015-09-04" incidenttime="07:30:00" incidentnumber="15167686" address="3300 block Webster Ave" type="OFFENSE" age="" gender="" description="*********************************************** &lt;br/&gt;3304, Criminal Mischief.&lt;br/&gt;"/><marker lat="40.410441886301861" lng="-80.024947612351937" zone="Zone 6" incidentdate="2015-09-04" incidenttime="15:50:00" incidentnumber="15167969" address="1600 block Broadway Ave" type="OFFENSE" age="" gender="" description="*********************************************** &lt;br/&gt;13(a)(30)*, Delivery of Controlled Substance&lt;br/&gt;13(a)(35)(i)(A), Possession with intent -Lookalike Drugs - Appearance&lt;br/&gt;3701, Robbery.&lt;br/&gt;903, Criminal Conspiracy.&lt;br/&gt;"/><marker lat="40.44515440155142" lng="-79.975987053682289" zone="Zone 2" incidentdate="2015-09-04" incidenttime="09:00:00" incidentnumber="15168017" address="2200 block Centre Ave" type="OFFENSE" age="" gender="" description="*********************************************** &lt;br/&gt;3921, Theft by Unlawful Taking or Disposition.&lt;br/&gt;"/><marker lat="40.45186218460168" lng="-79.967606962653576" zone="Zone 2" incidentdate="2015-09-04" incidenttime="10:00:00" incidentnumber="15167759" address="700 block Webster Ter" type="OFFENSE" age="" gender="" description="*********************************************** &lt;br/&gt;3304, Criminal Mischief.&lt;br/&gt;"/><marker lat="40.46253946133691" lng="-80.018646423973507" zone="Zone 1" incidentdate="2015-09-04" incidenttime="23:00:00" incidentnumber="15168258" address="2100 block N Charles St" type="OFFENSE" age="" gender="" description="*********************************************** &lt;br/&gt;6110.1, Possesion of Firearm by Minor&lt;br/&gt;1501, Drivers Required to be Licensed.&lt;br/&gt;3323, Stop Signs and Yield Signs.&lt;br/&gt;6106, Firearms not to be Carried without a License.&lt;br/&gt;4914, False Identification to Law Enforcement Authorities&lt;br/&gt;"/><marker lat="40.485331998975155" lng="-80.009535962286023" zone="Zone 1" incidentdate="2015-09-04" incidenttime="16:15:00" incidentnumber="15168006" address="Venture St &amp; East St" type="OFFENSE" age="" gender="" description="*********************************************** &lt;br/&gt;3743, Accidents Involving Damage to Attended Veh. or Property&lt;br/&gt;"/><marker lat="40.469755510795579" lng="-79.920718390153482" zone="Zone 5" incidentdate="2015-09-04" incidenttime="10:49:00" incidentnumber="15167781" address="800 block N Highland Ave" type="OFFENSE" age="" gender="" description="*********************************************** &lt;br/&gt;3502, Burglary.&lt;br/&gt;901, Criminal Attempt&lt;br/&gt;"/><marker lat="40.425768778594161" lng="-80.008994028714682" zone="Zone 3" incidentdate="2015-09-04" incidenttime="17:35:00" incidentnumber="15168112" address="100 block Whitworth St" type="OFFENSE" age="" gender="" description="*********************************************** &lt;br/&gt;9498, 302 (Mental)&lt;br/&gt;"/><marker lat="40.462743319218497" lng="-79.983558862547724" zone="Zone 1" incidentdate="2015-09-04" incidenttime="18:41:00" incidentnumber="15168077" address="1600 block Lowrie St" type="OFFENSE" age="" gender="" description="*********************************************** &lt;br/&gt;2902, Unlawful Restraint.&lt;br/&gt;3304, Criminal Mischief.&lt;br/&gt;9501, Bench Warrant&lt;br/&gt;2701(a)(3), Simple Assault - Attempts by Physical Menace&lt;br/&gt;5126, Flight to Avoid Apprehension, Trial or Punishment.&lt;br/&gt;"/><marker lat="40.448455256301372" lng="-79.887726994128215" zone="Zone 5" incidentdate="2015-09-04" incidenttime="18:15:00" incidentnumber="15168076" address="Madiera St &amp; Rosedale St" type="OFFENSE" age="" gender="" description="*********************************************** &lt;br/&gt;2702, Aggravated Assault.&lt;br/&gt;2701, Simple Assault.&lt;br/&gt;3921(a), Theft by Unlawful Taking or Disposition - Movable item&lt;br/&gt;"/><marker lat="40.446161020611704" lng="-79.965728498443355" zone="Zone 2" incidentdate="2015-09-04" incidenttime="02:37:00" incidentnumber="15167588" address="Robinson St Ext &amp; Whitney Ter" type="OFFENSE" age="" gender="" description="*********************************************** &lt;br/&gt;3304, Criminal Mischief.&lt;br/&gt;"/><marker lat="40.440697119948119" lng="-80.003946068250272" zone="Zone 2" incidentdate="2015-09-04" incidenttime="18:00:00" incidentnumber="15168126" address="100 block Forbes Ave" type="OFFENSE" age="" gender="" description="*********************************************** &lt;br/&gt;3921, Theft by Unlawful Taking or Disposition.&lt;br/&gt;"/><marker lat="40.459235241163007" lng="-79.965915984484539" zone="Zone 2" incidentdate="2015-09-04" incidenttime="18:30:00" incidentnumber="15168150" address="3300 block Ruthven St" type="OFFENSE" age="" gender="" description="*********************************************** &lt;br/&gt;3502, Burglary.&lt;br/&gt;"/><marker lat="40.4178161" lng="-79.9686714" zone="Zone 3" incidentdate="2015-09-04" incidenttime="19:35:00" incidentnumber="15168139" address="2800 block Eccles Way" type="OFFENSE" age="" gender="" description="*********************************************** &lt;br/&gt;3304, Criminal Mischief.&lt;br/&gt;"/><marker lat="40.457620313610263" lng="-79.963477589245301" zone="Zone 2" incidentdate="2015-09-04" incidenttime="07:30:00" incidentnumber="15167710" address="3300 block Cargill St" type="OFFENSE" age="" gender="" description="*********************************************** &lt;br/&gt;3304, Criminal Mischief.&lt;br/&gt;"/><marker lat="40.4099481" lng="-79.9982104" zone="Zone 3" incidentdate="2015-09-04" incidenttime="22:13:00" incidentnumber="15168243" address="100 block Camfield St" type="OFFENSE" age="" gender="" description="*********************************************** &lt;br/&gt;2701, Simple Assault.&lt;br/&gt;"/><marker lat="40.391684428390249" lng="-80.023820275826466" zone="Zone 6" incidentdate="2015-09-04" incidenttime="09:25:00" incidentnumber="15167735" address="800 block Fordham St" type="OFFENSE" age="" gender="" description="*********************************************** &lt;br/&gt;9497, Aided Case&lt;br/&gt;"/><marker lat="40.452952663955934" lng="-79.874021402815671" zone="Zone 5" incidentdate="2015-09-04" incidenttime="00:57:00" incidentnumber="15167518" address="2100 block Park Hill Dr" type="OFFENSE" age="" gender="" description="*********************************************** &lt;br/&gt;2702, Aggravated Assault.&lt;br/&gt;907, Possessing Instruments of Crime.&lt;br/&gt;901, Criminal Attempt&lt;br/&gt;6110.2, Possesion of Firearm with Altered Mfg. Number&lt;br/&gt;6106, Firearms not to be Carried without a License.&lt;br/&gt;2705, Recklessly Endangering Another Person.&lt;br/&gt;6105(a)(1), Persons not to possess, use, manufacture, control, sell or transfer firearms: Former convict enumerated in subsection (b)&lt;br/&gt;"/><marker lat="40.455905510025012" lng="-80.02686436122454" zone="Zone 1" incidentdate="2015-09-04" incidenttime="09:12:00" incidentnumber="15167723" address="1600 block Manhattan St" type="OFFENSE" age="" gender="" description="*********************************************** &lt;br/&gt;9496, Dead on Arrival (DOA)&lt;br/&gt;"/><marker lat="40.457416602458949" lng="-79.936947914971043" zone="Zone 5" incidentdate="2015-09-04" incidenttime="15:00:00" incidentnumber="15016794" address="S Graham St &amp; Baum Blvd" type="OFFENSE" age="" gender="" description="*********************************************** &lt;br/&gt;3921, Theft by Unlawful Taking or Disposition.&lt;br/&gt;3304, Criminal Mischief.&lt;br/&gt;"/><marker lat="40.448100355300056" lng="-79.902078877895761" zone="Zone 4" incidentdate="2015-09-04" incidenttime="20:00:00" incidentnumber="15168158" address="S Homewood Ave &amp; Roycrest Pl" type="OFFENSE" age="" gender="" description="*********************************************** &lt;br/&gt;3745, Accidents Involving Damage to Unattended Veh.or Prop.&lt;br/&gt;"/><marker lat="40.441814670896946" lng="-79.975346086866438" zone="Zone 2" incidentdate="2015-09-04" incidenttime="22:01:00" incidentnumber="15168233" address="200 block Elmore St" type="OFFENSE" age="" gender="" description="*********************************************** &lt;br/&gt;2709(a)(1), Harassment by Physical Contact, or Attempts or Threats&lt;br/&gt;3701, Robbery.&lt;br/&gt;3304(a)(5), CRIMINAL MISCHIEF - Intentionally Damages Real Or Personal Property Of Another&lt;br/&gt;"/><marker lat="40.391935616779428" lng="-80.012990596194811" zone="Zone 6" incidentdate="2015-09-04" incidenttime="02:09:00" incidentnumber="15167573" address="1200 block Brookline Blvd" type="OFFENSE" age="" gender="" description="*********************************************** &lt;br/&gt;2702, Aggravated Assault.&lt;br/&gt;1543, Driving While Operating Privilege is Suspended or Revoked.&lt;br/&gt;4910, Tampering with or Fabricating Physical Evidence.&lt;br/&gt;908, Prohibited Offensive Weapons.&lt;br/&gt;6106, Firearms not to be Carried without a License.&lt;br/&gt;4914, False Identification to Law Enforcement Authorities&lt;br/&gt;5104, Resisting Arrest or Other Law Enforcement.&lt;br/&gt;3736, Reckless Driving&lt;br/&gt;5121, Escape.&lt;br/&gt;5506, Loitering and Prowling at Night&lt;br/&gt;13(a)(31)(i), Marijuana - Possess Small Amt for Personal Use&lt;br/&gt;3304, Criminal Mischief.&lt;br/&gt;"/><marker lat="40.464568368871724" lng="-79.949862016743495" zone="Zone 5" incidentdate="2015-09-04" incidenttime="16:40:00" incidentnumber="15168133" address="4600 block Torley St" type="OFFENSE" age="" gender="" description="*********************************************** &lt;br/&gt;3921, Theft by Unlawful Taking or Disposition.&lt;br/&gt;"/><marker lat="40.456515048695316" lng="-80.016515559088219" zone="Zone 1" incidentdate="2015-09-04" incidenttime="10:00:00" incidentnumber="15167890" address="1500 block Brighton Rd" type="OFFENSE" age="" gender="" description="*********************************************** &lt;br/&gt;9124, Drug Investigation&lt;br/&gt;"/><marker lat="40.432309143680492" lng="-80.008130385501943" zone="Zone 3" incidentdate="2015-09-04" incidenttime="20:00:00" incidentnumber="15168168" address="100 block Maple Ter" type="OFFENSE" age="" gender="" description="*********************************************** &lt;br/&gt;3745, Accidents Involving Damage to Unattended Veh.or Prop.&lt;br/&gt;"/><marker lat="40.486366936821234" lng="-80.014651520167575" zone="Zone 1" incidentdate="2015-09-04" incidenttime="21:23:00" incidentnumber="15168211" address="100 block Dunlap St" type="OFFENSE" age="" gender="" description="*********************************************** &lt;br/&gt;3503, Criminal Trespass&lt;br/&gt;3921(a), Theft by Unlawful Taking or Disposition - Movable item&lt;br/&gt;"/><marker lat="40.440801466835453" lng="-79.998159468312707" zone="Zone 2" incidentdate="2015-09-04" incidenttime="11:09:00" incidentnumber="15167833" address="Oliver Ave &amp; Smithfield St" type="OFFENSE" age="" gender="" description="*********************************************** &lt;br/&gt;3922, Theft by Deception.&lt;br/&gt;7512, Criminal Use of Communication&lt;br/&gt;"/><marker lat="40.412165395247094" lng="-79.993066811407445" zone="Zone 3" incidentdate="2015-09-04" incidenttime="02:42:00" incidentnumber="15167593" address="300 block Arabella St" type="OFFENSE" age="" gender="" description="*********************************************** &lt;br/&gt;2701, Simple Assault.&lt;br/&gt;"/><marker lat="40.438498083577116" lng="-79.984086000779314" zone="Zone 2" incidentdate="2015-09-04" incidenttime="16:30:00" incidentnumber="15168047" address="5th Ave &amp; Vine St" type="OFFENSE" age="" gender="" description="*********************************************** &lt;br/&gt;3702, Robbery of Motor Vehicle.&lt;br/&gt;13(a)(16), Possession of Controlled Substance&lt;br/&gt;13(a)(30), Possession w/ Intent to Del. Controlled Substance&lt;br/&gt;"/><marker lat="40.478243968375068" lng="-80.039674432738352" zone="Zone 1" incidentdate="2015-09-04" incidenttime="00:46:00" incidentnumber="15167530" address="3500 block Massachusetts Ave" type="OFFENSE" age="" gender="" description="*********************************************** &lt;br/&gt;2701, Simple Assault.&lt;br/&gt;"/><marker lat="40.422432158699223" lng="-80.013788906187088" zone="Zone 3" incidentdate="2015-09-04" incidenttime="12:00:00" incidentnumber="15168119" address="600 block Chess St" type="OFFENSE" age="" gender="" description="*********************************************** &lt;br/&gt;3745, Accidents Involving Damage to Unattended Veh.or Prop.&lt;br/&gt;"/><marker lat="40.436542249197686" lng="-79.955542366200021" zone="Zone 4" incidentdate="2015-09-04" incidenttime="13:15:00" incidentnumber="15167866" address="400 block Mc Kee Pl" type="OFFENSE" age="" gender="" description="*********************************************** &lt;br/&gt;3502, Burglary.&lt;br/&gt;"/><marker lat="40.455026202654238" lng="-79.983011772991617" zone="Zone 2" incidentdate="2015-09-04" incidenttime="09:30:00" incidentnumber="15167752" address="2400 block Railroad St" type="OFFENSE" age="" gender="" description="*********************************************** &lt;br/&gt;9496, Dead on Arrival (DOA)&lt;br/&gt;"/><marker lat="40.4640355" lng="-79.8998126" zone="Zone 5" incidentdate="2015-09-04" incidenttime="01:43:00" incidentnumber="15167555" address="7000 block Spin Way" type="OFFENSE" age="" gender="" description="*********************************************** &lt;br/&gt;13(a)(31), Marijuana: Possession Small Amount&lt;br/&gt;5503, Disorderly Conduct.&lt;br/&gt;2706, Terroristic Threats.&lt;br/&gt;2701(a)(1), Simple Assault - Intent., Know., Reckless.Cause Bod. Injury&lt;br/&gt;"/><marker lat="40.452331348358129" lng="-79.922386154079888" zone="Zone 4" incidentdate="2015-09-04" incidenttime="17:20:00" incidentnumber="15168042" address="6200 block Fifth Ave" type="OFFENSE" age="" gender="" description="*********************************************** &lt;br/&gt;9504, Lost Property&lt;br/&gt;"/><marker lat="40.387433423602523" lng="-80.011658237843406" zone="Zone 6" incidentdate="2015-09-04" incidenttime="10:15:00" incidentnumber="15167784" address="1500 block Chelton Ave" type="OFFENSE" age="" gender="" description="*********************************************** &lt;br/&gt;3304, Criminal Mischief.&lt;br/&gt;"/><marker lat="40.452952663955934" lng="-79.874021402815671" zone="Zone 5" incidentdate="2015-09-04" incidenttime="16:00:00" incidentnumber="15168052" address="2100 block Park Hill Dr" type="OFFENSE" age="" gender="" description="*********************************************** &lt;br/&gt;3921, Theft by Unlawful Taking or Disposition.&lt;br/&gt;"/><marker lat="40.380578616025957" lng="-79.993313172908728" zone="Zone 3" incidentdate="2015-09-04" incidenttime="16:30:00" incidentnumber="15168045" address="Ivyglen St &amp; Lodge St" type="OFFENSE" age="" gender="" description="*********************************************** &lt;br/&gt;3304, Criminal Mischief.&lt;br/&gt;"/><marker lat="40.4654264" lng="-79.9914439" zone="Zone 1" incidentdate="2015-09-04" incidenttime="06:08:00" incidentnumber="15167650" address="1300 block Damas St" type="OFFENSE" age="" gender="" description="*********************************************** &lt;br/&gt;9488, False  Burglar Alarm&lt;br/&gt;"/><marker lat="40.462107426498399" lng="-79.966430692556102" zone="Zone 2" incidentdate="2015-09-04" incidenttime="15:00:00" incidentnumber="15167989" address="3400 block Ligonier St" type="OFFENSE" age="" gender="" description="*********************************************** &lt;br/&gt;3701, Robbery.&lt;br/&gt;"/><marker lat="40.45283452139217" lng="-79.964512094176754" zone="Zone 2" incidentdate="2015-09-04" incidenttime="07:00:00" incidentnumber="15167693" address="3300 block Webster Ave" type="OFFENSE" age="" gender="" description="*********************************************** &lt;br/&gt;3304, Criminal Mischief.&lt;br/&gt;"/><marker lat="40.428438567956732" lng="-79.983105958684874" zone="Zone 3" incidentdate="2015-09-04" incidenttime="08:00:00" incidentnumber="15167699" address="100 block S 16th St" type="OFFENSE" age="" gender="" description="*********************************************** &lt;br/&gt;3745, Accidents Involving Damage to Unattended Veh.or Prop.&lt;br/&gt;"/><marker lat="40.464554816859568" lng="-79.910370988900652" zone="Zone 5" incidentdate="2015-09-04" incidenttime="08:00:00" incidentnumber="15167734" address="600 block Paulson Ave" type="OFFENSE" age="" gender="" description="*********************************************** &lt;br/&gt;4915, Failure to Comply with Megans Law&lt;br/&gt;"/><marker lat="40.458131217682286" lng="-79.945993995574568" zone="Zone 5" incidentdate="2015-09-04" incidenttime="10:00:00" incidentnumber="15167797" address="600 block Gross St" type="OFFENSE" age="" gender="" description="*********************************************** &lt;br/&gt;9504, Lost Property&lt;br/&gt;"/><marker lat="40.444395178000889" lng="-79.978923400667341" zone="Zone 2" incidentdate="2015-09-04" incidenttime="08:00:00" incidentnumber="15167740" address="2100 block Centre Ave" type="OFFENSE" age="" gender="" description="*********************************************** &lt;br/&gt;3304, Criminal Mischief.&lt;br/&gt;"/><marker lat="40.460532993579605" lng="-79.918305963916055" zone="Zone 5" incidentdate="2015-09-04" incidenttime="16:32:00" incidentnumber="15168001" address="Ipswich Ct" type="OFFENSE" age="" gender="" description="*********************************************** &lt;br/&gt;2702, Aggravated Assault.&lt;br/&gt;901, Criminal Attempt&lt;br/&gt;"/><marker lat="40.452883939679161" lng="-79.930915944041388" zone="Zone 4" incidentdate="2015-09-04" incidenttime="03:09:00" incidentnumber="15167608" address="Elwood St &amp; Ewers Way" type="OFFENSE" age="" gender="" description="*********************************************** &lt;br/&gt;5505, Public Drunkenness&lt;br/&gt;5503, Disorderly Conduct.&lt;br/&gt;"/><marker lat="40.414205883123259" lng="-80.009519955943716" zone="Zone 6" incidentdate="2015-09-04" incidenttime="16:10:00" incidentnumber="15167991" address="Liberty Tunl" type="OFFENSE" age="" gender="" description="*********************************************** &lt;br/&gt;9999, 9999 - (Misc. Incident):&lt;br/&gt;"/><marker lat="40.427221329702853" lng="-79.988525620766936" zone="Zone 3" incidentdate="2015-09-04" incidenttime="16:45:00" incidentnumber="15168013" address="P J Mc Ardle Rdwy &amp; S 10th St" type="OFFENSE" age="" gender="" description="*********************************************** &lt;br/&gt;3304, Criminal Mischief.&lt;br/&gt;"/><marker lat="40.477892167961009" lng="-79.956036877032801" zone="Zone 2" incidentdate="2015-09-04" incidenttime="22:48:00" incidentnumber="15168260" address="5000 block Butler St" type="OFFENSE" age="" gender="" description="*********************************************** &lt;br/&gt;3921, Theft by Unlawful Taking or Disposition.&lt;br/&gt;"/><marker lat="40.438498083577116" lng="-79.984086000779314" zone="Zone 2" incidentdate="2015-09-04" incidenttime="16:30:00" incidentnumber="15167999" address="5th Ave &amp; Vine St" type="OFFENSE" age="" gender="" description="*********************************************** &lt;br/&gt;3702, Robbery of Motor Vehicle.&lt;br/&gt;"/><marker lat="40.450920630788971" lng="-79.964888378791841" zone="Zone 2" incidentdate="2015-09-04" incidenttime="07:00:00" incidentnumber="15167679" address="600 block Herron Ave" type="OFFENSE" age="" gender="" description="*********************************************** &lt;br/&gt;3304, Criminal Mischief.&lt;br/&gt;"/><marker lat="40.38216848511766" lng="-79.995013559443933" zone="Zone 3" incidentdate="2015-09-04" incidenttime="11:00:00" incidentnumber="15167828" address="2500 block Ivyglen St" type="OFFENSE" age="" gender="" description="*********************************************** &lt;br/&gt;3304, Criminal Mischief.&lt;br/&gt;"/><marker lat="40.427222544251535" lng="-79.97140725023084" zone="Zone 3" incidentdate="2015-09-04" incidenttime="19:30:00" incidentnumber="15168137" address="2400 block Sarah St" type="OFFENSE" age="" gender="" description="*********************************************** &lt;br/&gt;3921, Theft by Unlawful Taking or Disposition.&lt;br/&gt;"/><marker lat="40.421531877189601" lng="-79.993577564166102" zone="Zone 3" incidentdate="2015-09-04" incidenttime="21:00:00" incidentnumber="15168176" address="800 block E Warrington Ave" type="OFFENSE" age="" gender="" description="*********************************************** &lt;br/&gt;13(a)(16), Possession of Controlled Substance&lt;br/&gt;13(a)(30), Possession w/ Intent to Del. Controlled Substance&lt;br/&gt;9124, Drug Investigation&lt;br/&gt;"/><marker lat="40.44515440155142" lng="-79.975987053682289" zone="Zone 2" incidentdate="2015-09-04" incidenttime="15:00:00" incidentnumber="15167984" address="2200 block Centre Ave" type="OFFENSE" age="" gender="" description="*********************************************** &lt;br/&gt;3304, Criminal Mischief.&lt;br/&gt;"/><marker lat="40.446743728166254" lng="-79.893964188515525" zone="Zone 4" incidentdate="2015-09-04" incidenttime="20:10:00" incidentnumber="15168160" address="East End Ave &amp; Penn Ave" type="OFFENSE" age="" gender="" description="*********************************************** &lt;br/&gt;2702, Aggravated Assault.&lt;br/&gt;2705, Recklessly Endangering Another Person.&lt;br/&gt;"/><marker lat="40.460055896872284" lng="-79.950295873917071" zone="Zone 5" incidentdate="2015-09-04" incidenttime="08:00:00" incidentnumber="15167733" address="400 block Cedarville St" type="OFFENSE" age="" gender="" description="*********************************************** &lt;br/&gt;4915, Failure to Comply with Megans Law&lt;br/&gt;"/><marker lat="40.44877778334282" lng="-79.964870963959271" zone="Zone 2" incidentdate="2015-09-04" incidenttime="14:30:00" incidentnumber="15167954" address="Centre Ave &amp; Herron Ave" type="OFFENSE" age="" gender="" description="*********************************************** &lt;br/&gt;3934, Theft from Vehicle&lt;br/&gt;3304, Criminal Mischief.&lt;br/&gt;"/><marker lat="40.4406248" lng="-79.9958864" zone="Zone OSC" incidentdate="2015-09-04" incidenttime="16:30:00" incidentnumber="15168004" address="Rising Star Dr" type="OFFENSE" age="" gender="" description="*********************************************** &lt;br/&gt;029, Missing Juvenile&lt;br/&gt;"/><marker lat="40.411181540883454" lng="-79.994989033332303" zone="Zone 3" incidentdate="2015-09-04" incidenttime="11:00:00" incidentnumber="15167840" address="400 block Suncrest St" type="OFFENSE" age="" gender="" description="*********************************************** &lt;br/&gt;3304, Criminal Mischief.&lt;br/&gt;"/><marker lat="40.478243968375068" lng="-80.039674432738352" zone="Zone 1" incidentdate="2015-09-04" incidenttime="18:10:00" incidentnumber="15168078" address="3500 block Massachusetts Ave" type="OFFENSE" age="" gender="" description="*********************************************** &lt;br/&gt;2701, Simple Assault.&lt;br/&gt;"/><marker lat="40.457206350903391" lng="-79.904388735228622" zone="Zone 5" incidentdate="2015-09-04" incidenttime="17:30:00" incidentnumber="15044052" address="Kelly St &amp; N Dallas Ave" type="OFFENSE" age="" gender="" description="*********************************************** &lt;br/&gt;7122, Altered, Forged or Counterfeit Documents and Plates&lt;br/&gt;1786, Required Financial Responsibility.&lt;br/&gt;4703, Operation of Vehicle without Official Certif. of Inspection&lt;br/&gt;"/><marker lat="40.443830914011293" lng="-80.043937713316467" zone="Zone 6" incidentdate="2015-09-04" incidenttime="17:00:00" incidentnumber="15168009" address="900 block Berdella St" type="ARREST" age="25" gender="M" description="*********************************************** &lt;br/&gt;9501, Bench Warrant&lt;br/&gt;"/><marker lat="40.438498083577116" lng="-79.984086000779314" zone="Zone 2" incidentdate="2015-09-04" incidenttime="17:20:00" incidentnumber="15168047" address="5th Ave &amp; Vine St" type="ARREST" age="33" gender="M" description="*********************************************** &lt;br/&gt;3702, Robbery of Motor Vehicle.&lt;br/&gt;13(a)(16), Possession of Controlled Substance&lt;br/&gt;13(a)(30), Possession w/ Intent to Del. Controlled Substance&lt;br/&gt;"/><marker lat="40.437846371119946" lng="-79.922805918036218" zone="Zone 4" incidentdate="2015-09-04" incidenttime="11:55:00" incidentnumber="15137859" address="5800 block Forbes Ave" type="ARREST" age="67" gender="M" description="*********************************************** &lt;br/&gt;3304, Criminal Mischief.&lt;br/&gt;"/><marker lat="40.478243968375068" lng="-80.039674432738352" zone="Zone 1" incidentdate="2015-09-04" incidenttime="00:55:00" incidentnumber="15167530" address="3500 block Massachusetts Ave" type="ARREST" age="35" gender="M" description="*********************************************** &lt;br/&gt;2701, Simple Assault.&lt;br/&gt;"/><marker lat="40.4099481" lng="-79.9982104" zone="Zone 3" incidentdate="2015-09-04" incidenttime="22:34:00" incidentnumber="15168243" address="100 block Camfield St" type="ARREST" age="20" gender="M" description="*********************************************** &lt;br/&gt;2701, Simple Assault.&lt;br/&gt;"/><marker lat="40.441814670896946" lng="-79.975346086866438" zone="Zone 2" incidentdate="2015-09-04" incidenttime="22:45:00" incidentnumber="15168233" address="200 block Elmore St" type="ARREST" age="24" gender="M" description="*********************************************** &lt;br/&gt;2709(a)(1), Harassment by Physical Contact, or Attempts or Threats&lt;br/&gt;3701, Robbery.&lt;br/&gt;3304(a)(5), CRIMINAL MISCHIEF - Intentionally Damages Real Or Personal Property Of Another&lt;br/&gt;"/><marker lat="40.452883939679161" lng="-79.930915944041388" zone="Zone 4" incidentdate="2015-09-04" incidenttime="03:22:00" incidentnumber="15167608" address="Elwood St &amp; Ewers Way" type="ARREST" age="22" gender="F" description="*********************************************** &lt;br/&gt;5505, Public Drunkenness&lt;br/&gt;5503, Disorderly Conduct.&lt;br/&gt;"/><marker lat="40.448011981164164" lng="-79.894535528545987" zone="Zone 4" incidentdate="2015-09-04" incidenttime="02:30:00" incidentnumber="15167581" address="Meade St &amp; N Braddock Ave" type="ARREST" age="32" gender="M" description="*********************************************** &lt;br/&gt;13(a)(31), Marijuana: Possession Small Amount&lt;br/&gt;3112, Traffic-Control Signals.&lt;br/&gt;"/><marker lat="40.46253946133691" lng="-80.018646423973507" zone="Zone 1" incidentdate="2015-09-04" incidenttime="23:00:00" incidentnumber="15168258" address="2100 block N Charles St" type="ARREST" age="18" gender="M" description="*********************************************** &lt;br/&gt;6110.1, Possesion of Firearm by Minor&lt;br/&gt;1501, Drivers Required to be Licensed.&lt;br/&gt;3323, Stop Signs and Yield Signs.&lt;br/&gt;6106, Firearms not to be Carried without a License.&lt;br/&gt;4914, False Identification to Law Enforcement Authorities&lt;br/&gt;"/><marker lat="40.41720407874444" lng="-80.07638654717644" zone="Zone 6" incidentdate="2015-09-04" incidenttime="06:45:00" incidentnumber="15167651" address="200 block Woodkirk St" type="ARREST" age="38" gender="F" description="*********************************************** &lt;br/&gt;2702, Aggravated Assault.&lt;br/&gt;"/><marker lat="40.486366936821234" lng="-80.014651520167575" zone="Zone 1" incidentdate="2015-09-04" incidenttime="21:29:00" incidentnumber="15168211" address="100 block Dunlap St" type="ARREST" age="49" gender="M" description="*********************************************** &lt;br/&gt;3503, Criminal Trespass&lt;br/&gt;3921(a), Theft by Unlawful Taking or Disposition - Movable item&lt;br/&gt;"/><marker lat="40.457206350903391" lng="-79.904388735228622" zone="Zone 5" incidentdate="2015-09-04" incidenttime="17:40:00" incidentnumber="15044052" address="Kelly St &amp; N Dallas Ave" type="ARREST" age="23" gender="M" description="*********************************************** &lt;br/&gt;7122, Altered, Forged or Counterfeit Documents and Plates&lt;br/&gt;1786, Required Financial Responsibility.&lt;br/&gt;4703, Operation of Vehicle without Official Certif. of Inspection&lt;br/&gt;"/><marker lat="40.410441886301861" lng="-80.024947612351937" zone="Zone 6" incidentdate="2015-09-04" incidenttime="16:34:00" incidentnumber="15167969" address="1600 block Broadway Ave" type="ARREST" age="19" gender="M" description="*********************************************** &lt;br/&gt;13(a)(30)*, Delivery of Controlled Substance&lt;br/&gt;13(a)(35)(i)(A), Possession with intent -Lookalike Drugs - Appearance&lt;br/&gt;3701, Robbery.&lt;br/&gt;903, Criminal Conspiracy.&lt;br/&gt;"/><marker lat="40.462107426498399" lng="-79.966430692556102" zone="Zone 2" incidentdate="2015-09-04" incidenttime="18:09:00" incidentnumber="15167989" address="3400 block Ligonier St" type="ARREST" age="37" gender="M" description="*********************************************** &lt;br/&gt;3701, Robbery.&lt;br/&gt;"/><marker lat="40.4640355" lng="-79.8998126" zone="Zone 5" incidentdate="2015-09-04" incidenttime="01:54:00" incidentnumber="15167555" address="7000 block Spin Way" type="ARREST" age="29" gender="F" description="*********************************************** &lt;br/&gt;13(a)(31), Marijuana: Possession Small Amount&lt;br/&gt;5503, Disorderly Conduct.&lt;br/&gt;2706, Terroristic Threats.&lt;br/&gt;2701(a)(1), Simple Assault - Intent., Know., Reckless.Cause Bod. Injury&lt;br/&gt;"/><marker lat="40.426315067503658" lng="-79.969102826391776" zone="Zone 3" incidentdate="2015-09-04" incidenttime="20:30:00" incidentnumber="15168156" address="100 block S 26th St" type="ARREST" age="27" gender="M" description="*********************************************** &lt;br/&gt;13(a)(16), Possession of Controlled Substance&lt;br/&gt;13(a)(32), Paraphernalia - Use or Possession&lt;br/&gt;"/><marker lat="40.46253946133691" lng="-80.018646423973507" zone="Zone 1" incidentdate="2015-09-04" incidenttime="23:00:00" incidentnumber="15168258" address="2100 block N Charles St" type="ARREST" age="15" gender="M" description="*********************************************** &lt;br/&gt;6110.1, Possesion of Firearm by Minor&lt;br/&gt;1501, Drivers Required to be Licensed.&lt;br/&gt;3323, Stop Signs and Yield Signs.&lt;br/&gt;6106, Firearms not to be Carried without a License.&lt;br/&gt;4914, False Identification to Law Enforcement Authorities&lt;br/&gt;"/><marker lat="40.440801466835453" lng="-79.998159468312707" zone="Zone 2" incidentdate="2015-09-04" incidenttime="11:09:00" incidentnumber="15167833" address="Oliver Ave &amp; Smithfield St" type="ARREST" age="22" gender="M" description="*********************************************** &lt;br/&gt;3922, Theft by Deception.&lt;br/&gt;7512, Criminal Use of Communication&lt;br/&gt;"/><marker lat="40.396052433870693" lng="-79.987505497219203" zone="Zone 3" incidentdate="2015-09-04" incidenttime="00:13:00" incidentnumber="15167553" address="1900 block Brownsville Rd" type="ARREST" age="19" gender="M" description="*********************************************** &lt;br/&gt;13(a)(31), Marijuana: Possession Small Amount&lt;br/&gt;13(a)(16), Possession of Controlled Substance&lt;br/&gt;6105(a)(1), Persons not to possess, use, manufacture, control, sell or transfer firearms: Former convict enumerated in subsection (b)&lt;br/&gt;6106, Firearms not to be Carried without a License.&lt;br/&gt;"/><marker lat="40.410441886301861" lng="-80.024947612351937" zone="Zone 6" incidentdate="2015-09-04" incidenttime="16:34:00" incidentnumber="15167969" address="1600 block Broadway Ave" type="ARREST" age="20" gender="M" description="*********************************************** &lt;br/&gt;13(a)(30)*, Delivery of Controlled Substance&lt;br/&gt;13(a)(35)(i)(A), Possession with intent -Lookalike Drugs - Appearance&lt;br/&gt;3701, Robbery.&lt;br/&gt;903, Criminal Conspiracy.&lt;br/&gt;"/><marker lat="40.462467752250426" lng="-80.030224841217816" zone="Zone 1" incidentdate="2015-09-04" incidenttime="16:31:00" incidentnumber="15137272" address="2300 block Atmore St" type="ARREST" age="27" gender="M" description="*********************************************** &lt;br/&gt;2701(a)(3), Simple Assault - Attempts by Physical Menace&lt;br/&gt;"/><marker lat="40.462743319218497" lng="-79.983558862547724" zone="Zone 1" incidentdate="2015-09-04" incidenttime="18:41:00" incidentnumber="15168077" address="1600 block Lowrie St" type="ARREST" age="29" gender="M" description="*********************************************** &lt;br/&gt;2902, Unlawful Restraint.&lt;br/&gt;3304, Criminal Mischief.&lt;br/&gt;9501, Bench Warrant&lt;br/&gt;2701(a)(3), Simple Assault - Attempts by Physical Menace&lt;br/&gt;5126, Flight to Avoid Apprehension, Trial or Punishment.&lt;br/&gt;"/><marker lat="40.439071097484913" lng="-80.028434352354793" zone="Zone 3" incidentdate="2015-09-04" incidenttime="20:30:00" incidentnumber="15126061" address="1800 block Greenleaf St" type="ARREST" age="50" gender="M" description="*********************************************** &lt;br/&gt;3922, Theft by Deception.&lt;br/&gt;4101, Forgery.&lt;br/&gt;903, Criminal Conspiracy.&lt;br/&gt;3921, Theft by Unlawful Taking or Disposition.&lt;br/&gt;3927, Theft by Failure to Make Required Disp. of Funds&lt;br/&gt;"/><marker lat="40.428585203983602" lng="-79.981869007680203" zone="Zone 3" incidentdate="2015-09-04" incidenttime="01:17:00" incidentnumber="15167543" address="1700 block E Carson St" type="ARREST" age="21" gender="M" description="*********************************************** &lt;br/&gt;5104, Resisting Arrest or Other Law Enforcement.&lt;br/&gt;3503.B1I, DEF. TRESPASS ACTUAL COMMUNICATION&lt;br/&gt;5503, Disorderly Conduct.&lt;br/&gt;5505, Public Drunkenness&lt;br/&gt;601.12, Interference with Official Duties&lt;br/&gt;"/><marker lat="40.419990300063475" lng="-79.990524910550519" zone="Zone 3" incidentdate="2015-09-04" incidenttime="21:15:00" incidentnumber="15135096" address="1400 block Arlington Ave" type="ARREST" age="29" gender="M" description="*********************************************** &lt;br/&gt;3304, Criminal Mischief.&lt;br/&gt;2701, Simple Assault.&lt;br/&gt;3502, Burglary.&lt;br/&gt;"/><marker lat="40.452952663955934" lng="-79.874021402815671" zone="Zone 5" incidentdate="2015-09-04" incidenttime="00:57:00" incidentnumber="15167518" address="2100 block Park Hill Dr" type="ARREST" age="40" gender="M" description="*********************************************** &lt;br/&gt;2702, Aggravated Assault.&lt;br/&gt;907, Possessing Instruments of Crime.&lt;br/&gt;901, Criminal Attempt&lt;br/&gt;6110.2, Possesion of Firearm with Altered Mfg. Number&lt;br/&gt;6106, Firearms not to be Carried without a License.&lt;br/&gt;2705, Recklessly Endangering Another Person.&lt;br/&gt;6105(a)(1), Persons not to possess, use, manufacture, control, sell or transfer firearms: Former convict enumerated in subsection (b)&lt;br/&gt;"/><marker lat="40.391935616779428" lng="-80.012990596194811" zone="Zone 6" incidentdate="2015-09-04" incidenttime="04:45:00" incidentnumber="15167573" address="1200 block Brookline Blvd" type="ARREST" age="23" gender="M" description="*********************************************** &lt;br/&gt;2702, Aggravated Assault.&lt;br/&gt;1543, Driving While Operating Privilege is Suspended or Revoked.&lt;br/&gt;4910, Tampering with or Fabricating Physical Evidence.&lt;br/&gt;908, Prohibited Offensive Weapons.&lt;br/&gt;6106, Firearms not to be Carried without a License.&lt;br/&gt;4914, False Identification to Law Enforcement Authorities&lt;br/&gt;5104, Resisting Arrest or Other Law Enforcement.&lt;br/&gt;3736, Reckless Driving&lt;br/&gt;5121, Escape.&lt;br/&gt;5506, Loitering and Prowling at Night&lt;br/&gt;13(a)(31)(i), Marijuana - Possess Small Amt for Personal Use&lt;br/&gt;3304, Criminal Mischief.&lt;br/&gt;"/><marker lat="40.466616756829907" lng="-79.993676874083434" zone="Zone 1" incidentdate="2015-09-04" incidenttime="16:31:00" incidentnumber="15133443" address="2100 block Rhine St" type="ARREST" age="27" gender="M" description="*********************************************** &lt;br/&gt;3701, Robbery.&lt;br/&gt;2709(a)(1), Harassment by Physical Contact, or Attempts or Threats&lt;br/&gt;2706, Terroristic Threats.&lt;br/&gt;2701(a)(1), Simple Assault - Intent., Know., Reckless.Cause Bod. Injury&lt;br/&gt;"/><marker lat="40.396052433870693" lng="-79.987505497219203" zone="Zone 3" incidentdate="2015-09-04" incidenttime="00:12:00" incidentnumber="15167553" address="1900 block Brownsville Rd" type="ARREST" age="33" gender="M" description="*********************************************** &lt;br/&gt;13(a)(31), Marijuana: Possession Small Amount&lt;br/&gt;13(a)(16), Possession of Controlled Substance&lt;br/&gt;6105(a)(1), Persons not to possess, use, manufacture, control, sell or transfer firearms: Former convict enumerated in subsection (b)&lt;br/&gt;6106, Firearms not to be Carried without a License.&lt;br/&gt;"/><marker lat="40.461477877543366" lng="-79.965159005942496" zone="Zone 2" incidentdate="2015-09-04" incidenttime="19:36:00" incidentnumber="15168130" address="3400 block Liberty Ave" type="ARREST" age="69" gender="M" description="*********************************************** &lt;br/&gt;3802(c), DUI - Highest Rate of Alcohol - BAC &gt;= .16%&lt;br/&gt;3802(a)(1), DUI - General Impairment&lt;br/&gt;"/></markers>
