<?xml version="1.0"?>
<markers><marker lat="40.452647198078267" lng="-79.93640525357462" zone="Zone 4" incidentdate="2016-04-22" incidenttime="01:45:00" incidentnumber="16072925" address="5400 block Ellsworth Ave" type="OFFENSE" age="" gender="" description="*********************************************** &lt;br/&gt;5503, Disorderly Conduct.&lt;br/&gt;"/><marker lat="40.467832639986945" lng="-79.907184655146352" zone="Zone 5" incidentdate="2016-04-22" incidenttime="13:00:00" incidentnumber="16073230" address="Larimer Ave &amp; Deary St" type="OFFENSE" age="" gender="" description="*********************************************** &lt;br/&gt;13(a)(16), Possession of Controlled Substance&lt;br/&gt;13(a)(30), Possession w/ Intent to Del. Controlled Substance&lt;br/&gt;1543, Driving While Operating Privilege is Suspended or Revoked.&lt;br/&gt;7512, Criminal Use of Communication&lt;br/&gt;"/><marker lat="40.44399023304031" lng="-80.002630134211415" zone="Zone 2" incidentdate="2016-04-22" incidenttime="16:10:00" incidentnumber="16073342" address="100 block 6th St" type="OFFENSE" age="" gender="" description="*********************************************** &lt;br/&gt;3304(a)(4), CRIMINAL MISCHIEF- Intentionally Damage Property (By Graffiti, Aerosol Spray Paint, Broad Tip Marker, or Similar)&lt;br/&gt;"/><marker lat="40.442273086548795" lng="-80.00411265495255" zone="Zone 2" incidentdate="2016-04-22" incidenttime="12:56:00" incidentnumber="16073213" address="500 block Penn Ave" type="OFFENSE" age="" gender="" description="*********************************************** &lt;br/&gt;4101, Forgery.&lt;br/&gt;"/><marker lat="40.405886674190789" lng="-79.942079801800404" zone="Zone 4" incidentdate="2016-04-22" incidenttime="00:25:00" incidentnumber="16072887" address="5200 block GERTRUDE St" type="OFFENSE" age="" gender="" description="*********************************************** &lt;br/&gt;3921(a), Theft by Unlawful Taking or Disposition - Movable item&lt;br/&gt;"/><marker lat="40.437850264562179" lng="-80.004567110517371" zone="Zone 2" incidentdate="2016-04-22" incidenttime="01:05:00" incidentnumber="16072913" address="Market St" type="OFFENSE" age="" gender="" description="*********************************************** &lt;br/&gt;9497, Aided Case&lt;br/&gt;"/><marker lat="40.421219019860665" lng="-79.995789812344654" zone="Zone 3" incidentdate="2016-04-22" incidenttime="19:17:00" incidentnumber="16073453" address="700 block Manton Way" type="OFFENSE" age="" gender="" description="*********************************************** &lt;br/&gt;3502, Burglary.&lt;br/&gt;"/><marker lat="40.460655838069158" lng="-79.922722965339091" zone="Zone 5" incidentdate="2016-04-22" incidenttime="20:18:00" incidentnumber="16073503" address="Penn Ave &amp; Centre Ave" type="OFFENSE" age="" gender="" description="*********************************************** &lt;br/&gt;029, Missing Juvenile&lt;br/&gt;"/><marker lat="40.473163196362435" lng="-80.002667478350716" zone="Zone 1" incidentdate="2016-04-22" incidenttime="13:05:00" incidentnumber="16073320" address="100 block Essen St" type="OFFENSE" age="" gender="" description="*********************************************** &lt;br/&gt;3304(a)(5), CRIMINAL MISCHIEF - Intentionally Damages Real Or Personal Property Of Another&lt;br/&gt;"/><marker lat="40.465913053577324" lng="-79.953250701447303" zone="Zone 2" incidentdate="2016-04-22" incidenttime="05:58:00" incidentnumber="16073010" address="4400 block Penn Ave" type="OFFENSE" age="" gender="" description="*********************************************** &lt;br/&gt;029, Missing Juvenile&lt;br/&gt;"/><marker lat="40.463672192743637" lng="-79.952863870678712" zone="Zone 2" incidentdate="2016-04-22" incidenttime="17:30:00" incidentnumber="16073441" address="400 block Liberty Ave" type="OFFENSE" age="" gender="" description="*********************************************** &lt;br/&gt;3742, Accidents Involving Death or Personal Injury&lt;br/&gt;"/><marker lat="40.455601122118971" lng="-79.979266868193093" zone="Zone 2" incidentdate="2016-04-22" incidenttime="19:30:00" incidentnumber="16073473" address="26th St &amp; Smallman St" type="OFFENSE" age="" gender="" description="*********************************************** &lt;br/&gt;3743, Accidents Involving Damage to Attended Veh. or Property&lt;br/&gt;"/><marker lat="40.427588501697457" lng="-79.976344452438411" zone="Zone 3" incidentdate="2016-04-22" incidenttime="09:30:00" incidentnumber="16073291" address="S 21st St &amp; Sarah St" type="OFFENSE" age="" gender="" description="*********************************************** &lt;br/&gt;3304, Criminal Mischief.&lt;br/&gt;3934, Theft from Vehicle&lt;br/&gt;"/><marker lat="40.437850264562179" lng="-80.004567110517371" zone="Zone 2" incidentdate="2016-04-22" incidenttime="21:15:00" incidentnumber="16073531" address="Market St" type="OFFENSE" age="" gender="" description="*********************************************** &lt;br/&gt;3921, Theft by Unlawful Taking or Disposition.&lt;br/&gt;"/><marker lat="40.44956618746032" lng="-79.987646691015016" zone="Zone 2" incidentdate="2016-04-22" incidenttime="00:45:00" incidentnumber="16072908" address="1600 block Smallman St" type="OFFENSE" age="" gender="" description="*********************************************** &lt;br/&gt;3503(b)(1)(i), Actual Communication&lt;br/&gt;5503, Disorderly Conduct.&lt;br/&gt;"/><marker lat="40.479427388187375" lng="-79.929503412693379" zone="Zone 5" incidentdate="2016-04-22" incidenttime="00:11:00" incidentnumber="16072898" address="1200 block Jancey St" type="OFFENSE" age="" gender="" description="*********************************************** &lt;br/&gt;9498, 302 (Mental)&lt;br/&gt;"/><marker lat="40.444834569584067" lng="-79.979230886517598" zone="Zone 2" incidentdate="2016-04-22" incidenttime="23:50:00" incidentnumber="16073626" address="2100 block Wylie Ave" type="OFFENSE" age="" gender="" description="*********************************************** &lt;br/&gt;3745, Accidents Involving Damage to Unattended Veh.or Prop.&lt;br/&gt;"/><marker lat="40.454077845380546" lng="-79.906315183819032" zone="Zone 4" incidentdate="2016-04-22" incidenttime="07:00:00" incidentnumber="16073037" address="6900 block Mc Pherson Blvd" type="OFFENSE" age="" gender="" description="*********************************************** &lt;br/&gt;3934, Theft from Vehicle&lt;br/&gt;"/><marker lat="40.453566706506784" lng="-80.017443098064888" zone="Zone 5" incidentdate="2016-04-22" incidenttime="09:00:00" incidentnumber="16073036" address="900 block N Homewood Ave" type="OFFENSE" age="" gender="" description="*********************************************** &lt;br/&gt;3502, Burglary.&lt;br/&gt;"/><marker lat="40.427222544251535" lng="-79.97140725023084" zone="Zone 3" incidentdate="2016-04-22" incidenttime="07:10:00" incidentnumber="16073078" address="2400 block Sarah St" type="OFFENSE" age="" gender="" description="*********************************************** &lt;br/&gt;2709, Harassment (Non-Specific)&lt;br/&gt;"/><marker lat="40.398915184429292" lng="-79.986129239166701" zone="Zone 3" incidentdate="2016-04-22" incidenttime="15:00:00" incidentnumber="16073419" address="200 block E Cherryhill St" type="OFFENSE" age="" gender="" description="*********************************************** &lt;br/&gt;2705, Recklessly Endangering Another Person.&lt;br/&gt;2706, Terroristic Threats.&lt;br/&gt;"/><marker lat="40.409989086501" lng="-79.944077203924408" zone="Zone 4" incidentdate="2016-04-22" incidenttime="16:55:00" incidentnumber="16073368" address="2nd Ave &amp; Flowers Ave" type="OFFENSE" age="" gender="" description="*********************************************** &lt;br/&gt;1786, Required Financial Responsibility.&lt;br/&gt;4581, Restraint Systems.&lt;br/&gt;4703, Operation of Vehicle without Official Certif. of Inspection&lt;br/&gt;1301, Registration and Certificate of Title Required.&lt;br/&gt;7122, Altered, Forged or Counterfeit Documents and Plates&lt;br/&gt;1501(A), Valid Drivers License Required&lt;br/&gt;4706, Prohib. on Expend. for Emission Insp Prog..&lt;br/&gt;"/><marker lat="40.421531877189601" lng="-79.993577564166102" zone="Zone 3" incidentdate="2016-04-22" incidenttime="17:55:00" incidentnumber="16073410" address="800 block E Warrington Ave" type="OFFENSE" age="" gender="" description="*********************************************** &lt;br/&gt;9124, Drug Investigation&lt;br/&gt;"/><marker lat="40.466753082364363" lng="-79.982308950053635" zone="Zone 1" incidentdate="2016-04-22" incidenttime="12:00:00" incidentnumber="16073168" address="1800 block Rialto St" type="OFFENSE" age="" gender="" description="*********************************************** &lt;br/&gt;3304, Criminal Mischief.&lt;br/&gt;9130, Graffiti Investigation&lt;br/&gt;"/><marker lat="40.457261886016532" lng="-79.934057272019743" zone="Zone 4" incidentdate="2016-04-22" incidenttime="11:00:00" incidentnumber="16073285" address="Centre Ave &amp; S Negley Ave" type="OFFENSE" age="" gender="" description="*********************************************** &lt;br/&gt;9999, 9999 - (Misc. Incident):&lt;br/&gt;"/><marker lat="40.469222816226129" lng="-80.030265846271092" zone="Zone 1" incidentdate="2016-04-22" incidenttime="07:29:00" incidentnumber="16073031" address="1300 block Woodland Ave" type="OFFENSE" age="" gender="" description="*********************************************** &lt;br/&gt;9498, 302 (Mental)&lt;br/&gt;"/><marker lat="40.4127108" lng="-79.9892070" zone="Zone 3" incidentdate="2016-04-22" incidenttime="20:00:00" incidentnumber="16073495" address="Ormsby St &amp; Brownsville Rd" type="OFFENSE" age="" gender="" description="*********************************************** &lt;br/&gt;5505, Public Drunkenness&lt;br/&gt;"/><marker lat="40.421179317665889" lng="-79.944833915300208" zone="Zone 4" incidentdate="2016-04-22" incidenttime="19:20:00" incidentnumber="16073475" address="4300 block Gladstone St" type="OFFENSE" age="" gender="" description="*********************************************** &lt;br/&gt;9490, Missing Persons (18 and Over)&lt;br/&gt;"/><marker lat="40.415724062159953" lng="-79.99311329972528" zone="Zone 3" incidentdate="2016-04-22" incidenttime="15:00:00" incidentnumber="16073297" address="300 block Zara St" type="OFFENSE" age="" gender="" description="*********************************************** &lt;br/&gt;3304, Criminal Mischief.&lt;br/&gt;"/><marker lat="40.393167838197392" lng="-79.986585064520185" zone="Zone 3" incidentdate="2016-04-22" incidenttime="15:58:00" incidentnumber="16073380" address="2100 block Brownsville Rd" type="OFFENSE" age="" gender="" description="*********************************************** &lt;br/&gt;3304, Criminal Mischief.&lt;br/&gt;"/><marker lat="40.487823540011732" lng="-79.897614208935366" zone="Zone 5" incidentdate="2016-04-22" incidenttime="15:05:00" incidentnumber="16073344" address="800 block Freeport Rd" type="OFFENSE" age="" gender="" description="*********************************************** &lt;br/&gt;3929, Retail Theft.&lt;br/&gt;"/><marker lat="40.455730501197131" lng="-80.022832777383954" zone="Zone 1" incidentdate="2016-04-22" incidenttime="08:00:00" incidentnumber="16073123" address="1200 block Liverpool St" type="OFFENSE" age="" gender="" description="*********************************************** &lt;br/&gt;2706, Terroristic Threats.&lt;br/&gt;"/><marker lat="40.455893816733756" lng="-80.001389111845171" zone="Zone 1" incidentdate="2016-04-22" incidenttime="04:54:00" incidentnumber="16073000" address="Tripoli St &amp; James St" type="OFFENSE" age="" gender="" description="*********************************************** &lt;br/&gt;3701, Robbery.&lt;br/&gt;"/><marker lat="40.456564641128566" lng="-79.871361460228911" zone="Zone 5" incidentdate="2016-04-22" incidenttime="09:30:00" incidentnumber="16073404" address="2300 block East Hills Dr" type="OFFENSE" age="" gender="" description="*********************************************** &lt;br/&gt;3921, Theft by Unlawful Taking or Disposition.&lt;br/&gt;"/><marker lat="40.461190371271542" lng="-80.008755854274426" zone="Zone 1" incidentdate="2016-04-22" incidenttime="13:53:00" incidentnumber="16073255" address="Federal St N &amp; Perrysville Ave" type="OFFENSE" age="" gender="" description="*********************************************** &lt;br/&gt;2707, Propulsion of Missiles&lt;br/&gt;"/><marker lat="40.437850264562179" lng="-80.004567110517371" zone="Zone 2" incidentdate="2016-04-22" incidenttime="14:56:00" incidentnumber="16073283" address="Market St" type="OFFENSE" age="" gender="" description="*********************************************** &lt;br/&gt;5503, Disorderly Conduct.&lt;br/&gt;5505, Public Drunkenness&lt;br/&gt;2706, Terroristic Threats.&lt;br/&gt;"/><marker lat="40.449646657025653" lng="-79.892798110797884" zone="Zone 4" incidentdate="2016-04-22" incidenttime="03:58:00" incidentnumber="16072976" address="300 block N Braddock Ave" type="OFFENSE" age="" gender="" description="*********************************************** &lt;br/&gt;9093, Indirect Criminal Contempt&lt;br/&gt;"/><marker lat="40.447232671418007" lng="-80.079545238727377" zone="Zone 6" incidentdate="2016-04-22" incidenttime="14:29:00" incidentnumber="16073270" address="400 block Fairywood St" type="OFFENSE" age="" gender="" description="*********************************************** &lt;br/&gt;3701, Robbery.&lt;br/&gt;903, Criminal Conspiracy.&lt;br/&gt;"/><marker lat="40.437985502986635" lng="-80.056949470511995" zone="Zone 6" incidentdate="2016-04-22" incidenttime="15:20:00" incidentnumber="16073301" address="1500 block Cumberland St" type="OFFENSE" age="" gender="" description="*********************************************** &lt;br/&gt;3921, Theft by Unlawful Taking or Disposition.&lt;br/&gt;6106, Firearms not to be Carried without a License.&lt;br/&gt;2706, Terroristic Threats.&lt;br/&gt;"/><marker lat="40.45156448168715" lng="-80.018949472643925" zone="Zone 1" incidentdate="2016-04-22" incidenttime="23:13:00" incidentnumber="16073596" address="1000 block Western Ave" type="OFFENSE" age="" gender="" description="*********************************************** &lt;br/&gt;9488, False  Burglar Alarm&lt;br/&gt;"/><marker lat="40.403741692068373" lng="-80.027351077403026" zone="Zone 6" incidentdate="2016-04-22" incidenttime="16:45:00" incidentnumber="16073359" address="2200 block Saranac Ave" type="OFFENSE" age="" gender="" description="*********************************************** &lt;br/&gt;3502, Burglary.&lt;br/&gt;2709(a)(1), Harassment by Physical Contact, or Attempts or Threats&lt;br/&gt;"/><marker lat="40.45314367517944" lng="-80.020696136418465" zone="Zone 1" incidentdate="2016-04-22" incidenttime="17:30:00" incidentnumber="16073407" address="Bidwell St &amp; W North Ave" type="OFFENSE" age="" gender="" description="*********************************************** &lt;br/&gt;3304, Criminal Mischief.&lt;br/&gt;3745, Accidents Involving Damage to Unattended Veh.or Prop.&lt;br/&gt;"/><marker lat="40.437850264562179" lng="-80.004567110517371" zone="Zone 2" incidentdate="2016-04-22" incidenttime="19:05:00" incidentnumber="16073452" address="Market St" type="OFFENSE" age="" gender="" description="*********************************************** &lt;br/&gt;5503, Disorderly Conduct.&lt;br/&gt;2709(a), Harassment.&lt;br/&gt;"/><marker lat="40.419014270932223" lng="-79.997513743135087" zone="Zone 3" incidentdate="2016-04-22" incidenttime="00:14:00" incidentnumber="16072868" address="400 block Beltzhoover Ave" type="OFFENSE" age="" gender="" description="*********************************************** &lt;br/&gt;5505, Public Drunkenness&lt;br/&gt;"/><marker lat="40.488081814906529" lng="-79.894317224387123" zone="Zone 5" incidentdate="2016-04-22" incidenttime="00:47:00" incidentnumber="16072903" address="900 block Freeport Rd" type="OFFENSE" age="" gender="" description="*********************************************** &lt;br/&gt;3929, Retail Theft.&lt;br/&gt;"/><marker lat="40.475068872094958" lng="-80.013705358576715" zone="Zone 1" incidentdate="2016-04-22" incidenttime="16:32:00" incidentnumber="16073379" address="200 block Marshall Ave" type="OFFENSE" age="" gender="" description="*********************************************** &lt;br/&gt;3745, Accidents Involving Damage to Unattended Veh.or Prop.&lt;br/&gt;"/><marker lat="40.445926173410676" lng="-80.052351688864789" zone="Zone 6" incidentdate="2016-04-22" incidenttime="16:00:00" incidentnumber="16073339" address="1000 block Woodlow St" type="OFFENSE" age="" gender="" description="*********************************************** &lt;br/&gt;2701, Simple Assault.&lt;br/&gt;"/><marker lat="40.427422591568721" lng="-79.976119622198283" zone="Zone 3" incidentdate="2016-04-22" incidenttime="01:36:00" incidentnumber="16072920" address="2100 block Sarah St" type="OFFENSE" age="" gender="" description="*********************************************** &lt;br/&gt;13(a)(32), Paraphernalia - Use or Possession&lt;br/&gt;3304, Criminal Mischief.&lt;br/&gt;907, Possessing Instruments of Crime.&lt;br/&gt;"/><marker lat="40.4406248" lng="-79.9958864" zone="Zone 3" incidentdate="2016-04-22" incidenttime="21:17:00" incidentnumber="16073536" address="Saw Mill Run Blvd Ramp &amp; I-279" type="OFFENSE" age="" gender="" description="*********************************************** &lt;br/&gt;13(a)(31), Marijuana: Possession Small Amount&lt;br/&gt;13(a)(32), Paraphernalia - Use or Possession&lt;br/&gt;5104, Resisting Arrest or Other Law Enforcement.&lt;br/&gt;3361, Driving Vehicle at Safe Speed.&lt;br/&gt;3736, Reckless Driving&lt;br/&gt;3334, Turning Movements and Required Signals.&lt;br/&gt;3714, Careless Driving&lt;br/&gt;4524, Windshield Obstructions and Wipers.&lt;br/&gt;"/><marker lat="40.462673563734405" lng="-79.967213817018205" zone="Zone 2" incidentdate="2016-04-22" incidenttime="19:00:00" incidentnumber="16073450" address="34th St &amp; Penn Ave" type="OFFENSE" age="" gender="" description="*********************************************** &lt;br/&gt;3743, Accidents Involving Damage to Attended Veh. or Property&lt;br/&gt;"/><marker lat="40.472263232097738" lng="-79.88862291138517" zone="Zone 5" incidentdate="2016-04-22" incidenttime="10:25:00" incidentnumber="16073119" address="Funston Ave &amp; Travella Blvd" type="OFFENSE" age="" gender="" description="*********************************************** &lt;br/&gt;13(a)(16), Possession of Controlled Substance&lt;br/&gt;13(a)(32), Paraphernalia - Use or Possession&lt;br/&gt;"/><marker lat="40.4534979" lng="-80.0006001" zone="Zone 1" incidentdate="2016-04-22" incidenttime="17:00:00" incidentnumber="16042906" address="East Ohio St &amp; James St" type="OFFENSE" age="" gender="" description="*********************************************** &lt;br/&gt;9501, Bench Warrant&lt;br/&gt;5902(a)(2), Prostitution - Loitering for purpose of&lt;br/&gt;5902(a)(1), Prostitution&lt;br/&gt;"/><marker lat="40.44592903950182" lng="-79.976797932256218" zone="Zone 2" incidentdate="2016-04-22" incidenttime="16:30:00" incidentnumber="16073326" address="Wylie Ave &amp; Kirkpatrick St" type="OFFENSE" age="" gender="" description="*********************************************** &lt;br/&gt;5505, Public Drunkenness&lt;br/&gt;"/><marker lat="40.434482128289915" lng="-79.963606877655877" zone="Zone 4" incidentdate="2016-04-22" incidenttime="17:50:00" incidentnumber="16073406" address="300 block Lawn St" type="OFFENSE" age="" gender="" description="*********************************************** &lt;br/&gt;2702, Aggravated Assault.&lt;br/&gt;"/><marker lat="40.441228428031053" lng="-80.002073791411135" zone="Zone 2" incidentdate="2016-04-22" incidenttime="10:00:00" incidentnumber="16073117" address="200 block 5TH Ave" type="OFFENSE" age="" gender="" description="*********************************************** &lt;br/&gt;3921, Theft by Unlawful Taking or Disposition.&lt;br/&gt;3926(a)(1), Theft of Services; Cable, Gas, Taxi, Bill, Tab, etc.&lt;br/&gt;"/><marker lat="40.40650049746138" lng="-79.946508566469447" zone="Zone 4" incidentdate="2016-04-22" incidenttime="00:01:00" incidentnumber="16072891" address="5100 block Blair St" type="OFFENSE" age="" gender="" description="*********************************************** &lt;br/&gt;2709(a)(1), Harassment by Physical Contact, or Attempts or Threats&lt;br/&gt;"/><marker lat="40.429568428667658" lng="-79.914784883363154" zone="Zone 4" incidentdate="2016-04-22" incidenttime="08:59:00" incidentnumber="16073073" address="English Ln" type="OFFENSE" age="" gender="" description="*********************************************** &lt;br/&gt;9496, Dead on Arrival (DOA)&lt;br/&gt;"/><marker lat="40.391560629088389" lng="-80.017051777921878" zone="Zone 6" incidentdate="2016-04-22" incidenttime="12:29:00" incidentnumber="16058905" address="Chelton Ave &amp; Queensboro Ave" type="OFFENSE" age="" gender="" description="*********************************************** &lt;br/&gt;3701, Robbery.&lt;br/&gt;4906, False Reports to Law Enforcement Authorities.&lt;br/&gt;"/><marker lat="40.453187666431582" lng="-80.020761317454728" zone="Zone 1" incidentdate="2016-04-22" incidenttime="15:00:00" incidentnumber="16073309" address="1100 block W NORTH Ave" type="OFFENSE" age="" gender="" description="*********************************************** &lt;br/&gt;4106, Access Device Fraud&lt;br/&gt;4120, Identity Theft&lt;br/&gt;"/><marker lat="40.411434481817672" lng="-79.943819160293828" zone="Zone 4" incidentdate="2016-04-22" incidenttime="18:30:00" incidentnumber="16073435" address="4800 block Chatsworth Ave" type="OFFENSE" age="" gender="" description="*********************************************** &lt;br/&gt;4304(a)(1), Endangering Welfare of Children - Course of Conduct Enhanced&lt;br/&gt;2701, Simple Assault.&lt;br/&gt;"/><marker lat="40.421821897112089" lng="-80.010299848912638" zone="Zone 3" incidentdate="2016-04-22" incidenttime="09:37:00" incidentnumber="16073094" address="200 block Lelia St" type="OFFENSE" age="" gender="" description="*********************************************** &lt;br/&gt;4106, Access Device Fraud&lt;br/&gt;"/><marker lat="40.465099369144312" lng="-80.010043539784363" zone="Zone 1" incidentdate="2016-04-22" incidenttime="00:49:00" incidentnumber="16072906" address="Federal Ext N &amp; Lafayette Ave" type="OFFENSE" age="" gender="" description="*********************************************** &lt;br/&gt;9501, Bench Warrant&lt;br/&gt;4303, General Lighting Requirements.&lt;br/&gt;"/><marker lat="40.4531179" lng="-79.9098964" zone="Zone 4" incidentdate="2016-04-22" incidenttime="20:22:00" incidentnumber="16073505" address="5900 block Meade St" type="OFFENSE" age="" gender="" description="*********************************************** &lt;br/&gt;3921(a), Theft by Unlawful Taking or Disposition - Movable item&lt;br/&gt;"/><marker lat="40.456369305783525" lng="-80.053424121419937" zone="Zone 6" incidentdate="2016-04-22" incidenttime="17:40:00" incidentnumber="16073400" address="3000 block Zephyr Ave" type="OFFENSE" age="" gender="" description="*********************************************** &lt;br/&gt;2702, Aggravated Assault.&lt;br/&gt;"/><marker lat="40.446867779409757" lng="-80.020757813868244" zone="Zone 1" incidentdate="2016-04-22" incidenttime="17:55:00" incidentnumber="16073411" address="700 block Casino Dr" type="OFFENSE" age="" gender="" description="*********************************************** &lt;br/&gt;13(a)(31), Marijuana: Possession Small Amount&lt;br/&gt;5507, Obstructing Highways and Passages.&lt;br/&gt;5505, Public Drunkenness&lt;br/&gt;"/><marker lat="40.430020824945359" lng="-79.976813326700821" zone="Zone 3" incidentdate="2016-04-22" incidenttime="14:30:00" incidentnumber="16073268" address="2000 block Wharton St" type="OFFENSE" age="" gender="" description="*********************************************** &lt;br/&gt;5503, Disorderly Conduct.&lt;br/&gt;5505, Public Drunkenness&lt;br/&gt;3503.B1I, DEF. TRESPASS ACTUAL COMMUNICATION&lt;br/&gt;601.08(a), Alcohol or Liquor Consumption on Streets or Sidewalks&lt;br/&gt;"/><marker lat="40.441137684867279" lng="-79.957585934716349" zone="Zone 4" incidentdate="2016-04-22" incidenttime="02:32:00" incidentnumber="16072953" address="200 block Atwood St" type="OFFENSE" age="" gender="" description="*********************************************** &lt;br/&gt;5505, Public Drunkenness&lt;br/&gt;"/><marker lat="40.465093683923655" lng="-79.900310455728899" zone="Zone 5" incidentdate="2016-04-22" incidenttime="15:34:00" incidentnumber="16073354" address="6900 block Apple Ave" type="OFFENSE" age="" gender="" description="*********************************************** &lt;br/&gt;9497, Aided Case&lt;br/&gt;"/><marker lat="40.400002608625705" lng="-79.989850080723912" zone="Zone 3" incidentdate="2016-04-22" incidenttime="03:05:00" incidentnumber="16072979" address="1600 block Dellrose St" type="OFFENSE" age="" gender="" description="*********************************************** &lt;br/&gt;3934, Theft from Vehicle&lt;br/&gt;"/><marker lat="40.445590651116305" lng="-79.949387243364313" zone="Zone 4" incidentdate="2016-04-22" incidenttime="02:00:00" incidentnumber="16072955" address="300 block N Craig St" type="OFFENSE" age="" gender="" description="*********************************************** &lt;br/&gt;2701, Simple Assault.&lt;br/&gt;"/><marker lat="40.409630045681837" lng="-79.999520613370862" zone="Zone 3" incidentdate="2016-04-22" incidenttime="10:00:00" incidentnumber="16073174" address="200 block Conniston Ave" type="OFFENSE" age="" gender="" description="*********************************************** &lt;br/&gt;3934, Theft from Vehicle&lt;br/&gt;"/><marker lat="40.4427237" lng="-79.9772152" zone="Zone 2" incidentdate="2016-04-22" incidenttime="20:40:00" incidentnumber="16073512" address="100 block Addison St" type="OFFENSE" age="" gender="" description="*********************************************** &lt;br/&gt;3304, Criminal Mischief.&lt;br/&gt;"/><marker lat="40.389049309059942" lng="-79.985519858598082" zone="Zone 3" incidentdate="2016-04-22" incidenttime="02:55:00" incidentnumber="16072962" address="2300 block Brownsville Rd" type="OFFENSE" age="" gender="" description="*********************************************** &lt;br/&gt;3304, Criminal Mischief.&lt;br/&gt;"/><marker lat="40.454136833164974" lng="-80.001939797868459" zone="Zone 3" incidentdate="2016-04-22" incidenttime="17:40:00" incidentnumber="16073370" address="400 block Freeland St" type="OFFENSE" age="" gender="" description="*********************************************** &lt;br/&gt;13(a)(31)(i), Marijuana - Possess Small Amt for Personal Use&lt;br/&gt;"/><marker lat="40.429417158451685" lng="-79.953711546107328" zone="Zone 4" incidentdate="2016-04-22" incidenttime="07:00:00" incidentnumber="16073209" address="3200 block Parkview Ave" type="OFFENSE" age="" gender="" description="*********************************************** &lt;br/&gt;9496, Dead on Arrival (DOA)&lt;br/&gt;"/><marker lat="40.453470511792048" lng="-80.001533243378148" zone="Zone 1" incidentdate="2016-04-22" incidenttime="06:58:00" incidentnumber="16073024" address="400 block East Ohio St" type="OFFENSE" age="" gender="" description="*********************************************** &lt;br/&gt;13(a)(32), Paraphernalia - Use or Possession&lt;br/&gt;"/><marker lat="40.448701891829785" lng="-79.897676320461599" zone="Zone 5" incidentdate="2016-04-22" incidenttime="14:30:00" incidentnumber="16073244" address="7400 block Penfield Ct" type="OFFENSE" age="" gender="" description="*********************************************** &lt;br/&gt;9490, Missing Persons (18 and Over)&lt;br/&gt;"/><marker lat="40.456919263217351" lng="-80.005945159629746" zone="Zone 1" incidentdate="2016-04-22" incidenttime="01:00:00" incidentnumber="16072907" address="1300 block Boyle St" type="OFFENSE" age="" gender="" description="*********************************************** &lt;br/&gt;9999, 9999 - (Misc. Incident):&lt;br/&gt;"/><marker lat="40.464593109711267" lng="-80.01674321254275" zone="Zone 1" incidentdate="2016-04-22" incidenttime="13:00:00" incidentnumber="16073236" address="600 block Chautauqua St" type="OFFENSE" age="" gender="" description="*********************************************** &lt;br/&gt;3921, Theft by Unlawful Taking or Disposition.&lt;br/&gt;"/><marker lat="40.414309475534907" lng="-79.990557634779719" zone="Zone 3" incidentdate="2016-04-22" incidenttime="17:00:00" incidentnumber="16073390" address="200 block Bausman St" type="OFFENSE" age="" gender="" description="*********************************************** &lt;br/&gt;3922, Theft by Deception.&lt;br/&gt;4105(a)(1), Bad Checks&lt;br/&gt;"/><marker lat="40.441354979392592" lng="-79.994737122353087" zone="Zone 2" incidentdate="2016-04-22" incidenttime="14:35:00" incidentnumber="16073336" address="600 block Grant St" type="OFFENSE" age="" gender="" description="*********************************************** &lt;br/&gt;3921, Theft by Unlawful Taking or Disposition.&lt;br/&gt;"/><marker lat="40.393167838197392" lng="-79.986585064520185" zone="Zone 3" incidentdate="2016-04-22" incidenttime="08:00:00" incidentnumber="16073378" address="2100 block Brownsville Rd" type="OFFENSE" age="" gender="" description="*********************************************** &lt;br/&gt;3304, Criminal Mischief.&lt;br/&gt;"/><marker lat="40.441732921543291" lng="-80.006405498352649" zone="Zone 2" incidentdate="2016-04-22" incidenttime="07:35:00" incidentnumber="16073039" address="600 block Commonwealth Pl" type="OFFENSE" age="" gender="" description="*********************************************** &lt;br/&gt;3304(a)(5), CRIMINAL MISCHIEF - Intentionally Damages Real Or Personal Property Of Another&lt;br/&gt;"/><marker lat="40.439548335098358" lng="-79.922756875147854" zone="Zone 4" incidentdate="2016-04-22" incidenttime="16:00:00" incidentnumber="16073338" address="5800 block Aylesboro Ave" type="OFFENSE" age="" gender="" description="*********************************************** &lt;br/&gt;2709, Harassment (Non-Specific)&lt;br/&gt;"/><marker lat="40.438943794278437" lng="-79.956702987700893" zone="Zone 4" incidentdate="2016-04-22" incidenttime="18:30:00" incidentnumber="16073457" address="300 block Meyran Ave" type="OFFENSE" age="" gender="" description="*********************************************** &lt;br/&gt;3921, Theft by Unlawful Taking or Disposition.&lt;br/&gt;"/><marker lat="40.456498143014684" lng="-79.97014620696288" zone="Zone 2" incidentdate="2016-04-22" incidenttime="02:30:00" incidentnumber="16072957" address="400 block 30th St" type="OFFENSE" age="" gender="" description="*********************************************** &lt;br/&gt;473.07 (a), Hours of Parks 0600-2300 hrs.&lt;br/&gt;"/><marker lat="40.484277478903593" lng="-79.926914578196559" zone="Zone 5" incidentdate="2016-04-22" incidenttime="08:15:00" incidentnumber="16073062" address="1700 block Chislett St" type="OFFENSE" age="" gender="" description="*********************************************** &lt;br/&gt;3934, Theft from Vehicle&lt;br/&gt;"/><marker lat="40.454038272737556" lng="-79.867341042290406" zone="Zone 5" incidentdate="2016-04-22" incidenttime="18:30:00" incidentnumber="16073445" address="2200 block Wilner Dr" type="OFFENSE" age="" gender="" description="*********************************************** &lt;br/&gt;3502, Burglary.&lt;br/&gt;"/><marker lat="40.428606966018023" lng="-79.985175111647919" zone="Zone 3" incidentdate="2016-04-22" incidenttime="18:50:00" incidentnumber="16073447" address="1300 block E Carson St" type="OFFENSE" age="" gender="" description="*********************************************** &lt;br/&gt;3502, Burglary.&lt;br/&gt;3304, Criminal Mischief.&lt;br/&gt;2701, Simple Assault.&lt;br/&gt;"/><marker lat="40.455512197128314" lng="-80.009793266829092" zone="Zone 1" incidentdate="2016-04-22" incidenttime="11:35:00" incidentnumber="16073204" address="Sherman Ave &amp; Eloise St" type="OFFENSE" age="" gender="" description="*********************************************** &lt;br/&gt;3745, Accidents Involving Damage to Unattended Veh.or Prop.&lt;br/&gt;"/><marker lat="40.419540405830823" lng="-79.994716176873993" zone="Zone 3" incidentdate="2016-04-22" incidenttime="13:00:00" incidentnumber="16073381" address="Walter St &amp; Loyal Way" type="OFFENSE" age="" gender="" description="*********************************************** &lt;br/&gt;3745, Accidents Involving Damage to Unattended Veh.or Prop.&lt;br/&gt;"/><marker lat="40.475353587151446" lng="-80.038140054512269" zone="Zone 1" incidentdate="2016-04-22" incidenttime="17:15:00" incidentnumber="16073392" address="ANTRIM St" type="OFFENSE" age="" gender="" description="*********************************************** &lt;br/&gt;9999, 9999 - (Misc. Incident):&lt;br/&gt;"/><marker lat="40.454136833164974" lng="-80.001939797868459" zone="Zone 3" incidentdate="2016-04-22" incidenttime="17:40:00" incidentnumber="16073370" address="400 block Freeland St" type="ARREST" age="54" gender="M" description="*********************************************** &lt;br/&gt;13(a)(31)(i), Marijuana - Possess Small Amt for Personal Use&lt;br/&gt;"/><marker lat="40.472263232097738" lng="-79.88862291138517" zone="Zone 5" incidentdate="2016-04-22" incidenttime="10:25:00" incidentnumber="16073119" address="Funston Ave &amp; Travella Blvd" type="ARREST" age="30" gender="M" description="*********************************************** &lt;br/&gt;13(a)(16), Possession of Controlled Substance&lt;br/&gt;13(a)(32), Paraphernalia - Use or Possession&lt;br/&gt;"/><marker lat="40.4534979" lng="-80.0006001" zone="Zone 1" incidentdate="2016-04-22" incidenttime="17:23:00" incidentnumber="16042906" address="East Ohio St &amp; James St" type="ARREST" age="29" gender="F" description="*********************************************** &lt;br/&gt;9501, Bench Warrant&lt;br/&gt;5902(a)(2), Prostitution - Loitering for purpose of&lt;br/&gt;5902(a)(1), Prostitution&lt;br/&gt;"/><marker lat="40.427422591568721" lng="-79.976119622198283" zone="Zone 3" incidentdate="2016-04-22" incidenttime="01:36:00" incidentnumber="16072920" address="2100 block Sarah St" type="ARREST" age="55" gender="M" description="*********************************************** &lt;br/&gt;13(a)(32), Paraphernalia - Use or Possession&lt;br/&gt;3304, Criminal Mischief.&lt;br/&gt;907, Possessing Instruments of Crime.&lt;br/&gt;"/><marker lat="40.445926173410676" lng="-80.052351688864789" zone="Zone 6" incidentdate="2016-04-22" incidenttime="16:40:00" incidentnumber="16073339" address="1000 block Woodlow St" type="ARREST" age="26" gender="M" description="*********************************************** &lt;br/&gt;2701, Simple Assault.&lt;br/&gt;"/><marker lat="40.44989011910728" lng="-80.076545221447134" zone="Zone 6" incidentdate="2016-04-22" incidenttime="21:30:00" incidentnumber="16072843" address="1400 block Village Rd" type="ARREST" age="17" gender="M" description="*********************************************** &lt;br/&gt;3701, Robbery.&lt;br/&gt;903, Criminal Conspiracy.&lt;br/&gt;"/><marker lat="40.437985502986635" lng="-80.056949470511995" zone="Zone 6" incidentdate="2016-04-22" incidenttime="15:30:00" incidentnumber="16073301" address="1500 block Cumberland St" type="ARREST" age="27" gender="M" description="*********************************************** &lt;br/&gt;3921, Theft by Unlawful Taking or Disposition.&lt;br/&gt;6106, Firearms not to be Carried without a License.&lt;br/&gt;2706, Terroristic Threats.&lt;br/&gt;"/><marker lat="40.4406248" lng="-79.9958864" zone="Zone 3" incidentdate="2016-04-22" incidenttime="21:17:00" incidentnumber="16073536" address="Saw Mill Run Blvd Ramp &amp; I-279" type="ARREST" age="19" gender="M" description="*********************************************** &lt;br/&gt;13(a)(31), Marijuana: Possession Small Amount&lt;br/&gt;13(a)(32), Paraphernalia - Use or Possession&lt;br/&gt;5104, Resisting Arrest or Other Law Enforcement.&lt;br/&gt;3361, Driving Vehicle at Safe Speed.&lt;br/&gt;3736, Reckless Driving&lt;br/&gt;3334, Turning Movements and Required Signals.&lt;br/&gt;3714, Careless Driving&lt;br/&gt;4524, Windshield Obstructions and Wipers.&lt;br/&gt;"/><marker lat="40.403741692068373" lng="-80.027351077403026" zone="Zone 6" incidentdate="2016-04-22" incidenttime="18:45:00" incidentnumber="16073359" address="2200 block Saranac Ave" type="ARREST" age="26" gender="M" description="*********************************************** &lt;br/&gt;3502, Burglary.&lt;br/&gt;2709(a)(1), Harassment by Physical Contact, or Attempts or Threats&lt;br/&gt;"/><marker lat="40.444334789298857" lng="-79.973313966052743" zone="Zone 2" incidentdate="2016-04-22" incidenttime="02:00:00" incidentnumber="15010090" address="2300 block Reed St" type="ARREST" age="47" gender="M" description="*********************************************** &lt;br/&gt;2701, Simple Assault.&lt;br/&gt;"/><marker lat="40.45614291324403" lng="-80.015399745388805" zone="Zone 1" incidentdate="2016-04-22" incidenttime="12:30:00" incidentnumber="16057510" address="800 block Pennsylvania Ave" type="ARREST" age="31" gender="F" description="*********************************************** &lt;br/&gt;2705, Recklessly Endangering Another Person.&lt;br/&gt;2702, Aggravated Assault.&lt;br/&gt;3701, Robbery.&lt;br/&gt;3929, Retail Theft.&lt;br/&gt;"/><marker lat="40.409989086501" lng="-79.944077203924408" zone="Zone 4" incidentdate="2016-04-22" incidenttime="16:55:00" incidentnumber="16073368" address="2nd Ave &amp; Flowers Ave" type="ARREST" age="21" gender="F" description="*********************************************** &lt;br/&gt;1786, Required Financial Responsibility.&lt;br/&gt;4581, Restraint Systems.&lt;br/&gt;4703, Operation of Vehicle without Official Certif. of Inspection&lt;br/&gt;1301, Registration and Certificate of Title Required.&lt;br/&gt;7122, Altered, Forged or Counterfeit Documents and Plates&lt;br/&gt;1501(A), Valid Drivers License Required&lt;br/&gt;4706, Prohib. on Expend. for Emission Insp Prog..&lt;br/&gt;"/><marker lat="40.449646657025653" lng="-79.892798110797884" zone="Zone 4" incidentdate="2016-04-22" incidenttime="03:31:00" incidentnumber="16072976" address="300 block N Braddock Ave" type="ARREST" age="53" gender="F" description="*********************************************** &lt;br/&gt;9093, Indirect Criminal Contempt&lt;br/&gt;"/><marker lat="40.391560629088389" lng="-80.017051777921878" zone="Zone 6" incidentdate="2016-04-22" incidenttime="12:29:00" incidentnumber="16058905" address="Chelton Ave &amp; Queensboro Ave" type="ARREST" age="22" gender="M" description="*********************************************** &lt;br/&gt;3701, Robbery.&lt;br/&gt;4906, False Reports to Law Enforcement Authorities.&lt;br/&gt;"/><marker lat="40.434696587775576" lng="-79.996300985228572" zone="Zone 2" incidentdate="2016-04-22" incidenttime="21:30:00" incidentnumber="16056772" address="600 block 1st Ave" type="ARREST" age="18" gender="F" description="*********************************************** &lt;br/&gt;3304, Criminal Mischief.&lt;br/&gt;903, Criminal Conspiracy.&lt;br/&gt;4905, False Alarms to Agencies of Public Safety.&lt;br/&gt;"/><marker lat="40.447232671418007" lng="-80.079545238727377" zone="Zone 6" incidentdate="2016-04-22" incidenttime="21:30:00" incidentnumber="16073270" address="400 block Fairywood St" type="ARREST" age="17" gender="M" description="*********************************************** &lt;br/&gt;3701, Robbery.&lt;br/&gt;903, Criminal Conspiracy.&lt;br/&gt;"/><marker lat="40.430020824945359" lng="-79.976813326700821" zone="Zone 3" incidentdate="2016-04-22" incidenttime="14:30:00" incidentnumber="16073268" address="2000 block Wharton St" type="ARREST" age="57" gender="M" description="*********************************************** &lt;br/&gt;5503, Disorderly Conduct.&lt;br/&gt;5505, Public Drunkenness&lt;br/&gt;3503.B1I, DEF. TRESPASS ACTUAL COMMUNICATION&lt;br/&gt;601.08(a), Alcohol or Liquor Consumption on Streets or Sidewalks&lt;br/&gt;"/><marker lat="40.442699834204745" lng="-80.002206793246714" zone="Zone 2" incidentdate="2016-04-22" incidenttime="19:40:00" incidentnumber="15235395" address="200 block 6th St" type="ARREST" age="51" gender="M" description="*********************************************** &lt;br/&gt;3502, Burglary.&lt;br/&gt;"/><marker lat="40.437850264562179" lng="-80.004567110517371" zone="Zone 2" incidentdate="2016-04-22" incidenttime="14:56:00" incidentnumber="16073283" address="Market St" type="ARREST" age="36" gender="M" description="*********************************************** &lt;br/&gt;5503, Disorderly Conduct.&lt;br/&gt;5505, Public Drunkenness&lt;br/&gt;2706, Terroristic Threats.&lt;br/&gt;"/><marker lat="40.468580624202609" lng="-79.931567288462247" zone="Zone 5" incidentdate="2016-04-22" incidenttime="00:15:00" incidentnumber="16072873" address="5500 block Columbo St" type="ARREST" age="30" gender="F" description="*********************************************** &lt;br/&gt;13(a)(16), Possession of Controlled Substance&lt;br/&gt;13(a)(30), Possession w/ Intent to Del. Controlled Substance&lt;br/&gt;13(a)(31), Marijuana: Possession Small Amount&lt;br/&gt;4910, Tampering with or Fabricating Physical Evidence.&lt;br/&gt;3802(a)(1), DUI - General Impairment&lt;br/&gt;"/><marker lat="40.446867779409757" lng="-80.020757813868244" zone="Zone 1" incidentdate="2016-04-22" incidenttime="17:55:00" incidentnumber="16073411" address="700 block Casino Dr" type="ARREST" age="43" gender="M" description="*********************************************** &lt;br/&gt;13(a)(31), Marijuana: Possession Small Amount&lt;br/&gt;5507, Obstructing Highways and Passages.&lt;br/&gt;5505, Public Drunkenness&lt;br/&gt;"/><marker lat="40.488081814906529" lng="-79.894317224387123" zone="Zone 5" incidentdate="2016-04-22" incidenttime="01:05:00" incidentnumber="16072903" address="900 block Freeport Rd" type="ARREST" age="42" gender="F" description="*********************************************** &lt;br/&gt;3929, Retail Theft.&lt;br/&gt;"/><marker lat="40.472263232097738" lng="-79.88862291138517" zone="Zone 5" incidentdate="2016-04-22" incidenttime="10:25:00" incidentnumber="16073119" address="Funston Ave &amp; Travella Blvd" type="ARREST" age="22" gender="F" description="*********************************************** &lt;br/&gt;13(a)(16), Possession of Controlled Substance&lt;br/&gt;13(a)(32), Paraphernalia - Use or Possession&lt;br/&gt;"/><marker lat="40.435273269529517" lng="-79.919039693907834" zone="Zone 4" incidentdate="2016-04-22" incidenttime="00:15:00" incidentnumber="16072200" address="2000 block Shady Ave" type="ARREST" age="34" gender="M" description="*********************************************** &lt;br/&gt;3736, Reckless Driving&lt;br/&gt;3802(a)(1), DUI - General Impairment&lt;br/&gt;"/><marker lat="40.459163797340445" lng="-80.008023829406753" zone="Zone 1" incidentdate="2016-04-22" incidenttime="14:32:00" incidentnumber="16042110" address="Carrington St &amp; Federal St N" type="ARREST" age="" gender="M" description="*********************************************** &lt;br/&gt;13(a)(31), Marijuana: Possession Small Amount&lt;br/&gt;9015, Failure To Appear/Arrest on Attachment Order&lt;br/&gt;1543, Driving While Operating Privilege is Suspended or Revoked.&lt;br/&gt;"/><marker lat="40.44956618746032" lng="-79.987646691015016" zone="Zone 2" incidentdate="2016-04-22" incidenttime="00:45:00" incidentnumber="16072908" address="1600 block Smallman St" type="ARREST" age="20" gender="M" description="*********************************************** &lt;br/&gt;3503(b)(1)(i), Actual Communication&lt;br/&gt;5503, Disorderly Conduct.&lt;br/&gt;"/><marker lat="40.472263232097738" lng="-79.88862291138517" zone="Zone 5" incidentdate="2016-04-22" incidenttime="10:25:00" incidentnumber="16073119" address="Funston Ave &amp; Travella Blvd" type="ARREST" age="23" gender="M" description="*********************************************** &lt;br/&gt;13(a)(16), Possession of Controlled Substance&lt;br/&gt;13(a)(32), Paraphernalia - Use or Possession&lt;br/&gt;"/><marker lat="40.453470511792048" lng="-80.001533243378148" zone="Zone 1" incidentdate="2016-04-22" incidenttime="06:58:00" incidentnumber="16073024" address="400 block East Ohio St" type="ARREST" age="29" gender="F" description="*********************************************** &lt;br/&gt;13(a)(32), Paraphernalia - Use or Possession&lt;br/&gt;"/><marker lat="40.4406248" lng="-79.9958864" zone="Zone 3" incidentdate="2016-04-22" incidenttime="21:17:00" incidentnumber="16073536" address="Saw Mill Run Blvd Ramp &amp; I-279" type="ARREST" age="20" gender="F" description="*********************************************** &lt;br/&gt;13(a)(31), Marijuana: Possession Small Amount&lt;br/&gt;13(a)(32), Paraphernalia - Use or Possession&lt;br/&gt;5104, Resisting Arrest or Other Law Enforcement.&lt;br/&gt;3361, Driving Vehicle at Safe Speed.&lt;br/&gt;3736, Reckless Driving&lt;br/&gt;3334, Turning Movements and Required Signals.&lt;br/&gt;3714, Careless Driving&lt;br/&gt;4524, Windshield Obstructions and Wipers.&lt;br/&gt;"/><marker lat="40.465099369144312" lng="-80.010043539784363" zone="Zone 1" incidentdate="2016-04-22" incidenttime="00:49:00" incidentnumber="16072906" address="Federal Ext N &amp; Lafayette Ave" type="ARREST" age="40" gender="M" description="*********************************************** &lt;br/&gt;9501, Bench Warrant&lt;br/&gt;4303, General Lighting Requirements.&lt;br/&gt;"/></markers>
