<?xml version="1.0"?>
<markers><marker lat="40.472496774889684" lng="-80.017420250666618" zone="Zone 1" incidentdate="2016-01-29" incidenttime="12:15:00" incidentnumber="16017263" address="2800 block brighton Rd" type="OFFENSE" age="" gender="" description="*********************************************** &lt;br/&gt;9489, Found Property&lt;br/&gt;"/><marker lat="40.466903491398845" lng="-79.905983448201809" zone="Zone 5" incidentdate="2016-01-29" incidenttime="16:20:00" incidentnumber="16017382" address="6500 block Deary St" type="OFFENSE" age="" gender="" description="*********************************************** &lt;br/&gt;3502, Burglary.&lt;br/&gt;"/><marker lat="40.442092052039932" lng="-79.999423512399062" zone="Zone 2" incidentdate="2016-01-29" incidenttime="18:05:00" incidentnumber="16017502" address="600 block Wood St" type="OFFENSE" age="" gender="" description="*********************************************** &lt;br/&gt;2701, Simple Assault.&lt;br/&gt;"/><marker lat="40.462740043669676" lng="-79.905733593421971" zone="Zone 2" incidentdate="2016-01-29" incidenttime="16:52:00" incidentnumber="16017422" address="100 block Washington Pl" type="OFFENSE" age="" gender="" description="*********************************************** &lt;br/&gt;5902(e), Patronizing a Prostitute&lt;br/&gt;902, Criminal Solicitation.&lt;br/&gt;"/><marker lat="40.428585203983602" lng="-79.981869007680203" zone="Zone 3" incidentdate="2016-01-29" incidenttime="23:51:00" incidentnumber="16017623" address="1700 block E Carson St" type="OFFENSE" age="" gender="" description="*********************************************** &lt;br/&gt;2701, Simple Assault.&lt;br/&gt;5505, Public Drunkenness&lt;br/&gt;"/><marker lat="40.467375034401172" lng="-79.957944364123122" zone="Zone 6" incidentdate="2016-01-29" incidenttime="00:35:00" incidentnumber="16016989" address="300 block S Main St" type="OFFENSE" age="" gender="" description="*********************************************** &lt;br/&gt;9489, Found Property&lt;br/&gt;"/><marker lat="40.423782922202541" lng="-80.005228578428458" zone="Zone 3" incidentdate="2016-01-29" incidenttime="12:10:00" incidentnumber="16017315" address="100 block Ruth St" type="OFFENSE" age="" gender="" description="*********************************************** &lt;br/&gt;3502, Burglary.&lt;br/&gt;"/><marker lat="40.457155854017508" lng="-79.929226237261304" zone="Zone 4" incidentdate="2016-01-29" incidenttime="16:37:00" incidentnumber="16017387" address="600 block College Ave" type="OFFENSE" age="" gender="" description="*********************************************** &lt;br/&gt;3921, Theft by Unlawful Taking or Disposition.&lt;br/&gt;"/><marker lat="40.388165539002834" lng="-79.988305338049216" zone="Zone 3" incidentdate="2016-01-29" incidenttime="14:04:00" incidentnumber="16017306" address="2300 block Almont St" type="OFFENSE" age="" gender="" description="*********************************************** &lt;br/&gt;13(a)(16), Possession of Controlled Substance&lt;br/&gt;13(a)(32), Paraphernalia - Use or Possession&lt;br/&gt;9501, Bench Warrant&lt;br/&gt;901, Criminal Attempt&lt;br/&gt;"/><marker lat="40.456581713944651" lng="-80.000332843470076" zone="Zone 1" incidentdate="2016-01-29" incidenttime="17:46:00" incidentnumber="16017430" address="E North Ave" type="OFFENSE" age="" gender="" description="*********************************************** &lt;br/&gt;9497, Aided Case&lt;br/&gt;"/><marker lat="40.458854351754105" lng="-80.009859903656618" zone="Zone 1" incidentdate="2016-01-29" incidenttime="07:11:00" incidentnumber="16017126" address="200 block Carrington St" type="OFFENSE" age="" gender="" description="*********************************************** &lt;br/&gt;9018, Accidental Fire&lt;br/&gt;"/><marker lat="40.465507118981996" lng="-79.940975286539569" zone="Zone 5" incidentdate="2016-01-29" incidenttime="08:39:00" incidentnumber="16017174" address="Dearborn St &amp; N Evaline St" type="OFFENSE" age="" gender="" description="*********************************************** &lt;br/&gt;3928, Unauthorized Use of Automobile and Other Vehicles.&lt;br/&gt;"/><marker lat="40.404939361855945" lng="-79.990899233620965" zone="Zone 3" incidentdate="2016-01-29" incidenttime="07:25:00" incidentnumber="16017133" address="1100 block Brownsville Rd" type="OFFENSE" age="" gender="" description="*********************************************** &lt;br/&gt;3745, Accidents Involving Damage to Unattended Veh.or Prop.&lt;br/&gt;"/><marker lat="40.412868050103597" lng="-80.025135374935701" zone="Zone 6" incidentdate="2016-01-29" incidenttime="15:00:00" incidentnumber="16017383" address="1500 block Beechview Ave" type="OFFENSE" age="" gender="" description="*********************************************** &lt;br/&gt;2709, Harassment (Non-Specific)&lt;br/&gt;"/><marker lat="40.399184649147095" lng="-80.025493435297477" zone="Zone 6" incidentdate="2016-01-29" incidenttime="01:05:00" incidentnumber="16017002" address="2500 block West Liberty Ave" type="OFFENSE" age="" gender="" description="*********************************************** &lt;br/&gt;3802(a)(1), DUI - General Impairment&lt;br/&gt;3802(b), DUI - High Rate of Alchol - BAC &gt;=.10% &lt;.16%&lt;br/&gt;"/><marker lat="40.437811377822683" lng="-79.988355032042563" zone="Zone 2" incidentdate="2016-01-29" incidenttime="10:42:00" incidentnumber="16017223" address="Forbes Ave &amp; Magee St" type="OFFENSE" age="" gender="" description="*********************************************** &lt;br/&gt;13(a)(16), Possession of Controlled Substance&lt;br/&gt;13(a)(30), Possession w/ Intent to Del. Controlled Substance&lt;br/&gt;13(a)(30)*, Delivery of Controlled Substance&lt;br/&gt;13(a)(31), Marijuana: Possession Small Amount&lt;br/&gt;13(a)(32), Paraphernalia - Use or Possession&lt;br/&gt;9501, Bench Warrant&lt;br/&gt;"/><marker lat="40.437841851603423" lng="-79.963932447072409" zone="Zone 4" incidentdate="2016-01-29" incidenttime="15:30:00" incidentnumber="16017381" address="5th Ave &amp; Craft Ave" type="OFFENSE" age="" gender="" description="*********************************************** &lt;br/&gt;9999, 9999 - (Misc. Incident):&lt;br/&gt;"/><marker lat="40.463213095463466" lng="-79.937294777771413" zone="Zone 5" incidentdate="2016-01-29" incidenttime="12:36:00" incidentnumber="16017274" address="5400 block Coral St" type="OFFENSE" age="" gender="" description="*********************************************** &lt;br/&gt;3502, Burglary.&lt;br/&gt;3921, Theft by Unlawful Taking or Disposition.&lt;br/&gt;"/><marker lat="40.443469776336613" lng="-80.039682900388073" zone="Zone 6" incidentdate="2016-01-29" incidenttime="13:50:00" incidentnumber="16017308" address="900 block Chartiers Ave" type="OFFENSE" age="" gender="" description="*********************************************** &lt;br/&gt;9488, False  Burglar Alarm&lt;br/&gt;"/><marker lat="40.45003511141789" lng="-79.903694021372729" zone="Zone OSC" incidentdate="2016-01-29" incidenttime="06:07:00" incidentnumber="16017120" address="100 block Penn Ave" type="OFFENSE" age="" gender="" description="*********************************************** &lt;br/&gt;13(a)(16), Possession of Controlled Substance&lt;br/&gt;13(a)(30), Possession w/ Intent to Del. Controlled Substance&lt;br/&gt;13(a)(32), Paraphernalia - Use or Possession&lt;br/&gt;7512, Criminal Use of Communication&lt;br/&gt;"/><marker lat="40.459190603440391" lng="-79.927408851895919" zone="Zone 4" incidentdate="2016-01-29" incidenttime="13:30:00" incidentnumber="16017309" address="5900 block Centre Ave" type="OFFENSE" age="" gender="" description="*********************************************** &lt;br/&gt;3929, Retail Theft.&lt;br/&gt;"/><marker lat="40.410356742633624" lng="-79.990376092457225" zone="Zone 3" incidentdate="2016-01-29" incidenttime="15:20:00" incidentnumber="16000597" address="200 block Suncrest St" type="OFFENSE" age="" gender="" description="*********************************************** &lt;br/&gt;2709(a)(1), Harassment by Physical Contact, or Attempts or Threats&lt;br/&gt;2701(a)(3), Simple Assault - Attempts by Physical Menace&lt;br/&gt;"/><marker lat="40.445671882186723" lng="-79.971897872698563" zone="Zone 2" incidentdate="2016-01-29" incidenttime="22:10:00" incidentnumber="16017565" address="Centre Ave &amp; La Place St" type="OFFENSE" age="" gender="" description="*********************************************** &lt;br/&gt;13(a)(31), Marijuana: Possession Small Amount&lt;br/&gt;"/><marker lat="40.395727096372184" lng="-79.984383077905122" zone="Zone 3" incidentdate="2016-01-29" incidenttime="01:16:00" incidentnumber="16017013" address="200 block E Agnew Ave" type="OFFENSE" age="" gender="" description="*********************************************** &lt;br/&gt;3745, Accidents Involving Damage to Unattended Veh.or Prop.&lt;br/&gt;"/><marker lat="40.442157005864999" lng="-79.994958416960131" zone="Zone 2" incidentdate="2016-01-29" incidenttime="06:16:00" incidentnumber="16017116" address="7th Ave &amp; Grant St" type="OFFENSE" age="" gender="" description="*********************************************** &lt;br/&gt;3745, Accidents Involving Damage to Unattended Veh.or Prop.&lt;br/&gt;"/><marker lat="40.466877756870879" lng="-79.994177935104844" zone="Zone 1" incidentdate="2016-01-29" incidenttime="08:34:00" incidentnumber="16017187" address="100 block Rhine Pl" type="OFFENSE" age="" gender="" description="*********************************************** &lt;br/&gt;9498, 302 (Mental)&lt;br/&gt;"/><marker lat="40.441919441965581" lng="-79.982892744621594" zone="Zone 2" incidentdate="2016-01-29" incidenttime="11:40:00" incidentnumber="16017268" address="1800 block Centre Ave" type="OFFENSE" age="" gender="" description="*********************************************** &lt;br/&gt;3929, Retail Theft.&lt;br/&gt;"/><marker lat="40.405277526039974" lng="-80.018757030287389" zone="Zone 6" incidentdate="2016-01-29" incidenttime="22:30:00" incidentnumber="16017670" address="100 block Capital Ave" type="OFFENSE" age="" gender="" description="*********************************************** &lt;br/&gt;2709(a), Harassment.&lt;br/&gt;"/><marker lat="40.462781718443601" lng="-80.02984361791755" zone="Zone 1" incidentdate="2016-01-29" incidenttime="14:30:00" incidentnumber="16017326" address="2300 block Mannheim St" type="OFFENSE" age="" gender="" description="*********************************************** &lt;br/&gt;2709(a)(1), Harassment by Physical Contact, or Attempts or Threats&lt;br/&gt;"/><marker lat="40.453881093138619" lng="-79.873029877694393" zone="Zone 5" incidentdate="2016-01-29" incidenttime="01:30:00" incidentnumber="16017039" address="2200 block East Hills Dr" type="OFFENSE" age="" gender="" description="*********************************************** &lt;br/&gt;3502, Burglary.&lt;br/&gt;"/><marker lat="40.463196027025582" lng="-79.993007992620988" zone="Zone 1" incidentdate="2016-01-29" incidenttime="08:00:00" incidentnumber="16017155" address="1200 block Yetta Ave" type="OFFENSE" age="" gender="" description="*********************************************** &lt;br/&gt;9496, Dead on Arrival (DOA)&lt;br/&gt;"/><marker lat="40.462739334785198" lng="-80.007115763202265" zone="Zone 1" incidentdate="2016-01-29" incidenttime="08:14:00" incidentnumber="16017153" address="1900 block Mountford Ave" type="OFFENSE" age="" gender="" description="*********************************************** &lt;br/&gt;9496, Dead on Arrival (DOA)&lt;br/&gt;"/><marker lat="40.451517737096538" lng="-80.018897190699079" zone="Zone 1" incidentdate="2016-01-29" incidenttime="01:57:00" incidentnumber="16017038" address="Allegheny Ave &amp; Western Ave" type="OFFENSE" age="" gender="" description="*********************************************** &lt;br/&gt;3802(a)(1), DUI - General Impairment&lt;br/&gt;3301, Arson&lt;br/&gt;3802(b), DUI - High Rate of Alchol - BAC &gt;=.10% &lt;.16%&lt;br/&gt;"/><marker lat="40.390554852074288" lng="-80.022112220573177" zone="Zone 6" incidentdate="2016-01-29" incidenttime="17:35:00" incidentnumber="16017423" address="900 block Fordham St" type="OFFENSE" age="" gender="" description="*********************************************** &lt;br/&gt;3701, Robbery.&lt;br/&gt;903, Criminal Conspiracy.&lt;br/&gt;"/><marker lat="40.402714750647654" lng="-79.994018520375135" zone="Zone 3" incidentdate="2016-01-29" incidenttime="15:00:00" incidentnumber="16017384" address="200 block Nobles Ln" type="OFFENSE" age="" gender="" description="*********************************************** &lt;br/&gt;3921, Theft by Unlawful Taking or Disposition.&lt;br/&gt;"/><marker lat="40.395254412636945" lng="-80.011289737138497" zone="Zone 6" incidentdate="2016-01-29" incidenttime="13:15:00" incidentnumber="16017300" address="1200 block Gallupe Dr" type="OFFENSE" age="" gender="" description="*********************************************** &lt;br/&gt;4101, Forgery.&lt;br/&gt;4120, Identity Theft&lt;br/&gt;4105(a)(1), Bad Checks&lt;br/&gt;"/><marker lat="40.455801329162078" lng="-80.008606642756916" zone="Zone 1" incidentdate="2016-01-29" incidenttime="00:23:00" incidentnumber="16016978" address="1200 block Arch St" type="OFFENSE" age="" gender="" description="*********************************************** &lt;br/&gt;9488, False  Burglar Alarm&lt;br/&gt;"/><marker lat="40.408448848248945" lng="-80.017779803340147" zone="Zone 6" incidentdate="2016-01-29" incidenttime="00:44:00" incidentnumber="16016992" address="West Liberty Ave &amp; Cape May Ave" type="OFFENSE" age="" gender="" description="*********************************************** &lt;br/&gt;13(a)(16), Possession of Controlled Substance&lt;br/&gt;13(a)(30), Possession w/ Intent to Del. Controlled Substance&lt;br/&gt;13(a)(32), Paraphernalia - Use or Possession&lt;br/&gt;2705, Recklessly Endangering Another Person.&lt;br/&gt;3736, Reckless Driving&lt;br/&gt;1501, Drivers Required to be Licensed.&lt;br/&gt;1543, Driving While Operating Privilege is Suspended or Revoked.&lt;br/&gt;"/><marker lat="40.44466201857626" lng="-80.042150479542755" zone="Zone 6" incidentdate="2016-01-29" incidenttime="18:00:00" incidentnumber="16017429" address="1100 block Fredonia St" type="OFFENSE" age="" gender="" description="*********************************************** &lt;br/&gt;9999, 9999 - (Misc. Incident):&lt;br/&gt;"/><marker lat="40.428684832699354" lng="-79.983306706238423" zone="Zone 3" incidentdate="2016-01-29" incidenttime="01:27:00" incidentnumber="16017019" address="1500 block E Carson St" type="OFFENSE" age="" gender="" description="*********************************************** &lt;br/&gt;5507, Obstructing Highways and Passages.&lt;br/&gt;"/><marker lat="40.41585770010623" lng="-79.988118814925556" zone="Zone 3" incidentdate="2016-01-29" incidenttime="14:14:00" incidentnumber="16017320" address="100 block Zara St" type="OFFENSE" age="" gender="" description="*********************************************** &lt;br/&gt;2701, Simple Assault.&lt;br/&gt;"/><marker lat="40.46740800637123" lng="-80.01047380717246" zone="Zone 1" incidentdate="2016-01-29" incidenttime="12:34:00" incidentnumber="16017272" address="100 block Maywood St" type="OFFENSE" age="" gender="" description="*********************************************** &lt;br/&gt;2709, Harassment (Non-Specific)&lt;br/&gt;"/><marker lat="40.4530675" lng="-80.0030668" zone="Zone 1" incidentdate="2016-01-29" incidenttime="23:34:00" incidentnumber="16017617" address="200 block East Ohio St" type="OFFENSE" age="" gender="" description="*********************************************** &lt;br/&gt;9488, False  Burglar Alarm&lt;br/&gt;"/><marker lat="40.41676407047246" lng="-80.023442389534011" zone="Zone 6" incidentdate="2016-01-29" incidenttime="08:28:00" incidentnumber="16017124" address="1200 block Dagmar Ave" type="OFFENSE" age="" gender="" description="*********************************************** &lt;br/&gt;13(a)(16), Possession of Controlled Substance&lt;br/&gt;13(a)(30), Possession w/ Intent to Del. Controlled Substance&lt;br/&gt;13(a)(32), Paraphernalia - Use or Possession&lt;br/&gt;6111, Sale of Firearms.&lt;br/&gt;"/><marker lat="40.428815176198341" lng="-79.983424931589681" zone="Zone 3" incidentdate="2016-01-29" incidenttime="01:40:00" incidentnumber="16017026" address="E Carson St &amp; S 15th St" type="OFFENSE" age="" gender="" description="*********************************************** &lt;br/&gt;5503, Disorderly Conduct.&lt;br/&gt;"/><marker lat="40.462740043669676" lng="-79.905733593421971" zone="Zone 2" incidentdate="2016-01-29" incidenttime="21:35:00" incidentnumber="16017566" address="100 block Washington Pl" type="OFFENSE" age="" gender="" description="*********************************************** &lt;br/&gt;13(a)(16), Possession of Controlled Substance&lt;br/&gt;13(a)(30)*, Delivery of Controlled Substance&lt;br/&gt;"/><marker lat="40.454362870685351" lng="-79.976674513625483" zone="Zone 6" incidentdate="2016-01-29" incidenttime="23:15:00" incidentnumber="16017610" address="2600 block West Liberty Ave" type="OFFENSE" age="" gender="" description="*********************************************** &lt;br/&gt;3304, Criminal Mischief.&lt;br/&gt;"/><marker lat="40.450892721440539" lng="-80.000843891836467" zone="Zone 1" incidentdate="2016-01-29" incidenttime="18:50:00" incidentnumber="16017504" address="300 block Cedar Ave" type="OFFENSE" age="" gender="" description="*********************************************** &lt;br/&gt;3745, Accidents Involving Damage to Unattended Veh.or Prop.&lt;br/&gt;"/><marker lat="40.450643107602708" lng="-80.013459947155624" zone="Zone 1" incidentdate="2016-01-29" incidenttime="10:30:00" incidentnumber="16017283" address="800 block Ridge Ave" type="OFFENSE" age="" gender="" description="*********************************************** &lt;br/&gt;3924, Theft of Property Lost, Mislaid or Delivered by Mistake.&lt;br/&gt;"/><marker lat="40.457396684455787" lng="-79.896297857079958" zone="Zone 5" incidentdate="2016-01-29" incidenttime="18:28:00" incidentnumber="16017456" address="N Homewood Ave &amp; Frankstown Ave" type="OFFENSE" age="" gender="" description="*********************************************** &lt;br/&gt;601.16, Public Urination And Defecation&lt;br/&gt;"/><marker lat="40.439970659938439" lng="-79.99417768159681" zone="Zone 2" incidentdate="2016-01-29" incidenttime="08:55:00" incidentnumber="16017177" address="Centre Ave &amp; 6th Ave" type="OFFENSE" age="" gender="" description="*********************************************** &lt;br/&gt;3745, Accidents Involving Damage to Unattended Veh.or Prop.&lt;br/&gt;"/><marker lat="40.4196090" lng="-79.9271419" zone="Zone 4" incidentdate="2016-01-29" incidenttime="17:30:00" incidentnumber="16017412" address="4400 block Browns Hill Rd" type="OFFENSE" age="" gender="" description="*********************************************** &lt;br/&gt;9999, 9999 - (Misc. Incident):&lt;br/&gt;"/><marker lat="40.417520463417553" lng="-79.925863654314981" zone="Zone 4" incidentdate="2016-01-29" incidenttime="15:00:00" incidentnumber="16017357" address="4500 block Browns Hill Rd" type="OFFENSE" age="" gender="" description="*********************************************** &lt;br/&gt;2709(a)(1), Harassment by Physical Contact, or Attempts or Threats&lt;br/&gt;"/><marker lat="40.388134640362068" lng="-79.988539454675163" zone="Zone 3" incidentdate="2016-01-29" incidenttime="16:00:00" incidentnumber="16017453" address="300 block Overbrook Blvd" type="OFFENSE" age="" gender="" description="*********************************************** &lt;br/&gt;2709, Harassment (Non-Specific)&lt;br/&gt;"/><marker lat="40.454307782768687" lng="-79.946518733076431" zone="Zone 5" incidentdate="2016-01-29" incidenttime="15:47:00" incidentnumber="16017370" address="4900 block Baum Blvd" type="OFFENSE" age="" gender="" description="*********************************************** &lt;br/&gt;3934, Theft from Vehicle&lt;br/&gt;"/><marker lat="40.462740043669676" lng="-79.905733593421971" zone="Zone 2" incidentdate="2016-01-29" incidenttime="18:35:00" incidentnumber="16017471" address="100 block Washington Pl" type="OFFENSE" age="" gender="" description="*********************************************** &lt;br/&gt;13(a)(31), Marijuana: Possession Small Amount&lt;br/&gt;5902(a)(1), Prostitution&lt;br/&gt;903, Criminal Conspiracy.&lt;br/&gt;907, Possessing Instruments of Crime.&lt;br/&gt;5902(b)(1), Promoting Prostitution - Keeping Business or House&lt;br/&gt;5902(b)(6), Transporting for the purpose of engaging in prostitution&lt;br/&gt;"/><marker lat="40.478846468228319" lng="-80.043103207786132" zone="Zone 1" incidentdate="2016-01-29" incidenttime="23:51:00" incidentnumber="16017619" address="Ohio River Blvd &amp; Mckees Rocks Brg" type="OFFENSE" age="" gender="" description="*********************************************** &lt;br/&gt;9497, Aided Case&lt;br/&gt;"/><marker lat="40.466877756870879" lng="-79.994177935104844" zone="Zone 1" incidentdate="2016-01-29" incidenttime="04:31:00" incidentnumber="16017095" address="100 block Rhine Pl" type="OFFENSE" age="" gender="" description="*********************************************** &lt;br/&gt;9999, 9999 - (Misc. Incident):&lt;br/&gt;"/><marker lat="40.456613245058954" lng="-79.997562076207217" zone="Zone 1" incidentdate="2016-01-29" incidenttime="13:30:00" incidentnumber="16017312" address="1000 block Madison Ave" type="OFFENSE" age="" gender="" description="*********************************************** &lt;br/&gt;9999, 9999 - (Misc. Incident):&lt;br/&gt;"/><marker lat="40.468991984333265" lng="-79.926132855831725" zone="Zone 5" incidentdate="2016-01-29" incidenttime="08:10:00" incidentnumber="16017179" address="600 block Mellon St" type="OFFENSE" age="" gender="" description="*********************************************** &lt;br/&gt;9501, Bench Warrant&lt;br/&gt;"/><marker lat="40.458521090086435" lng="-80.015890258192599" zone="Zone 1" incidentdate="2016-01-29" incidenttime="18:37:00" incidentnumber="16017462" address="1700 block Brighton Pl" type="OFFENSE" age="" gender="" description="*********************************************** &lt;br/&gt;3304, Criminal Mischief.&lt;br/&gt;"/><marker lat="40.40813984991577" lng="-79.941830420089332" zone="Zone 4" incidentdate="2016-01-29" incidenttime="18:48:00" incidentnumber="16017444" address="Gertrude St &amp; Tipton St" type="OFFENSE" age="" gender="" description="*********************************************** &lt;br/&gt;3808(a)1, Ignition Interlock Required&lt;br/&gt;3332, Limitations on Turning Around.&lt;br/&gt;"/><marker lat="40.401274152011062" lng="-79.998029200201742" zone="Zone 3" incidentdate="2016-01-29" incidenttime="13:30:00" incidentnumber="16017304" address="Nobles Ln" type="OFFENSE" age="" gender="" description="*********************************************** &lt;br/&gt;13(a)(16), Possession of Controlled Substance&lt;br/&gt;"/><marker lat="40.454818909988404" lng="-79.991587194918026" zone="Zone 1" incidentdate="2016-01-29" incidenttime="23:23:00" incidentnumber="16017601" address="500 block Heinz St" type="OFFENSE" age="" gender="" description="*********************************************** &lt;br/&gt;9999, 9999 - (Misc. Incident):&lt;br/&gt;"/><marker lat="40.487823540011732" lng="-79.897614208935366" zone="Zone 5" incidentdate="2016-01-29" incidenttime="19:27:00" incidentnumber="16017485" address="800 block Freeport Rd" type="OFFENSE" age="" gender="" description="*********************************************** &lt;br/&gt;3929, Retail Theft.&lt;br/&gt;"/><marker lat="40.455538462756572" lng="-79.867935534849607" zone="Zone 5" incidentdate="2016-01-29" incidenttime="14:00:00" incidentnumber="15243310" address="2400 block Bracey Dr" type="OFFENSE" age="" gender="" description="*********************************************** &lt;br/&gt;3502, Burglary.&lt;br/&gt;4906, False Reports to Law Enforcement Authorities.&lt;br/&gt;"/><marker lat="40.463817891191532" lng="-79.932359921762369" zone="Zone 5" incidentdate="2016-01-29" incidenttime="18:16:00" incidentnumber="16017460" address="5500 block Penn Ave" type="OFFENSE" age="" gender="" description="*********************************************** &lt;br/&gt;3921, Theft by Unlawful Taking or Disposition.&lt;br/&gt;"/><marker lat="40.471012276973703" lng="-80.016772844247583" zone="Zone 1" incidentdate="2016-01-29" incidenttime="09:00:00" incidentnumber="16017267" address="500 block Marshall Ave" type="OFFENSE" age="" gender="" description="*********************************************** &lt;br/&gt;9498, 302 (Mental)&lt;br/&gt;"/><marker lat="40.429262338248115" lng="-79.981958569379998" zone="Zone 3" incidentdate="2016-01-29" incidenttime="00:52:00" incidentnumber="16017001" address="1700 block Wrights Way" type="OFFENSE" age="" gender="" description="*********************************************** &lt;br/&gt;13(a)(31), Marijuana: Possession Small Amount&lt;br/&gt;"/><marker lat="40.423701811107328" lng="-79.997552630724996" zone="Zone 3" incidentdate="2016-01-29" incidenttime="01:00:00" incidentnumber="16017004" address="Beltzhoover Ave" type="OFFENSE" age="" gender="" description="*********************************************** &lt;br/&gt;9999, 9999 - (Misc. Incident):&lt;br/&gt;"/><marker lat="40.424909761781095" lng="-79.979733194998332" zone="Zone 3" incidentdate="2016-01-29" incidenttime="15:43:00" incidentnumber="16017341" address="S 18th St &amp; Josephine St" type="OFFENSE" age="" gender="" description="*********************************************** &lt;br/&gt;1501, Drivers Required to be Licensed.&lt;br/&gt;6105(c)(9), Persons Not To Possess Use Manuf, Control Firearm&lt;br/&gt;3111, Obedience to Traffic-Control Devices.&lt;br/&gt;6105(a)(1), Persons not to possess, use, manufacture, control, sell or transfer firearms: Former convict enumerated in subsection (b)&lt;br/&gt;"/><marker lat="40.413946624704742" lng="-79.992074622857984" zone="Zone 3" incidentdate="2016-01-29" incidenttime="16:30:00" incidentnumber="16017418" address="100 block Romeyn St" type="OFFENSE" age="" gender="" description="*********************************************** &lt;br/&gt;3503.B1I, DEF. TRESPASS ACTUAL COMMUNICATION&lt;br/&gt;"/><marker lat="40.456117190609362" lng="-79.930712739567937" zone="Zone 4" incidentdate="2016-01-29" incidenttime="16:45:00" incidentnumber="16017407" address="600 block Maryland Ave" type="OFFENSE" age="" gender="" description="*********************************************** &lt;br/&gt;3921(a), Theft by Unlawful Taking or Disposition - Movable item&lt;br/&gt;"/><marker lat="40.452042212663898" lng="-80.008738896002342" zone="Zone 1" incidentdate="2016-01-29" incidenttime="21:50:00" incidentnumber="16017573" address="200 block Ridge Ave" type="OFFENSE" age="" gender="" description="*********************************************** &lt;br/&gt;029, Missing Juvenile&lt;br/&gt;"/><marker lat="40.485914224367214" lng="-79.926417473797059" zone="Zone 5" incidentdate="2016-01-29" incidenttime="15:00:00" incidentnumber="16017354" address="1800 block Jancey St" type="OFFENSE" age="" gender="" description="*********************************************** &lt;br/&gt;3502, Burglary.&lt;br/&gt;"/><marker lat="40.462740043669676" lng="-79.905733593421971" zone="Zone 2" incidentdate="2016-01-29" incidenttime="19:07:00" incidentnumber="16017514" address="100 block Washington Pl" type="OFFENSE" age="" gender="" description="*********************************************** &lt;br/&gt;5902(e), Patronizing a Prostitute&lt;br/&gt;902, Criminal Solicitation.&lt;br/&gt;"/><marker lat="40.405258702294084" lng="-79.97200316594666" zone="Zone 3" incidentdate="2016-01-29" incidenttime="06:51:00" incidentnumber="16017122" address="500 block Becks Run Rd" type="OFFENSE" age="" gender="" description="*********************************************** &lt;br/&gt;9999, 9999 - (Misc. Incident):&lt;br/&gt;"/><marker lat="40.476980021029973" lng="-80.038157174592882" zone="Zone 1" incidentdate="2016-01-29" incidenttime="06:00:00" incidentnumber="16017112" address="3400 block Fleming Ave" type="OFFENSE" age="" gender="" description="*********************************************** &lt;br/&gt;3921, Theft by Unlawful Taking or Disposition.&lt;br/&gt;"/><marker lat="40.438234205527927" lng="-79.977664280434027" zone="Zone 2" incidentdate="2016-01-29" incidenttime="18:20:00" incidentnumber="16017440" address="5th Ave &amp; Jumonville St" type="OFFENSE" age="" gender="" description="*********************************************** &lt;br/&gt;13(a)(32), Paraphernalia - Use or Possession&lt;br/&gt;5902(a)(1), Prostitution&lt;br/&gt;"/><marker lat="40.445723184301478" lng="-79.981786949615085" zone="Zone 2" incidentdate="2016-01-29" incidenttime="23:00:00" incidentnumber="16017599" address="200 block Devilliers St" type="OFFENSE" age="" gender="" description="*********************************************** &lt;br/&gt;2701(a)(1), Simple Assault - Intent., Know., Reckless.Cause Bod. Injury&lt;br/&gt;"/><marker lat="40.462740043669676" lng="-79.905733593421971" zone="Zone 2" incidentdate="2016-01-29" incidenttime="19:40:00" incidentnumber="16017516" address="100 block Washington Pl" type="OFFENSE" age="" gender="" description="*********************************************** &lt;br/&gt;5902(e), Patronizing a Prostitute&lt;br/&gt;902, Criminal Solicitation.&lt;br/&gt;"/><marker lat="40.450901096519573" lng="-79.930622154707279" zone="Zone 5" incidentdate="2016-01-29" incidenttime="23:00:00" incidentnumber="16017607" address="900 block N Negley Ave" type="OFFENSE" age="" gender="" description="*********************************************** &lt;br/&gt;029, Missing Juvenile&lt;br/&gt;"/><marker lat="40.465572965846853" lng="-79.954878738691846" zone="Zone 5" incidentdate="2016-01-29" incidenttime="00:07:00" incidentnumber="16016965" address="4100 block Penn Ave" type="OFFENSE" age="" gender="" description="*********************************************** &lt;br/&gt;5104, Resisting Arrest or Other Law Enforcement.&lt;br/&gt;2702, Aggravated Assault.&lt;br/&gt;5505, Public Drunkenness&lt;br/&gt;"/><marker lat="40.429737927441074" lng="-79.923485321015463" zone="Zone 4" incidentdate="2016-01-29" incidenttime="07:35:00" incidentnumber="16017136" address="Pocussett St &amp; Murray Ave" type="OFFENSE" age="" gender="" description="*********************************************** &lt;br/&gt;3743, Accidents Involving Damage to Attended Veh. or Property&lt;br/&gt;"/><marker lat="40.4539864" lng="-80.0524093" zone="Zone 6" incidentdate="2016-01-29" incidenttime="20:52:00" incidentnumber="16017535" address="600 block Hillsboro St" type="OFFENSE" age="" gender="" description="*********************************************** &lt;br/&gt;029, Missing Juvenile&lt;br/&gt;"/><marker lat="40.463684521405213" lng="-80.05606954409491" zone="Zone 6" incidentdate="2016-01-29" incidenttime="02:38:00" incidentnumber="16017071" address="300 block Stanhope St" type="OFFENSE" age="" gender="" description="*********************************************** &lt;br/&gt;3701, Robbery.&lt;br/&gt;"/><marker lat="40.471012276973703" lng="-80.016772844247583" zone="Zone 1" incidentdate="2016-01-29" incidenttime="09:45:00" incidentnumber="16017130" address="500 block Marshall Ave" type="OFFENSE" age="" gender="" description="*********************************************** &lt;br/&gt;9999, 9999 - (Misc. Incident):&lt;br/&gt;"/><marker lat="40.463677674382161" lng="-79.961238599887437" zone="Zone 2" incidentdate="2016-01-29" incidenttime="10:00:00" incidentnumber="16017224" address="Mintwood St &amp; 38th St" type="OFFENSE" age="" gender="" description="*********************************************** &lt;br/&gt;3745, Accidents Involving Damage to Unattended Veh.or Prop.&lt;br/&gt;"/><marker lat="40.46865286552827" lng="-80.027265999166346" zone="Zone 1" incidentdate="2016-01-29" incidenttime="10:46:00" incidentnumber="16017227" address="1200 block Superior Ave" type="OFFENSE" age="" gender="" description="*********************************************** &lt;br/&gt;9496, Dead on Arrival (DOA)&lt;br/&gt;"/><marker lat="40.3644357" lng="-79.9081111" zone="Zone 4" incidentdate="2016-01-29" incidenttime="11:55:00" incidentnumber="16017256" address="5900 block Buttermilk Hollow Rd" type="OFFENSE" age="" gender="" description="*********************************************** &lt;br/&gt;3934, Theft from Vehicle&lt;br/&gt;"/><marker lat="40.4385389" lng="-79.9756674" zone="Zone 4" incidentdate="2016-01-29" incidenttime="15:45:00" incidentnumber="16017356" address="5th Ave &amp; De Ruad St" type="OFFENSE" age="" gender="" description="*********************************************** &lt;br/&gt;13(a)(32), Paraphernalia - Use or Possession&lt;br/&gt;"/><marker lat="40.462740043669676" lng="-79.905733593421971" zone="Zone 2" incidentdate="2016-01-29" incidenttime="21:20:00" incidentnumber="16017605" address="100 block Washington Pl" type="OFFENSE" age="" gender="" description="*********************************************** &lt;br/&gt;5902(e), Patronizing a Prostitute&lt;br/&gt;902, Criminal Solicitation.&lt;br/&gt;"/><marker lat="40.443610698976059" lng="-79.998043561602501" zone="Zone 2" incidentdate="2016-01-29" incidenttime="10:00:00" incidentnumber="16017331" address="900 block Penn Ave" type="OFFENSE" age="" gender="" description="*********************************************** &lt;br/&gt;3502, Burglary.&lt;br/&gt;"/><marker lat="40.455876321777623" lng="-79.938275604820149" zone="Zone 4" incidentdate="2016-01-29" incidenttime="01:15:00" incidentnumber="16017012" address="5400 block Centre Ave" type="OFFENSE" age="" gender="" description="*********************************************** &lt;br/&gt;3921, Theft by Unlawful Taking or Disposition.&lt;br/&gt;"/><marker lat="40.462740043669676" lng="-79.905733593421971" zone="Zone 2" incidentdate="2016-01-29" incidenttime="18:45:00" incidentnumber="16017515" address="100 block Washington Pl" type="OFFENSE" age="" gender="" description="*********************************************** &lt;br/&gt;5902(e), Patronizing a Prostitute&lt;br/&gt;902, Criminal Solicitation.&lt;br/&gt;"/><marker lat="40.455905510025012" lng="-80.02686436122454" zone="Zone 1" incidentdate="2016-01-29" incidenttime="00:34:00" incidentnumber="16016981" address="1600 block Manhattan St" type="OFFENSE" age="" gender="" description="*********************************************** &lt;br/&gt;9488, False  Burglar Alarm&lt;br/&gt;"/><marker lat="40.462740043669676" lng="-79.905733593421971" zone="Zone 2" incidentdate="2016-01-29" incidenttime="18:35:00" incidentnumber="16017471" address="100 block Washington Pl" type="ARREST" age="19" gender="F" description="*********************************************** &lt;br/&gt;13(a)(31), Marijuana: Possession Small Amount&lt;br/&gt;5902(a)(1), Prostitution&lt;br/&gt;903, Criminal Conspiracy.&lt;br/&gt;907, Possessing Instruments of Crime.&lt;br/&gt;5902(b)(1), Promoting Prostitution - Keeping Business or House&lt;br/&gt;5902(b)(6), Transporting for the purpose of engaging in prostitution&lt;br/&gt;"/><marker lat="40.462740043669676" lng="-79.905733593421971" zone="Zone 2" incidentdate="2016-01-29" incidenttime="18:35:00" incidentnumber="16017471" address="100 block Washington Pl" type="ARREST" age="22" gender="M" description="*********************************************** &lt;br/&gt;13(a)(31), Marijuana: Possession Small Amount&lt;br/&gt;5902(a)(1), Prostitution&lt;br/&gt;903, Criminal Conspiracy.&lt;br/&gt;907, Possessing Instruments of Crime.&lt;br/&gt;5902(b)(1), Promoting Prostitution - Keeping Business or House&lt;br/&gt;5902(b)(6), Transporting for the purpose of engaging in prostitution&lt;br/&gt;"/><marker lat="40.461596061792775" lng="-79.948944883623511" zone="Zone 5" incidentdate="2016-01-29" incidenttime="02:20:00" incidentnumber="16015088" address="Liberty Ave &amp; Cedarville St" type="ARREST" age="54" gender="F" description="*********************************************** &lt;br/&gt;3742.1, Accident Involv. Death/Inj. While not Licensed&lt;br/&gt;"/><marker lat="40.434696587775576" lng="-79.996300985228572" zone="Zone 2" incidentdate="2016-01-29" incidenttime="20:00:00" incidentnumber="16008396" address="600 block 1st Ave" type="ARREST" age="22" gender="F" description="*********************************************** &lt;br/&gt;3503.B1I, DEF. TRESPASS ACTUAL COMMUNICATION&lt;br/&gt;2706, Terroristic Threats.&lt;br/&gt;"/><marker lat="40.399184649147095" lng="-80.025493435297477" zone="Zone 6" incidentdate="2016-01-29" incidenttime="01:17:00" incidentnumber="16017002" address="2500 block West Liberty Ave" type="ARREST" age="26" gender="F" description="*********************************************** &lt;br/&gt;3802(a)(1), DUI - General Impairment&lt;br/&gt;3802(b), DUI - High Rate of Alchol - BAC &gt;=.10% &lt;.16%&lt;br/&gt;"/><marker lat="40.451517737096538" lng="-80.018897190699079" zone="Zone 1" incidentdate="2016-01-29" incidenttime="01:59:00" incidentnumber="16017038" address="Allegheny Ave &amp; Western Ave" type="ARREST" age="24" gender="F" description="*********************************************** &lt;br/&gt;3802(a)(1), DUI - General Impairment&lt;br/&gt;3301, Arson&lt;br/&gt;3802(b), DUI - High Rate of Alchol - BAC &gt;=.10% &lt;.16%&lt;br/&gt;"/><marker lat="40.487823540011732" lng="-79.897614208935366" zone="Zone 5" incidentdate="2016-01-29" incidenttime="19:35:00" incidentnumber="16017485" address="800 block Freeport Rd" type="ARREST" age="38" gender="M" description="*********************************************** &lt;br/&gt;3929, Retail Theft.&lt;br/&gt;"/><marker lat="40.388165539002834" lng="-79.988305338049216" zone="Zone 3" incidentdate="2016-01-29" incidenttime="14:05:00" incidentnumber="16017306" address="2300 block Almont St" type="ARREST" age="37" gender="M" description="*********************************************** &lt;br/&gt;13(a)(16), Possession of Controlled Substance&lt;br/&gt;13(a)(32), Paraphernalia - Use or Possession&lt;br/&gt;9501, Bench Warrant&lt;br/&gt;901, Criminal Attempt&lt;br/&gt;"/><marker lat="40.4460829" lng="-80.0104173" zone="Zone 1" incidentdate="2016-01-29" incidenttime="13:20:00" incidentnumber="15122500" address="300 block North Shore Dr" type="ARREST" age="" gender="M" description="*********************************************** &lt;br/&gt;3921, Theft by Unlawful Taking or Disposition.&lt;br/&gt;3925, Receiving Stolen Property.&lt;br/&gt;4101, Forgery.&lt;br/&gt;"/><marker lat="40.428585203983602" lng="-79.981869007680203" zone="Zone 3" incidentdate="2016-01-29" incidenttime="23:51:00" incidentnumber="16017623" address="1700 block E Carson St" type="ARREST" age="34" gender="F" description="*********************************************** &lt;br/&gt;2701, Simple Assault.&lt;br/&gt;5505, Public Drunkenness&lt;br/&gt;"/><marker lat="40.41585770010623" lng="-79.988118814925556" zone="Zone 3" incidentdate="2016-01-29" incidenttime="14:25:00" incidentnumber="16017320" address="100 block Zara St" type="ARREST" age="55" gender="M" description="*********************************************** &lt;br/&gt;2701, Simple Assault.&lt;br/&gt;"/><marker lat="40.465572965846853" lng="-79.954878738691846" zone="Zone 5" incidentdate="2016-01-29" incidenttime="00:04:00" incidentnumber="16016965" address="4100 block Penn Ave" type="ARREST" age="35" gender="F" description="*********************************************** &lt;br/&gt;5104, Resisting Arrest or Other Law Enforcement.&lt;br/&gt;2702, Aggravated Assault.&lt;br/&gt;5505, Public Drunkenness&lt;br/&gt;"/><marker lat="40.455538462756572" lng="-79.867935534849607" zone="Zone 5" incidentdate="2016-01-29" incidenttime="14:00:00" incidentnumber="15243310" address="2400 block Bracey Dr" type="ARREST" age="49" gender="F" description="*********************************************** &lt;br/&gt;3502, Burglary.&lt;br/&gt;4906, False Reports to Law Enforcement Authorities.&lt;br/&gt;"/><marker lat="40.462740043669676" lng="-79.905733593421971" zone="Zone 2" incidentdate="2016-01-29" incidenttime="16:52:00" incidentnumber="16017422" address="100 block Washington Pl" type="ARREST" age="26" gender="M" description="*********************************************** &lt;br/&gt;5902(e), Patronizing a Prostitute&lt;br/&gt;902, Criminal Solicitation.&lt;br/&gt;"/><marker lat="40.437811377822683" lng="-79.988355032042563" zone="Zone 2" incidentdate="2016-01-29" incidenttime="10:42:00" incidentnumber="16017223" address="Forbes Ave &amp; Magee St" type="ARREST" age="21" gender="M" description="*********************************************** &lt;br/&gt;13(a)(16), Possession of Controlled Substance&lt;br/&gt;13(a)(30), Possession w/ Intent to Del. Controlled Substance&lt;br/&gt;13(a)(30)*, Delivery of Controlled Substance&lt;br/&gt;13(a)(31), Marijuana: Possession Small Amount&lt;br/&gt;13(a)(32), Paraphernalia - Use or Possession&lt;br/&gt;9501, Bench Warrant&lt;br/&gt;"/><marker lat="40.409713610522878" lng="-80.021755853595877" zone="Zone 6" incidentdate="2016-01-29" incidenttime="09:25:00" incidentnumber="16014759" address="300 block Longmore Ave" type="ARREST" age="25" gender="M" description="*********************************************** &lt;br/&gt;3304, Criminal Mischief.&lt;br/&gt;2705, Recklessly Endangering Another Person.&lt;br/&gt;9093, Indirect Criminal Contempt&lt;br/&gt;901, Criminal Attempt&lt;br/&gt;2709(a), Harassment.&lt;br/&gt;2709(b), Stalking&lt;br/&gt;"/><marker lat="40.458673827506942" lng="-79.90804021795374" zone="Zone 5" incidentdate="2016-01-29" incidenttime="02:25:00" incidentnumber="16016270" address="Washington Blvd &amp; Frankstown Ave" type="ARREST" age="53" gender="M" description="*********************************************** &lt;br/&gt;1311, Registration Card to be Signed and Exhibited on Demand.&lt;br/&gt;1501, Drivers Required to be Licensed.&lt;br/&gt;3742.1, Accident Involv. Death/Inj. While not Licensed&lt;br/&gt;1785, Proof of Financial Responsibility Following Accident.&lt;br/&gt;"/><marker lat="40.410356742633624" lng="-79.990376092457225" zone="Zone 3" incidentdate="2016-01-29" incidenttime="15:20:00" incidentnumber="16000597" address="200 block Suncrest St" type="ARREST" age="24" gender="M" description="*********************************************** &lt;br/&gt;2709(a)(1), Harassment by Physical Contact, or Attempts or Threats&lt;br/&gt;2701(a)(3), Simple Assault - Attempts by Physical Menace&lt;br/&gt;"/><marker lat="40.462740043669676" lng="-79.905733593421971" zone="Zone 2" incidentdate="2016-01-29" incidenttime="21:20:00" incidentnumber="16017605" address="100 block Washington Pl" type="ARREST" age="39" gender="M" description="*********************************************** &lt;br/&gt;5902(e), Patronizing a Prostitute&lt;br/&gt;902, Criminal Solicitation.&lt;br/&gt;"/><marker lat="40.458313629612618" lng="-79.891012641854417" zone="Zone 5" incidentdate="2016-01-29" incidenttime="18:47:00" incidentnumber="15229545" address="7400 block Monticello St" type="ARREST" age="23" gender="F" description="*********************************************** &lt;br/&gt;2702, Aggravated Assault.&lt;br/&gt;"/><marker lat="40.437818600399822" lng="-79.963832573222589" zone="Zone 4" incidentdate="2016-01-29" incidenttime="10:15:00" incidentnumber="15225222" address="3300 block 5th Ave" type="ARREST" age="27" gender="M" description="*********************************************** &lt;br/&gt;3922, Theft by Deception.&lt;br/&gt;4101, Forgery.&lt;br/&gt;"/><marker lat="40.462740043669676" lng="-79.905733593421971" zone="Zone 2" incidentdate="2016-01-29" incidenttime="21:35:00" incidentnumber="16017566" address="100 block Washington Pl" type="ARREST" age="36" gender="M" description="*********************************************** &lt;br/&gt;13(a)(16), Possession of Controlled Substance&lt;br/&gt;13(a)(30)*, Delivery of Controlled Substance&lt;br/&gt;"/><marker lat="40.462740043669676" lng="-79.905733593421971" zone="Zone 2" incidentdate="2016-01-29" incidenttime="19:40:00" incidentnumber="16017516" address="100 block Washington Pl" type="ARREST" age="37" gender="M" description="*********************************************** &lt;br/&gt;5902(e), Patronizing a Prostitute&lt;br/&gt;902, Criminal Solicitation.&lt;br/&gt;"/><marker lat="40.437811377822683" lng="-79.988355032042563" zone="Zone 2" incidentdate="2016-01-29" incidenttime="10:42:00" incidentnumber="16017223" address="Forbes Ave &amp; Magee St" type="ARREST" age="28" gender="M" description="*********************************************** &lt;br/&gt;13(a)(16), Possession of Controlled Substance&lt;br/&gt;13(a)(30), Possession w/ Intent to Del. Controlled Substance&lt;br/&gt;13(a)(30)*, Delivery of Controlled Substance&lt;br/&gt;13(a)(31), Marijuana: Possession Small Amount&lt;br/&gt;13(a)(32), Paraphernalia - Use or Possession&lt;br/&gt;9501, Bench Warrant&lt;br/&gt;"/><marker lat="40.4385389" lng="-79.9756674" zone="Zone 4" incidentdate="2016-01-29" incidenttime="15:45:00" incidentnumber="16017356" address="5th Ave &amp; De Ruad St" type="ARREST" age="40" gender="M" description="*********************************************** &lt;br/&gt;13(a)(32), Paraphernalia - Use or Possession&lt;br/&gt;"/><marker lat="40.462740043669676" lng="-79.905733593421971" zone="Zone 2" incidentdate="2016-01-29" incidenttime="19:07:00" incidentnumber="16017514" address="100 block Washington Pl" type="ARREST" age="19" gender="M" description="*********************************************** &lt;br/&gt;5902(e), Patronizing a Prostitute&lt;br/&gt;902, Criminal Solicitation.&lt;br/&gt;"/><marker lat="40.427737273464565" lng="-79.979156885866971" zone="Zone 3" incidentdate="2016-01-29" incidenttime="01:30:00" incidentnumber="16012573" address="S 19th St" type="ARREST" age="19" gender="F" description="*********************************************** &lt;br/&gt;3921(a), Theft by Unlawful Taking or Disposition - Movable item&lt;br/&gt;1501, Drivers Required to be Licensed.&lt;br/&gt;3925, Receiving Stolen Property.&lt;br/&gt;903, Criminal Conspiracy.&lt;br/&gt;4106, Access Device Fraud&lt;br/&gt;"/><marker lat="40.443580942147605" lng="-79.979979097296493" zone="Zone 2" incidentdate="2016-01-29" incidenttime="10:42:00" incidentnumber="15131728" address="2000 block Centre Ave" type="ARREST" age="21" gender="M" description="*********************************************** &lt;br/&gt;9124, Drug Investigation&lt;br/&gt;13(a)(16), Possession of Controlled Substance&lt;br/&gt;13(a)(30), Possession w/ Intent to Del. Controlled Substance&lt;br/&gt;13(a)(30)*, Delivery of Controlled Substance&lt;br/&gt;903, Criminal Conspiracy.&lt;br/&gt;7512, Criminal Use of Communication&lt;br/&gt;"/><marker lat="40.438234205527927" lng="-79.977664280434027" zone="Zone 2" incidentdate="2016-01-29" incidenttime="18:05:00" incidentnumber="16017440" address="5th Ave &amp; Jumonville St" type="ARREST" age="30" gender="F" description="*********************************************** &lt;br/&gt;13(a)(32), Paraphernalia - Use or Possession&lt;br/&gt;5902(a)(1), Prostitution&lt;br/&gt;"/><marker lat="40.401274152011062" lng="-79.998029200201742" zone="Zone 3" incidentdate="2016-01-29" incidenttime="13:30:00" incidentnumber="16017304" address="Nobles Ln" type="ARREST" age="28" gender="F" description="*********************************************** &lt;br/&gt;13(a)(16), Possession of Controlled Substance&lt;br/&gt;"/><marker lat="40.462740043669676" lng="-79.905733593421971" zone="Zone 2" incidentdate="2016-01-29" incidenttime="18:35:00" incidentnumber="16017471" address="100 block Washington Pl" type="ARREST" age="27" gender="M" description="*********************************************** &lt;br/&gt;13(a)(31), Marijuana: Possession Small Amount&lt;br/&gt;5902(a)(1), Prostitution&lt;br/&gt;903, Criminal Conspiracy.&lt;br/&gt;907, Possessing Instruments of Crime.&lt;br/&gt;5902(b)(1), Promoting Prostitution - Keeping Business or House&lt;br/&gt;5902(b)(6), Transporting for the purpose of engaging in prostitution&lt;br/&gt;"/><marker lat="40.462740043669676" lng="-79.905733593421971" zone="Zone 2" incidentdate="2016-01-29" incidenttime="18:50:00" incidentnumber="16017515" address="100 block Washington Pl" type="ARREST" age="32" gender="M" description="*********************************************** &lt;br/&gt;5902(e), Patronizing a Prostitute&lt;br/&gt;902, Criminal Solicitation.&lt;br/&gt;"/><marker lat="40.424909761781095" lng="-79.979733194998332" zone="Zone 3" incidentdate="2016-01-29" incidenttime="15:20:00" incidentnumber="16017341" address="S 18th St &amp; Josephine St" type="ARREST" age="24" gender="M" description="*********************************************** &lt;br/&gt;1501, Drivers Required to be Licensed.&lt;br/&gt;6105(c)(9), Persons Not To Possess Use Manuf, Control Firearm&lt;br/&gt;3111, Obedience to Traffic-Control Devices.&lt;br/&gt;6105(a)(1), Persons not to possess, use, manufacture, control, sell or transfer firearms: Former convict enumerated in subsection (b)&lt;br/&gt;"/><marker lat="40.408448848248945" lng="-80.017779803340147" zone="Zone 6" incidentdate="2016-01-29" incidenttime="01:13:00" incidentnumber="16016992" address="West Liberty Ave &amp; Cape May Ave" type="ARREST" age="30" gender="M" description="*********************************************** &lt;br/&gt;13(a)(16), Possession of Controlled Substance&lt;br/&gt;13(a)(30), Possession w/ Intent to Del. Controlled Substance&lt;br/&gt;13(a)(32), Paraphernalia - Use or Possession&lt;br/&gt;2705, Recklessly Endangering Another Person.&lt;br/&gt;3736, Reckless Driving&lt;br/&gt;1501, Drivers Required to be Licensed.&lt;br/&gt;1543, Driving While Operating Privilege is Suspended or Revoked.&lt;br/&gt;"/><marker lat="40.468991984333265" lng="-79.926132855831725" zone="Zone 5" incidentdate="2016-01-29" incidenttime="08:10:00" incidentnumber="16017179" address="600 block Mellon St" type="ARREST" age="24" gender="M" description="*********************************************** &lt;br/&gt;9501, Bench Warrant&lt;br/&gt;"/><marker lat="40.450901096519573" lng="-79.930622154707279" zone="Zone 5" incidentdate="2016-01-29" incidenttime="03:02:00" incidentnumber="16013968" address="900 block N Negley Ave" type="ARREST" age="16" gender="F" description="*********************************************** &lt;br/&gt;2702, Aggravated Assault.&lt;br/&gt;"/><marker lat="40.429262338248115" lng="-79.981958569379998" zone="Zone 3" incidentdate="2016-01-29" incidenttime="00:52:00" incidentnumber="16017001" address="1700 block Wrights Way" type="ARREST" age="22" gender="M" description="*********************************************** &lt;br/&gt;13(a)(31), Marijuana: Possession Small Amount&lt;br/&gt;"/><marker lat="40.45003511141789" lng="-79.903694021372729" zone="Zone OSC" incidentdate="2016-01-29" incidenttime="06:07:00" incidentnumber="16017120" address="100 block Penn Ave" type="ARREST" age="52" gender="M" description="*********************************************** &lt;br/&gt;13(a)(16), Possession of Controlled Substance&lt;br/&gt;13(a)(30), Possession w/ Intent to Del. Controlled Substance&lt;br/&gt;13(a)(32), Paraphernalia - Use or Possession&lt;br/&gt;7512, Criminal Use of Communication&lt;br/&gt;"/><marker lat="40.445671882186723" lng="-79.971897872698563" zone="Zone 2" incidentdate="2016-01-29" incidenttime="22:04:00" incidentnumber="16017565" address="Centre Ave &amp; La Place St" type="ARREST" age="23" gender="M" description="*********************************************** &lt;br/&gt;13(a)(31), Marijuana: Possession Small Amount&lt;br/&gt;"/><marker lat="40.388036529985499" lng="-80.005805382712907" zone="Zone 3" incidentdate="2016-01-29" incidenttime="09:25:00" incidentnumber="15110832" address="2100 block Parklyn St" type="ARREST" age="24" gender="M" description="*********************************************** &lt;br/&gt;2705, Recklessly Endangering Another Person.&lt;br/&gt;2702, Aggravated Assault.&lt;br/&gt;3736, Reckless Driving&lt;br/&gt;3701, Robbery.&lt;br/&gt;3304(a)(5), CRIMINAL MISCHIEF - Intentionally Damages Real Or Personal Property Of Another&lt;br/&gt;901, Criminal Attempt&lt;br/&gt;2706, Terroristic Threats.&lt;br/&gt;"/><marker lat="40.40813984991577" lng="-79.941830420089332" zone="Zone 4" incidentdate="2016-01-29" incidenttime="19:00:00" incidentnumber="16017444" address="Gertrude St &amp; Tipton St" type="ARREST" age="28" gender="M" description="*********************************************** &lt;br/&gt;3808(a)1, Ignition Interlock Required&lt;br/&gt;3332, Limitations on Turning Around.&lt;br/&gt;"/><marker lat="40.41676407047246" lng="-80.023442389534011" zone="Zone 6" incidentdate="2016-01-29" incidenttime="07:06:00" incidentnumber="16017124" address="1200 block Dagmar Ave" type="ARREST" age="27" gender="M" description="*********************************************** &lt;br/&gt;13(a)(16), Possession of Controlled Substance&lt;br/&gt;13(a)(30), Possession w/ Intent to Del. Controlled Substance&lt;br/&gt;13(a)(32), Paraphernalia - Use or Possession&lt;br/&gt;6111, Sale of Firearms.&lt;br/&gt;"/></markers>
