<?xml version="1.0"?>
<markers><marker lat="40.456058278524658" lng="-79.904723021825518" zone="Zone 5" incidentdate="2015-10-09" incidenttime="19:00:00" incidentnumber="15193712" address="6900 block Hamilton Ave" type="OFFENSE" age="" gender="" description="*********************************************** &lt;br/&gt;3502, Burglary.&lt;br/&gt;"/><marker lat="40.446334024783283" lng="-79.894431687317905" zone="Zone 4" incidentdate="2015-10-09" incidenttime="12:00:00" incidentnumber="15193644" address="100 block East End Ave" type="OFFENSE" age="" gender="" description="*********************************************** &lt;br/&gt;3304, Criminal Mischief.&lt;br/&gt;3934, Theft from Vehicle&lt;br/&gt;"/><marker lat="40.477009600273561" lng="-79.956862788365299" zone="Zone 2" incidentdate="2015-10-09" incidenttime="16:14:00" incidentnumber="15193703" address="4900 block Butler St" type="OFFENSE" age="" gender="" description="*********************************************** &lt;br/&gt;3304(a)(4), CRIMINAL MISCHIEF- Intentionally Damage Property (By Graffiti, Aerosol Spray Paint, Broad Tip Marker, or Similar)&lt;br/&gt;"/><marker lat="40.453470511792048" lng="-80.001533243378148" zone="Zone 1" incidentdate="2015-10-09" incidenttime="19:00:00" incidentnumber="15193791" address="400 block East Ohio St" type="OFFENSE" age="" gender="" description="*********************************************** &lt;br/&gt;3743, Accidents Involving Damage to Attended Veh. or Property&lt;br/&gt;"/><marker lat="40.478363988687164" lng="-79.955435483733993" zone="Zone 2" incidentdate="2015-10-09" incidenttime="09:33:00" incidentnumber="15193468" address="5100 block Butler St" type="OFFENSE" age="" gender="" description="*********************************************** &lt;br/&gt;3304, Criminal Mischief.&lt;br/&gt;9130, Graffiti Investigation&lt;br/&gt;"/><marker lat="40.477009600273561" lng="-79.956862788365299" zone="Zone 2" incidentdate="2015-10-09" incidenttime="16:14:00" incidentnumber="15193613" address="4900 block Butler St" type="OFFENSE" age="" gender="" description="*********************************************** &lt;br/&gt;3304(a)(4), CRIMINAL MISCHIEF- Intentionally Damage Property (By Graffiti, Aerosol Spray Paint, Broad Tip Marker, or Similar)&lt;br/&gt;"/><marker lat="40.451209746298005" lng="-80.021965140261187" zone="Zone 1" incidentdate="2015-10-09" incidenttime="01:00:00" incidentnumber="15193287" address="1200 block Western Ave" type="OFFENSE" age="" gender="" description="*********************************************** &lt;br/&gt;9124, Drug Investigation&lt;br/&gt;"/><marker lat="40.450901096519573" lng="-79.930622154707279" zone="Zone 5" incidentdate="2015-10-09" incidenttime="03:34:00" incidentnumber="15193342" address="900 block N Negley Ave" type="OFFENSE" age="" gender="" description="*********************************************** &lt;br/&gt;9490, Missing Persons (18 and Over)&lt;br/&gt;"/><marker lat="40.42959549760031" lng="-79.923356946569484" zone="Zone 4" incidentdate="2015-10-09" incidenttime="09:35:00" incidentnumber="15193456" address="5800 block Forward Ave" type="OFFENSE" age="" gender="" description="*********************************************** &lt;br/&gt;3304, Criminal Mischief.&lt;br/&gt;"/><marker lat="40.402546708833945" lng="-79.939317681602134" zone="Zone 4" incidentdate="2015-10-09" incidenttime="13:43:00" incidentnumber="15193592" address="Cust St" type="OFFENSE" age="" gender="" description="*********************************************** &lt;br/&gt;9496, Dead on Arrival (DOA)&lt;br/&gt;"/><marker lat="40.458079488535191" lng="-79.908419971303687" zone="Zone 5" incidentdate="2015-10-09" incidenttime="10:27:00" incidentnumber="15193483" address="6700 block Kelly St" type="OFFENSE" age="" gender="" description="*********************************************** &lt;br/&gt;13(a)(31), Marijuana: Possession Small Amount&lt;br/&gt;13(a)(32), Paraphernalia - Use or Possession&lt;br/&gt;1543, Driving While Operating Privilege is Suspended or Revoked.&lt;br/&gt;1332, Display of Registration Plate.&lt;br/&gt;"/><marker lat="40.457508979931845" lng="-79.910572598041981" zone="Zone 5" incidentdate="2015-10-09" incidenttime="16:45:00" incidentnumber="15193706" address="6600 block Hamilton Ave" type="OFFENSE" age="" gender="" description="*********************************************** &lt;br/&gt;3921, Theft by Unlawful Taking or Disposition.&lt;br/&gt;"/><marker lat="40.453010839990817" lng="-79.924961174485944" zone="Zone 5" incidentdate="2015-10-09" incidenttime="20:05:00" incidentnumber="15193834" address="500 block N.Highland Ave" type="OFFENSE" age="" gender="" description="*********************************************** &lt;br/&gt;2701, Simple Assault.&lt;br/&gt;3701, Robbery.&lt;br/&gt;903, Criminal Conspiracy.&lt;br/&gt;"/><marker lat="40.401101134074906" lng="-80.019557611285663" zone="Zone 6" incidentdate="2015-10-09" incidenttime="08:00:00" incidentnumber="15193469" address="2100 block Pioneer Ave" type="OFFENSE" age="" gender="" description="*********************************************** &lt;br/&gt;3502, Burglary.&lt;br/&gt;3304, Criminal Mischief.&lt;br/&gt;"/><marker lat="40.484592367904192" lng="-80.014689007836736" zone="Zone 1" incidentdate="2015-10-09" incidenttime="16:15:00" incidentnumber="15193645" address="3600 block Perrysville Ave" type="OFFENSE" age="" gender="" description="*********************************************** &lt;br/&gt;029, Missing Juvenile&lt;br/&gt;"/><marker lat="40.487005893339358" lng="-80.037524061145021" zone="Zone 1" incidentdate="2015-10-09" incidenttime="16:30:00" incidentnumber="15193673" address="Kleber St &amp; Brighton Rd" type="OFFENSE" age="" gender="" description="*********************************************** &lt;br/&gt;13(a)(16), Possession of Controlled Substance&lt;br/&gt;13(a)(32), Paraphernalia - Use or Possession&lt;br/&gt;"/><marker lat="40.4477768" lng="-80.0071554" zone="Zone 1" incidentdate="2015-10-09" incidenttime="17:15:00" incidentnumber="15193724" address="600 block General Robinson St W" type="OFFENSE" age="" gender="" description="*********************************************** &lt;br/&gt;3934, Theft from Vehicle&lt;br/&gt;"/><marker lat="40.428306645471665" lng="-79.976068659027419" zone="Zone 3" incidentdate="2015-10-09" incidenttime="01:33:00" incidentnumber="15193278" address="2100 block E Carson St" type="OFFENSE" age="" gender="" description="*********************************************** &lt;br/&gt;9999, 9999 - (Misc. Incident):&lt;br/&gt;"/><marker lat="40.399129724873369" lng="-80.006153316398439" zone="Zone 6" incidentdate="2015-10-09" incidenttime="15:49:00" incidentnumber="15193639" address="1600 block Fiat St" type="OFFENSE" age="" gender="" description="*********************************************** &lt;br/&gt;2706, Terroristic Threats.&lt;br/&gt;2701(a)(3), Simple Assault - Attempts by Physical Menace&lt;br/&gt;"/><marker lat="40.478382677437217" lng="-79.955594369710582" zone="Zone 2" incidentdate="2015-10-09" incidenttime="09:33:00" incidentnumber="15193436" address="5100 block Bulter St" type="OFFENSE" age="" gender="" description="*********************************************** &lt;br/&gt;3304, Criminal Mischief.&lt;br/&gt;9130, Graffiti Investigation&lt;br/&gt;"/><marker lat="40.44046002943292" lng="-79.96027451341746" zone="Zone 4" incidentdate="2015-10-09" incidenttime="07:20:00" incidentnumber="15193391" address="5th Ave &amp; Mc Kee Pl" type="OFFENSE" age="" gender="" description="*********************************************** &lt;br/&gt;3743, Accidents Involving Damage to Attended Veh. or Property&lt;br/&gt;"/><marker lat="40.455468004904013" lng="-79.910587732745498" zone="Zone 4" incidentdate="2015-10-09" incidenttime="08:40:00" incidentnumber="15193420" address="6700 block Mc Pherson Blvd" type="OFFENSE" age="" gender="" description="*********************************************** &lt;br/&gt;2709, Harassment (Non-Specific)&lt;br/&gt;"/><marker lat="40.450026863678943" lng="-79.96714135613945" zone="Zone 2" incidentdate="2015-10-09" incidenttime="21:53:00" incidentnumber="15193899" address="Wylie Ave &amp; Horton St" type="OFFENSE" age="" gender="" description="*********************************************** &lt;br/&gt;13(a)(31), Marijuana: Possession Small Amount&lt;br/&gt;1543, Driving While Operating Privilege is Suspended or Revoked.&lt;br/&gt;"/><marker lat="40.428648587693665" lng="-79.984030978724903" zone="Zone 3" incidentdate="2015-10-09" incidenttime="01:50:00" incidentnumber="15193285" address="1400 block E Carson St" type="OFFENSE" age="" gender="" description="*********************************************** &lt;br/&gt;2701, Simple Assault.&lt;br/&gt;"/><marker lat="40.47166132446182" lng="-79.913880833934982" zone="Zone 5" incidentdate="2015-10-09" incidenttime="12:30:00" incidentnumber="15193545" address="900 block Wellesley Rd" type="OFFENSE" age="" gender="" description="*********************************************** &lt;br/&gt;4120, Identity Theft&lt;br/&gt;"/><marker lat="40.413512827912385" lng="-79.991520937820866" zone="Zone 3" incidentdate="2015-10-09" incidenttime="15:13:00" incidentnumber="15193652" address="100 block Redlyn St" type="OFFENSE" age="" gender="" description="*********************************************** &lt;br/&gt;3304, Criminal Mischief.&lt;br/&gt;2707, Propulsion of Missiles&lt;br/&gt;"/><marker lat="40.4283102180068" lng="-79.977507484026688" zone="Zone 3" incidentdate="2015-10-09" incidenttime="02:55:00" incidentnumber="15193327" address="2000 block E Carson St" type="OFFENSE" age="" gender="" description="*********************************************** &lt;br/&gt;9999, 9999 - (Misc. Incident):&lt;br/&gt;"/><marker lat="40.440803198693011" lng="-79.967793316322172" zone="Zone 4" incidentdate="2015-10-09" incidenttime="12:06:00" incidentnumber="15193528" address="3100 block Ellers St" type="OFFENSE" age="" gender="" description="*********************************************** &lt;br/&gt;3802(a)(1), DUI - General Impairment&lt;br/&gt;3802(c), DUI - Highest Rate of Alcohol - BAC &gt;= .16%&lt;br/&gt;3354, Additional Parking Regulations.&lt;br/&gt;3352, Removal of Vehicle by or at Direction of Police.&lt;br/&gt;"/><marker lat="40.451601893913271" lng="-80.066357338902122" zone="Zone 6" incidentdate="2015-10-09" incidenttime="20:20:00" incidentnumber="15193843" address="3200 block Faronia St" type="OFFENSE" age="" gender="" description="*********************************************** &lt;br/&gt;2701(a)(1), Simple Assault - Intent., Know., Reckless.Cause Bod. Injury&lt;br/&gt;"/><marker lat="40.3900728" lng="-79.9903412" zone="Zone 3" incidentdate="2015-10-09" incidenttime="08:57:00" incidentnumber="15193441" address="2200 block Almont St" type="OFFENSE" age="" gender="" description="*********************************************** &lt;br/&gt;13(a)(16), Possession of Controlled Substance&lt;br/&gt;13(a)(30), Possession w/ Intent to Del. Controlled Substance&lt;br/&gt;13(a)(31), Marijuana: Possession Small Amount&lt;br/&gt;13(a)(32), Paraphernalia - Use or Possession&lt;br/&gt;4910, Tampering with or Fabricating Physical Evidence.&lt;br/&gt;3925, Receiving Stolen Property.&lt;br/&gt;"/><marker lat="40.480403073330407" lng="-79.954224549032361" zone="Zone 2" incidentdate="2015-10-09" incidenttime="09:33:00" incidentnumber="15193470" address="5200 block Butler St" type="OFFENSE" age="" gender="" description="*********************************************** &lt;br/&gt;3304, Criminal Mischief.&lt;br/&gt;9130, Graffiti Investigation&lt;br/&gt;"/><marker lat="40.451209746298005" lng="-80.021965140261187" zone="Zone 1" incidentdate="2015-10-09" incidenttime="12:46:00" incidentnumber="15193566" address="1200 block Western Ave" type="OFFENSE" age="" gender="" description="*********************************************** &lt;br/&gt;4120, Identity Theft&lt;br/&gt;"/><marker lat="40.4404663" lng="-80.0250671" zone="Zone 3" incidentdate="2015-10-09" incidenttime="05:30:00" incidentnumber="15193685" address="1700 block Rutledge St" type="OFFENSE" age="" gender="" description="*********************************************** &lt;br/&gt;3934, Theft from Vehicle&lt;br/&gt;"/><marker lat="40.426961879432845" lng="-80.011792290549167" zone="Zone 3" incidentdate="2015-10-09" incidenttime="11:15:00" incidentnumber="15193507" address="100 block Wilbert St" type="OFFENSE" age="" gender="" description="*********************************************** &lt;br/&gt;3934, Theft from Vehicle&lt;br/&gt;"/><marker lat="40.46036421068878" lng="-80.024317582412522" zone="Zone 1" incidentdate="2015-10-09" incidenttime="23:17:00" incidentnumber="15193946" address="1200 block Kunkle Way" type="OFFENSE" age="" gender="" description="*********************************************** &lt;br/&gt;5104, Resisting Arrest or Other Law Enforcement.&lt;br/&gt;2701, Simple Assault.&lt;br/&gt;2701(a)(1), Simple Assault - Intent., Know., Reckless.Cause Bod. Injury&lt;br/&gt;"/><marker lat="40.444200272919588" lng="-80.040607296470199" zone="Zone 6" incidentdate="2015-10-09" incidenttime="10:34:00" incidentnumber="15193486" address="1000 block Chartiers Ave" type="OFFENSE" age="" gender="" description="*********************************************** &lt;br/&gt;9488, False  Burglar Alarm&lt;br/&gt;"/><marker lat="40.453920702075663" lng="-79.979763003893211" zone="Zone 2" incidentdate="2015-10-09" incidenttime="08:40:00" incidentnumber="15193423" address="2500 block Penn Ave" type="OFFENSE" age="" gender="" description="*********************************************** &lt;br/&gt;9498, 302 (Mental)&lt;br/&gt;"/><marker lat="40.3993417" lng="-80.0447343" zone="Zone 6" incidentdate="2015-10-09" incidenttime="15:25:00" incidentnumber="15193628" address="3200 block Banksville Rd" type="OFFENSE" age="" gender="" description="*********************************************** &lt;br/&gt;9497, Aided Case&lt;br/&gt;"/><marker lat="40.4406224865496" lng="-80.054069917586332" zone="Zone 6" incidentdate="2015-10-09" incidenttime="21:21:00" incidentnumber="15193890" address="1200 block Oakmont St" type="OFFENSE" age="" gender="" description="*********************************************** &lt;br/&gt;2701, Simple Assault.&lt;br/&gt;"/><marker lat="40.450901096519573" lng="-79.930622154707279" zone="Zone 5" incidentdate="2015-10-09" incidenttime="00:42:00" incidentnumber="15193359" address="900 block N Negley Ave" type="OFFENSE" age="" gender="" description="*********************************************** &lt;br/&gt;029, Missing Juvenile&lt;br/&gt;"/><marker lat="40.402740981762214" lng="-79.941821225758474" zone="Zone 4" incidentdate="2015-10-09" incidenttime="03:49:00" incidentnumber="15193345" address="2nd Ave &amp; American St" type="OFFENSE" age="" gender="" description="*********************************************** &lt;br/&gt;4581, Restraint Systems.&lt;br/&gt;1543, Driving While Operating Privilege is Suspended or Revoked.&lt;br/&gt;3802(a)(1), DUI - General Impairment&lt;br/&gt;3802(b), DUI - High Rate of Alchol - BAC &gt;=.10% &lt;.16%&lt;br/&gt;"/><marker lat="40.4442043" lng="-80.0281834" zone="Zone 3" incidentdate="2015-10-09" incidenttime="17:44:00" incidentnumber="15193713" address="Saw Mill Run Blvd &amp; West End Cir" type="OFFENSE" age="" gender="" description="*********************************************** &lt;br/&gt;13(a)(31), Marijuana: Possession Small Amount&lt;br/&gt;1543, Driving While Operating Privilege is Suspended or Revoked.&lt;br/&gt;4703, Operation of Vehicle without Official Certif. of Inspection&lt;br/&gt;4303, General Lighting Requirements.&lt;br/&gt;4706, Prohib. on Expend. for Emission Insp Prog..&lt;br/&gt;"/><marker lat="40.407503197220038" lng="-80.019544839746544" zone="Zone 6" incidentdate="2015-10-09" incidenttime="09:50:00" incidentnumber="15193449" address="1800 block Ringwalt St" type="OFFENSE" age="" gender="" description="*********************************************** &lt;br/&gt;9489, Found Property&lt;br/&gt;"/><marker lat="40.4357902" lng="-79.9580150" zone="Zone 4" incidentdate="2015-10-09" incidenttime="10:00:00" incidentnumber="15193488" address="3400 block Blvd Of The Allies" type="OFFENSE" age="" gender="" description="*********************************************** &lt;br/&gt;3921, Theft by Unlawful Taking or Disposition.&lt;br/&gt;"/><marker lat="40.450809839447217" lng="-79.943106338457298" zone="Zone 4" incidentdate="2015-10-09" incidenttime="02:59:00" incidentnumber="15193330" address="600 block Morewood Ave" type="OFFENSE" age="" gender="" description="*********************************************** &lt;br/&gt;5505, Public Drunkenness&lt;br/&gt;"/><marker lat="40.443610698976059" lng="-79.998043561602501" zone="Zone 2" incidentdate="2015-10-09" incidenttime="17:00:00" incidentnumber="15193634" address="900 block Penn Ave" type="OFFENSE" age="" gender="" description="*********************************************** &lt;br/&gt;9497, Aided Case&lt;br/&gt;"/><marker lat="40.407575551824131" lng="-80.024801428970491" zone="Zone 6" incidentdate="2015-10-09" incidenttime="04:07:00" incidentnumber="15193348" address="1800 block Tonopah Ave" type="OFFENSE" age="" gender="" description="*********************************************** &lt;br/&gt;5505, Public Drunkenness&lt;br/&gt;3304(a)(5), CRIMINAL MISCHIEF - Intentionally Damages Real Or Personal Property Of Another&lt;br/&gt;3503(a), Criminal Trespass&lt;br/&gt;"/><marker lat="40.4729132" lng="-79.9298337" zone="Zone 5" incidentdate="2015-10-09" incidenttime="07:40:00" incidentnumber="15193394" address="800 block Highview St" type="OFFENSE" age="" gender="" description="*********************************************** &lt;br/&gt;3921, Theft by Unlawful Taking or Disposition.&lt;br/&gt;3934, Theft from Vehicle&lt;br/&gt;"/><marker lat="40.479496781171243" lng="-80.032454825576309" zone="Zone 1" incidentdate="2015-10-09" incidenttime="08:00:00" incidentnumber="15193463" address="3500 block Simen Ave" type="OFFENSE" age="" gender="" description="*********************************************** &lt;br/&gt;3921(a), Theft by Unlawful Taking or Disposition - Movable item&lt;br/&gt;"/><marker lat="40.384471858717156" lng="-79.977878857025118" zone="Zone 3" incidentdate="2015-10-09" incidenttime="15:20:00" incidentnumber="15193665" address="Maytide St &amp; Brownsville Rd" type="OFFENSE" age="" gender="" description="*********************************************** &lt;br/&gt;3924, Theft of Property Lost, Mislaid or Delivered by Mistake.&lt;br/&gt;"/><marker lat="40.453214380492888" lng="-79.999008894833395" zone="Zone 1" incidentdate="2015-10-09" incidenttime="09:40:00" incidentnumber="15193447" address="600 block Avery St" type="OFFENSE" age="" gender="" description="*********************************************** &lt;br/&gt;3934, Theft from Vehicle&lt;br/&gt;"/><marker lat="40.468693075773288" lng="-79.961677392158549" zone="Zone 2" incidentdate="2015-10-09" incidenttime="02:21:00" incidentnumber="15193307" address="4000 block Butler St" type="OFFENSE" age="" gender="" description="*********************************************** &lt;br/&gt;3802(a)(1), DUI - General Impairment&lt;br/&gt;3802(c), DUI - Highest Rate of Alcohol - BAC &gt;= .16%&lt;br/&gt;4303, General Lighting Requirements.&lt;br/&gt;"/><marker lat="40.45754162959016" lng="-79.976354876437853" zone="Zone 2" incidentdate="2015-10-09" incidenttime="12:35:00" incidentnumber="15193512" address="2800 block Smallman St" type="OFFENSE" age="" gender="" description="*********************************************** &lt;br/&gt;3304, Criminal Mischief.&lt;br/&gt;9130, Graffiti Investigation&lt;br/&gt;"/><marker lat="40.488322752669788" lng="-79.925816334230021" zone="Zone 5" incidentdate="2015-10-09" incidenttime="16:35:00" incidentnumber="15193687" address="6800 block Baker St" type="OFFENSE" age="" gender="" description="*********************************************** &lt;br/&gt;3736, Reckless Driving&lt;br/&gt;3802(a)(1), DUI - General Impairment&lt;br/&gt;"/><marker lat="40.468255796214279" lng="-79.998763078192823" zone="Zone 1" incidentdate="2015-10-09" incidenttime="22:32:00" incidentnumber="15193929" address="900 block Luella St" type="OFFENSE" age="" gender="" description="*********************************************** &lt;br/&gt;13(a)(32), Paraphernalia - Use or Possession&lt;br/&gt;"/><marker lat="40.414378931083867" lng="-79.988051306016501" zone="Zone 3" incidentdate="2015-10-09" incidenttime="09:25:00" incidentnumber="15193424" address="100 block Bausman St" type="OFFENSE" age="" gender="" description="*********************************************** &lt;br/&gt;5503, Disorderly Conduct.&lt;br/&gt;2706, Terroristic Threats.&lt;br/&gt;3503(a), Criminal Trespass&lt;br/&gt;"/><marker lat="40.4208061" lng="-79.9937105" zone="Zone 3" incidentdate="2015-10-09" incidenttime="17:10:00" incidentnumber="15193708" address="800 block Industry St" type="OFFENSE" age="" gender="" description="*********************************************** &lt;br/&gt;9999, 9999 - (Misc. Incident):&lt;br/&gt;"/><marker lat="40.451209746298005" lng="-80.021965140261187" zone="Zone 1" incidentdate="2015-10-09" incidenttime="18:00:00" incidentnumber="15193742" address="1200 block Western Ave" type="OFFENSE" age="" gender="" description="*********************************************** &lt;br/&gt;9124, Drug Investigation&lt;br/&gt;"/><marker lat="40.444085491904346" lng="-79.927995372027681" zone="Zone 4" incidentdate="2015-10-09" incidenttime="09:00:00" incidentnumber="15193453" address="1300 block Wightman St" type="OFFENSE" age="" gender="" description="*********************************************** &lt;br/&gt;3921, Theft by Unlawful Taking or Disposition.&lt;br/&gt;"/><marker lat="40.478846468228319" lng="-80.043103207786132" zone="Zone 1" incidentdate="2015-10-09" incidenttime="08:30:00" incidentnumber="15193418" address="Mckees Rocks Brg &amp; Ohio River Blvd" type="OFFENSE" age="" gender="" description="*********************************************** &lt;br/&gt;3743, Accidents Involving Damage to Attended Veh. or Property&lt;br/&gt;"/><marker lat="40.462556446850741" lng="-79.897377342404567" zone="Zone 5" incidentdate="2015-10-09" incidenttime="21:04:00" incidentnumber="15193877" address="7100 block Upland St" type="OFFENSE" age="" gender="" description="*********************************************** &lt;br/&gt;8106, Shots Fired&lt;br/&gt;"/><marker lat="40.427040948223102" lng="-80.009163098121036" zone="Zone 3" incidentdate="2015-10-09" incidenttime="00:01:00" incidentnumber="15193646" address="100 block Southern Ave" type="OFFENSE" age="" gender="" description="*********************************************** &lt;br/&gt;4120, Identity Theft&lt;br/&gt;"/><marker lat="40.479829245655225" lng="-80.001901444196207" zone="Zone 1" incidentdate="2015-10-09" incidenttime="01:30:00" incidentnumber="15193226" address="400 block Mt Pleasant Rd" type="OFFENSE" age="" gender="" description="*********************************************** &lt;br/&gt;9999, 9999 - (Misc. Incident):&lt;br/&gt;"/><marker lat="40.429090431608095" lng="-79.979048597666363" zone="Zone 3" incidentdate="2015-10-09" incidenttime="12:00:00" incidentnumber="15193664" address="1900 block Wrights Way" type="OFFENSE" age="" gender="" description="*********************************************** &lt;br/&gt;3304, Criminal Mischief.&lt;br/&gt;"/><marker lat="40.457961320144769" lng="-80.015758219132792" zone="Zone 1" incidentdate="2015-10-09" incidenttime="05:30:00" incidentnumber="15193377" address="1600 block Brighton Rd" type="OFFENSE" age="" gender="" description="*********************************************** &lt;br/&gt;3921, Theft by Unlawful Taking or Disposition.&lt;br/&gt;"/><marker lat="40.468392049674968" lng="-80.025256332998723" zone="Zone 1" incidentdate="2015-10-09" incidenttime="15:00:00" incidentnumber="15193679" address="1100 block HIGHWOOD St" type="OFFENSE" age="" gender="" description="*********************************************** &lt;br/&gt;9999, 9999 - (Misc. Incident):&lt;br/&gt;"/><marker lat="40.448042004004343" lng="-79.893835089727247" zone="Zone 4" incidentdate="2015-10-09" incidenttime="07:30:00" incidentnumber="15193385" address="200 block S Braddock Ave" type="OFFENSE" age="" gender="" description="*********************************************** &lt;br/&gt;3502, Burglary.&lt;br/&gt;"/><marker lat="40.4530658" lng="-80.0030731" zone="Zone 1" incidentdate="2015-10-09" incidenttime="11:10:00" incidentnumber="15193501" address="200 block East Ohio St" type="OFFENSE" age="" gender="" description="*********************************************** &lt;br/&gt;13(a)(31), Marijuana: Possession Small Amount&lt;br/&gt;"/><marker lat="40.421926643223742" lng="-79.928834862466033" zone="Zone 4" incidentdate="2015-10-09" incidenttime="16:00:00" incidentnumber="15193684" address="Loretta St &amp; Murray Ave" type="OFFENSE" age="" gender="" description="*********************************************** &lt;br/&gt;3745, Accidents Involving Damage to Unattended Veh.or Prop.&lt;br/&gt;"/><marker lat="40.438442283841745" lng="-79.982604436619965" zone="Zone 2" incidentdate="2015-10-09" incidenttime="08:38:00" incidentnumber="15193411" address="5th Ave &amp; Van Braam St" type="OFFENSE" age="" gender="" description="*********************************************** &lt;br/&gt;3743, Accidents Involving Damage to Attended Veh. or Property&lt;br/&gt;"/><marker lat="40.4406248" lng="-79.9958864" zone="Zone 2" incidentdate="2015-10-09" incidenttime="19:45:00" incidentnumber="15193835" address="10th St Byp &amp; Fort Pitt Brg Ramp" type="OFFENSE" age="" gender="" description="*********************************************** &lt;br/&gt;3304, Criminal Mischief.&lt;br/&gt;"/><marker lat="40.4287859" lng="-79.9651363" zone="Zone 3" incidentdate="2015-10-09" incidenttime="13:20:00" incidentnumber="15193637" address="27th St &amp; South water St" type="OFFENSE" age="" gender="" description="*********************************************** &lt;br/&gt;3929, Retail Theft.&lt;br/&gt;"/><marker lat="40.43379573360032" lng="-79.961776972525797" zone="Zone 4" incidentdate="2015-10-09" incidenttime="10:20:00" incidentnumber="15193489" address="Lawn St" type="OFFENSE" age="" gender="" description="*********************************************** &lt;br/&gt;3304, Criminal Mischief.&lt;br/&gt;"/><marker lat="40.471616905660198" lng="-80.009653840128607" zone="Zone 1" incidentdate="2015-10-09" incidenttime="21:33:00" incidentnumber="15188322" address="Ellzey St" type="ARREST" age="52" gender="M" description="*********************************************** &lt;br/&gt;3502, Burglary.&lt;br/&gt;9501, Bench Warrant&lt;br/&gt;3304, Criminal Mischief.&lt;br/&gt;3701, Robbery.&lt;br/&gt;"/><marker lat="40.437499764242141" lng="-79.981431350017075" zone="Zone 2" incidentdate="2015-10-09" incidenttime="10:10:00" incidentnumber="15181651" address="Forbes Ave &amp; Miltenberger St" type="ARREST" age="41" gender="M" description="*********************************************** &lt;br/&gt;1543, Driving While Operating Privilege is Suspended or Revoked.&lt;br/&gt;3743, Accidents Involving Damage to Attended Veh. or Property&lt;br/&gt;"/><marker lat="40.468693075773288" lng="-79.961677392158549" zone="Zone 2" incidentdate="2015-10-09" incidenttime="02:34:00" incidentnumber="15193307" address="4000 block Butler St" type="ARREST" age="27" gender="M" description="*********************************************** &lt;br/&gt;3802(a)(1), DUI - General Impairment&lt;br/&gt;3802(c), DUI - Highest Rate of Alcohol - BAC &gt;= .16%&lt;br/&gt;4303, General Lighting Requirements.&lt;br/&gt;"/><marker lat="40.407575551824131" lng="-80.024801428970491" zone="Zone 6" incidentdate="2015-10-09" incidenttime="04:33:00" incidentnumber="15193348" address="1800 block Tonopah Ave" type="ARREST" age="30" gender="F" description="*********************************************** &lt;br/&gt;5505, Public Drunkenness&lt;br/&gt;3304(a)(5), CRIMINAL MISCHIEF - Intentionally Damages Real Or Personal Property Of Another&lt;br/&gt;3503(a), Criminal Trespass&lt;br/&gt;"/><marker lat="40.468255796214279" lng="-79.998763078192823" zone="Zone 1" incidentdate="2015-10-09" incidenttime="22:32:00" incidentnumber="15193929" address="900 block Luella St" type="ARREST" age="45" gender="M" description="*********************************************** &lt;br/&gt;13(a)(32), Paraphernalia - Use or Possession&lt;br/&gt;"/><marker lat="40.399129724873369" lng="-80.006153316398439" zone="Zone 6" incidentdate="2015-10-09" incidenttime="15:49:00" incidentnumber="15193639" address="1600 block Fiat St" type="ARREST" age="29" gender="M" description="*********************************************** &lt;br/&gt;2706, Terroristic Threats.&lt;br/&gt;2701(a)(3), Simple Assault - Attempts by Physical Menace&lt;br/&gt;"/><marker lat="40.453470511792048" lng="-80.001533243378148" zone="Zone 1" incidentdate="2015-10-09" incidenttime="00:20:00" incidentnumber="15176215" address="400 block East Ohio St" type="ARREST" age="29" gender="M" description="*********************************************** &lt;br/&gt;2701, Simple Assault.&lt;br/&gt;2701(a)(1), Simple Assault - Intent., Know., Reckless.Cause Bod. Injury&lt;br/&gt;"/><marker lat="40.451601893913271" lng="-80.066357338902122" zone="Zone 6" incidentdate="2015-10-09" incidenttime="20:55:00" incidentnumber="15193843" address="3200 block Faronia St" type="ARREST" age="59" gender="M" description="*********************************************** &lt;br/&gt;2701(a)(1), Simple Assault - Intent., Know., Reckless.Cause Bod. Injury&lt;br/&gt;"/><marker lat="40.450026863678943" lng="-79.96714135613945" zone="Zone 2" incidentdate="2015-10-09" incidenttime="21:53:00" incidentnumber="15193899" address="Wylie Ave &amp; Horton St" type="ARREST" age="27" gender="F" description="*********************************************** &lt;br/&gt;13(a)(31), Marijuana: Possession Small Amount&lt;br/&gt;1543, Driving While Operating Privilege is Suspended or Revoked.&lt;br/&gt;"/><marker lat="40.376032633004463" lng="-80.002816269691209" zone="Zone 3" incidentdate="2015-10-09" incidenttime="20:29:00" incidentnumber="15192426" address="2800 block Homehurst Ave" type="ARREST" age="28" gender="F" description="*********************************************** &lt;br/&gt;4906, False Reports to Law Enforcement Authorities.&lt;br/&gt;"/><marker lat="40.488322752669788" lng="-79.925816334230021" zone="Zone 5" incidentdate="2015-10-09" incidenttime="17:15:00" incidentnumber="15193687" address="6800 block Baker St" type="ARREST" age="31" gender="M" description="*********************************************** &lt;br/&gt;3736, Reckless Driving&lt;br/&gt;3802(a)(1), DUI - General Impairment&lt;br/&gt;"/><marker lat="40.457508979931845" lng="-79.910572598041981" zone="Zone 5" incidentdate="2015-10-09" incidenttime="18:15:00" incidentnumber="15193706" address="6600 block Hamilton Ave" type="ARREST" age="21" gender="M" description="*********************************************** &lt;br/&gt;3921, Theft by Unlawful Taking or Disposition.&lt;br/&gt;"/><marker lat="40.4530658" lng="-80.0030731" zone="Zone 1" incidentdate="2015-10-09" incidenttime="11:10:00" incidentnumber="15193501" address="200 block East Ohio St" type="ARREST" age="25" gender="M" description="*********************************************** &lt;br/&gt;13(a)(31), Marijuana: Possession Small Amount&lt;br/&gt;"/><marker lat="40.4442043" lng="-80.0281834" zone="Zone 3" incidentdate="2015-10-09" incidenttime="17:31:00" incidentnumber="15193713" address="Saw Mill Run Blvd &amp; West End Cir" type="ARREST" age="30" gender="M" description="*********************************************** &lt;br/&gt;13(a)(31), Marijuana: Possession Small Amount&lt;br/&gt;1543, Driving While Operating Privilege is Suspended or Revoked.&lt;br/&gt;4703, Operation of Vehicle without Official Certif. of Inspection&lt;br/&gt;4303, General Lighting Requirements.&lt;br/&gt;4706, Prohib. on Expend. for Emission Insp Prog..&lt;br/&gt;"/><marker lat="40.4406224865496" lng="-80.054069917586332" zone="Zone 6" incidentdate="2015-10-09" incidenttime="21:25:00" incidentnumber="15193890" address="1200 block Oakmont St" type="ARREST" age="51" gender="M" description="*********************************************** &lt;br/&gt;2701, Simple Assault.&lt;br/&gt;"/><marker lat="40.414378931083867" lng="-79.988051306016501" zone="Zone 3" incidentdate="2015-10-09" incidenttime="09:25:00" incidentnumber="15193424" address="100 block Bausman St" type="ARREST" age="25" gender="M" description="*********************************************** &lt;br/&gt;5503, Disorderly Conduct.&lt;br/&gt;2706, Terroristic Threats.&lt;br/&gt;3503(a), Criminal Trespass&lt;br/&gt;"/><marker lat="40.458079488535191" lng="-79.908419971303687" zone="Zone 5" incidentdate="2015-10-09" incidenttime="10:27:00" incidentnumber="15193483" address="6700 block Kelly St" type="ARREST" age="21" gender="F" description="*********************************************** &lt;br/&gt;13(a)(31), Marijuana: Possession Small Amount&lt;br/&gt;13(a)(32), Paraphernalia - Use or Possession&lt;br/&gt;1543, Driving While Operating Privilege is Suspended or Revoked.&lt;br/&gt;1332, Display of Registration Plate.&lt;br/&gt;"/><marker lat="40.402740981762214" lng="-79.941821225758474" zone="Zone 4" incidentdate="2015-10-09" incidenttime="04:13:00" incidentnumber="15193345" address="2nd Ave &amp; American St" type="ARREST" age="23" gender="M" description="*********************************************** &lt;br/&gt;4581, Restraint Systems.&lt;br/&gt;1543, Driving While Operating Privilege is Suspended or Revoked.&lt;br/&gt;3802(a)(1), DUI - General Impairment&lt;br/&gt;3802(b), DUI - High Rate of Alchol - BAC &gt;=.10% &lt;.16%&lt;br/&gt;"/><marker lat="40.46036421068878" lng="-80.024317582412522" zone="Zone 1" incidentdate="2015-10-09" incidenttime="23:20:00" incidentnumber="15193946" address="1200 block Kunkle Way" type="ARREST" age="25" gender="F" description="*********************************************** &lt;br/&gt;5104, Resisting Arrest or Other Law Enforcement.&lt;br/&gt;2701, Simple Assault.&lt;br/&gt;2701(a)(1), Simple Assault - Intent., Know., Reckless.Cause Bod. Injury&lt;br/&gt;"/><marker lat="40.3900728" lng="-79.9903412" zone="Zone 3" incidentdate="2015-10-09" incidenttime="08:57:00" incidentnumber="15193441" address="2200 block Almont St" type="ARREST" age="29" gender="M" description="*********************************************** &lt;br/&gt;13(a)(16), Possession of Controlled Substance&lt;br/&gt;13(a)(30), Possession w/ Intent to Del. Controlled Substance&lt;br/&gt;13(a)(31), Marijuana: Possession Small Amount&lt;br/&gt;13(a)(32), Paraphernalia - Use or Possession&lt;br/&gt;4910, Tampering with or Fabricating Physical Evidence.&lt;br/&gt;3925, Receiving Stolen Property.&lt;br/&gt;"/><marker lat="40.435095503606554" lng="-79.993077686753679" zone="Zone 2" incidentdate="2015-10-09" incidenttime="04:00:00" incidentnumber="15018046" address="900 block 2ND Ave" type="ARREST" age="37" gender="M" description="*********************************************** &lt;br/&gt;2701, Simple Assault.&lt;br/&gt;3701, Robbery.&lt;br/&gt;2701(a)(1), Simple Assault - Intent., Know., Reckless.Cause Bod. Injury&lt;br/&gt;"/><marker lat="40.440803198693011" lng="-79.967793316322172" zone="Zone 4" incidentdate="2015-10-09" incidenttime="12:40:00" incidentnumber="15193528" address="3100 block Ellers St" type="ARREST" age="47" gender="F" description="*********************************************** &lt;br/&gt;3802(a)(1), DUI - General Impairment&lt;br/&gt;3802(c), DUI - Highest Rate of Alcohol - BAC &gt;= .16%&lt;br/&gt;3354, Additional Parking Regulations.&lt;br/&gt;3352, Removal of Vehicle by or at Direction of Police.&lt;br/&gt;"/><marker lat="40.487005893339358" lng="-80.037524061145021" zone="Zone 1" incidentdate="2015-10-09" incidenttime="16:30:00" incidentnumber="15193673" address="Kleber St &amp; Brighton Rd" type="ARREST" age="24" gender="M" description="*********************************************** &lt;br/&gt;13(a)(16), Possession of Controlled Substance&lt;br/&gt;13(a)(32), Paraphernalia - Use or Possession&lt;br/&gt;"/></markers>
