<?xml version="1.0"?>
<markers><marker lat="40.422858643578941" lng="-80.003747034997517" zone="Zone 3" incidentdate="2016-05-13" incidenttime="09:00:00" incidentnumber="16087534" address="100 block Harwood St" type="OFFENSE" age="" gender="" description="*********************************************** &lt;br/&gt;3921(a), Theft by Unlawful Taking or Disposition - Movable item&lt;br/&gt;"/><marker lat="40.460951896902024" lng="-79.93360519125261" zone="Zone 5" incidentdate="2016-05-13" incidenttime="18:00:00" incidentnumber="16087914" address="300 block Stratford Ave" type="OFFENSE" age="" gender="" description="*********************************************** &lt;br/&gt;3921, Theft by Unlawful Taking or Disposition.&lt;br/&gt;2709(a)(1), Harassment by Physical Contact, or Attempts or Threats&lt;br/&gt;"/><marker lat="40.443610698976059" lng="-79.998043561602501" zone="Zone 2" incidentdate="2016-05-13" incidenttime="15:21:00" incidentnumber="16087741" address="900 block Penn Ave" type="OFFENSE" age="" gender="" description="*********************************************** &lt;br/&gt;5503(a)(1), DISORDERLY CONDUCT - ENGAGE IN FIGHTING&lt;br/&gt;"/><marker lat="40.446263051038443" lng="-80.012336576772157" zone="Zone 1" incidentdate="2016-05-13" incidenttime="21:41:00" incidentnumber="16088006" address="400 block N Shore Dr" type="OFFENSE" age="" gender="" description="*********************************************** &lt;br/&gt;5503, Disorderly Conduct.&lt;br/&gt;2702, Aggravated Assault.&lt;br/&gt;5505, Public Drunkenness&lt;br/&gt;3503.B1I, DEF. TRESPASS ACTUAL COMMUNICATION&lt;br/&gt;"/><marker lat="40.461388701969902" lng="-79.919099321688464" zone="Zone 5" incidentdate="2016-05-13" incidenttime="18:29:00" incidentnumber="16087883" address="Esmond Ct" type="OFFENSE" age="" gender="" description="*********************************************** &lt;br/&gt;3921, Theft by Unlawful Taking or Disposition.&lt;br/&gt;4106, Access Device Fraud&lt;br/&gt;"/><marker lat="40.448011981164164" lng="-79.894535528545987" zone="Zone 4" incidentdate="2016-05-13" incidenttime="13:25:00" incidentnumber="16087680" address="Meade St &amp; N Braddock Ave" type="OFFENSE" age="" gender="" description="*********************************************** &lt;br/&gt;3934, Theft from Vehicle&lt;br/&gt;"/><marker lat="40.395979031984503" lng="-80.029184474958257" zone="Zone 6" incidentdate="2016-05-13" incidenttime="14:00:00" incidentnumber="16087734" address="2700 block Waddington Ave" type="OFFENSE" age="" gender="" description="*********************************************** &lt;br/&gt;4912, Impersonating a Public Servant.&lt;br/&gt;"/><marker lat="40.441137684867279" lng="-79.957585934716349" zone="Zone 4" incidentdate="2016-05-13" incidenttime="02:30:00" incidentnumber="16087432" address="200 block Atwood St" type="OFFENSE" age="" gender="" description="*********************************************** &lt;br/&gt;13(a)(16), Possession of Controlled Substance&lt;br/&gt;5104, Resisting Arrest or Other Law Enforcement.&lt;br/&gt;5505, Public Drunkenness&lt;br/&gt;4914, False Identification to Law Enforcement Authorities&lt;br/&gt;6310.3(a), Carrying a False Identification Card; under 21 to obtain liquor&lt;br/&gt;"/><marker lat="40.391579872568094" lng="-80.015378713407102" zone="Zone 6" incidentdate="2016-05-13" incidenttime="07:20:00" incidentnumber="16087503" address="1100 block Brookline Blvd" type="OFFENSE" age="" gender="" description="*********************************************** &lt;br/&gt;3745, Accidents Involving Damage to Unattended Veh.or Prop.&lt;br/&gt;"/><marker lat="40.386011139880388" lng="-79.989166031695731" zone="Zone 3" incidentdate="2016-05-13" incidenttime="00:01:00" incidentnumber="16087888" address="400 block Olivet Ave" type="OFFENSE" age="" gender="" description="*********************************************** &lt;br/&gt;4106, Access Device Fraud&lt;br/&gt;"/><marker lat="40.428758587531433" lng="-79.980561963586084" zone="Zone 3" incidentdate="2016-05-13" incidenttime="00:13:00" incidentnumber="16087335" address="E Carson St &amp; S 18th St" type="OFFENSE" age="" gender="" description="*********************************************** &lt;br/&gt;3925, Receiving Stolen Property.&lt;br/&gt;6106, Firearms not to be Carried without a License.&lt;br/&gt;6117, Altering or Obliterating Marks of Identification.&lt;br/&gt;"/><marker lat="40.390463719938886" lng="-80.015865214278676" zone="Zone 6" incidentdate="2016-05-13" incidenttime="16:30:00" incidentnumber="16087859" address="1100 block Chelton Ave" type="OFFENSE" age="" gender="" description="*********************************************** &lt;br/&gt;4120, Identity Theft&lt;br/&gt;"/><marker lat="40.496043807332242" lng="-80.007875434923847" zone="Zone 1" incidentdate="2016-05-13" incidenttime="00:27:00" incidentnumber="16087344" address="Ivory Ave &amp; Evergreen Rd" type="OFFENSE" age="" gender="" description="*********************************************** &lt;br/&gt;3802(a)(1), DUI - General Impairment&lt;br/&gt;3802(c), DUI - Highest Rate of Alcohol - BAC &gt;= .16%&lt;br/&gt;"/><marker lat="40.453539170738004" lng="-80.000575279128412" zone="Zone 1" incidentdate="2016-05-13" incidenttime="05:43:00" incidentnumber="16087461" address="500 block East Ohio St" type="OFFENSE" age="" gender="" description="*********************************************** &lt;br/&gt;3502, Burglary.&lt;br/&gt;"/><marker lat="40.460894534000211" lng="-79.915159883657239" zone="Zone 5" incidentdate="2016-05-13" incidenttime="18:20:00" incidentnumber="16087880" address="Frankstown Ave &amp; Paulson Ave" type="OFFENSE" age="" gender="" description="*********************************************** &lt;br/&gt;3304(a)(5), CRIMINAL MISCHIEF - Intentionally Damages Real Or Personal Property Of Another&lt;br/&gt;2706, Terroristic Threats.&lt;br/&gt;2709(a)(3), Harassment No Legitimate Purpose&lt;br/&gt;2709(b), Stalking&lt;br/&gt;2709(a)(5), Harassment Communicates Repeatedly in Anonymous Manner&lt;br/&gt;2709(a)(2), Harassment by Following Person in Public Place(s)&lt;br/&gt;"/><marker lat="40.45695499739071" lng="-80.061300693660385" zone="Zone 6" incidentdate="2016-05-13" incidenttime="11:15:00" incidentnumber="16087765" address="3300 block Francisco St" type="OFFENSE" age="" gender="" description="*********************************************** &lt;br/&gt;3304, Criminal Mischief.&lt;br/&gt;2709(a)(1), Harassment by Physical Contact, or Attempts or Threats&lt;br/&gt;"/><marker lat="40.438288712573893" lng="-79.988307080841821" zone="Zone 2" incidentdate="2016-05-13" incidenttime="19:40:00" incidentnumber="16087930" address="Magee St &amp; Watson St" type="OFFENSE" age="" gender="" description="*********************************************** &lt;br/&gt;5507, Obstructing Highways and Passages.&lt;br/&gt;602.04(b)(2), Aggressive Panhandling&lt;br/&gt;"/><marker lat="40.367829838292629" lng="-79.918774795536976" zone="Zone 4" incidentdate="2016-05-13" incidenttime="17:06:00" incidentnumber="16087797" address="5600 block Ollie St" type="OFFENSE" age="" gender="" description="*********************************************** &lt;br/&gt;9497, Aided Case&lt;br/&gt;"/><marker lat="40.449863152010835" lng="-79.884248180018517" zone="Zone 5" incidentdate="2016-05-13" incidenttime="15:00:00" incidentnumber="16087767" address="8000 block Nimick Pl" type="OFFENSE" age="" gender="" description="*********************************************** &lt;br/&gt;2709, Harassment (Non-Specific)&lt;br/&gt;4912, Impersonating a Public Servant.&lt;br/&gt;"/><marker lat="40.421796968159853" lng="-80.012747466268337" zone="Zone 3" incidentdate="2016-05-13" incidenttime="06:50:00" incidentnumber="16087477" address="600 block Southern Ave" type="OFFENSE" age="" gender="" description="*********************************************** &lt;br/&gt;2705, Recklessly Endangering Another Person.&lt;br/&gt;2702, Aggravated Assault.&lt;br/&gt;2701, Simple Assault.&lt;br/&gt;2706, Terroristic Threats.&lt;br/&gt;"/><marker lat="40.448800264565456" lng="-79.987415224990301" zone="Zone 2" incidentdate="2016-05-13" incidenttime="01:20:00" incidentnumber="16087366" address="1600 block Penn Ave" type="OFFENSE" age="" gender="" description="*********************************************** &lt;br/&gt;3745, Accidents Involving Damage to Unattended Veh.or Prop.&lt;br/&gt;"/><marker lat="40.442699834204745" lng="-80.002206793246714" zone="Zone 2" incidentdate="2016-05-13" incidenttime="15:05:00" incidentnumber="16087730" address="200 block 6th St" type="OFFENSE" age="" gender="" description="*********************************************** &lt;br/&gt;13(a)(32), Paraphernalia - Use or Possession&lt;br/&gt;3929, Retail Theft.&lt;br/&gt;3503(b.1)(i), Simple Trespasser -- threatening or terrorizing the owner or occupant of the premises&lt;br/&gt;"/><marker lat="40.442099610175106" lng="-79.999498348299113" zone="Zone 2" incidentdate="2016-05-13" incidenttime="15:00:00" incidentnumber="16087770" address="Wood St &amp; 6th Ave" type="OFFENSE" age="" gender="" description="*********************************************** &lt;br/&gt;2701, Simple Assault.&lt;br/&gt;"/><marker lat="40.437765998839865" lng="-80.00010722975037" zone="Zone 2" incidentdate="2016-05-13" incidenttime="01:20:00" incidentnumber="16087372" address="200 block Smithfield St" type="OFFENSE" age="" gender="" description="*********************************************** &lt;br/&gt;2709(a)(3), Harassment No Legitimate Purpose&lt;br/&gt;"/><marker lat="40.4550206" lng="-80.0558082" zone="Zone 6" incidentdate="2016-05-13" incidenttime="19:45:00" incidentnumber="16087937" address="700 block Sherwood Ave" type="OFFENSE" age="" gender="" description="*********************************************** &lt;br/&gt;9999, 9999 - (Misc. Incident):&lt;br/&gt;"/><marker lat="40.426655631127865" lng="-80.02301213458307" zone="Zone 3" incidentdate="2016-05-13" incidenttime="10:30:00" incidentnumber="16087588" address="900 block Saw Mill Run Blvd" type="OFFENSE" age="" gender="" description="*********************************************** &lt;br/&gt;3304, Criminal Mischief.&lt;br/&gt;"/><marker lat="40.422966172979606" lng="-79.926495911312728" zone="Zone 4" incidentdate="2016-05-13" incidenttime="19:30:00" incidentnumber="16087931" address="4200 block Saline St" type="OFFENSE" age="" gender="" description="*********************************************** &lt;br/&gt;9999, 9999 - (Misc. Incident):&lt;br/&gt;"/><marker lat="40.46250851162214" lng="-79.990891532482706" zone="Zone 1" incidentdate="2016-05-13" incidenttime="08:30:00" incidentnumber="16087533" address="1300 block Itin St" type="OFFENSE" age="" gender="" description="*********************************************** &lt;br/&gt;3304, Criminal Mischief.&lt;br/&gt;"/><marker lat="40.437344950831772" lng="-79.981322200027023" zone="Zone 2" incidentdate="2016-05-13" incidenttime="01:20:00" incidentnumber="16087354" address="1800 block Forbes Ave" type="OFFENSE" age="" gender="" description="*********************************************** &lt;br/&gt;9501, Bench Warrant&lt;br/&gt;2701, Simple Assault.&lt;br/&gt;"/><marker lat="40.428585203983602" lng="-79.981869007680203" zone="Zone 3" incidentdate="2016-05-13" incidenttime="00:41:00" incidentnumber="16087351" address="1700 block E Carson St" type="OFFENSE" age="" gender="" description="*********************************************** &lt;br/&gt;5503(a)(4), DISORDERLY CONDUCT - HAZARDOUS/PHYS. OFF&lt;br/&gt;2701, Simple Assault.&lt;br/&gt;5505, Public Drunkenness&lt;br/&gt;2706, Terroristic Threats.&lt;br/&gt;"/><marker lat="40.457013817248601" lng="-80.021211916442809" zone="Zone 1" incidentdate="2016-05-13" incidenttime="17:40:00" incidentnumber="16087849" address="1000 block N FRANKLIN St" type="OFFENSE" age="" gender="" description="*********************************************** &lt;br/&gt;2709(a)(1), Harassment by Physical Contact, or Attempts or Threats&lt;br/&gt;"/><marker lat="40.455026202654238" lng="-79.983011772991617" zone="Zone 2" incidentdate="2016-05-13" incidenttime="19:16:00" incidentnumber="16087887" address="2400 block Railroad St" type="OFFENSE" age="" gender="" description="*********************************************** &lt;br/&gt;3921(a), Theft by Unlawful Taking or Disposition - Movable item&lt;br/&gt;"/><marker lat="40.462427061866322" lng="-79.92435329167472" zone="Zone 5" incidentdate="2016-05-13" incidenttime="17:20:00" incidentnumber="16087836" address="6000 block Broad St" type="OFFENSE" age="" gender="" description="*********************************************** &lt;br/&gt;2701, Simple Assault.&lt;br/&gt;1543, Driving While Operating Privilege is Suspended or Revoked.&lt;br/&gt;5503(a)(1), DISORDERLY CONDUCT - ENGAGE IN FIGHTING&lt;br/&gt;"/><marker lat="40.393715862861931" lng="-80.019968520749018" zone="Zone 6" incidentdate="2016-05-13" incidenttime="18:44:00" incidentnumber="16087871" address="Flatbush Ave &amp; Brookline Blvd" type="OFFENSE" age="" gender="" description="*********************************************** &lt;br/&gt;5505, Public Drunkenness&lt;br/&gt;"/><marker lat="40.454568730584761" lng="-79.999389413807066" zone="Zone 1" incidentdate="2016-05-13" incidenttime="15:23:00" incidentnumber="16087927" address="Middle St &amp; Foreland St" type="OFFENSE" age="" gender="" description="*********************************************** &lt;br/&gt;3304, Criminal Mischief.&lt;br/&gt;"/><marker lat="40.413517600288614" lng="-80.000270155318148" zone="Zone 3" incidentdate="2016-05-13" incidenttime="17:05:00" incidentnumber="16087816" address="400 block Vandalia St" type="OFFENSE" age="" gender="" description="*********************************************** &lt;br/&gt;3304, Criminal Mischief.&lt;br/&gt;2705, Recklessly Endangering Another Person.&lt;br/&gt;2701, Simple Assault.&lt;br/&gt;"/><marker lat="40.46855136676831" lng="-79.906391023787634" zone="Zone 5" incidentdate="2016-05-13" incidenttime="07:10:00" incidentnumber="16087800" address="6400 block Apple Ave" type="OFFENSE" age="" gender="" description="*********************************************** &lt;br/&gt;3934, Theft from Vehicle&lt;br/&gt;"/><marker lat="40.446270277905342" lng="-79.970729724241167" zone="Zone 2" incidentdate="2016-05-13" incidenttime="20:36:00" incidentnumber="16087966" address="Junilla St &amp; Elba St" type="OFFENSE" age="" gender="" description="*********************************************** &lt;br/&gt;13(a)(32), Paraphernalia - Use or Possession&lt;br/&gt;9501, Bench Warrant&lt;br/&gt;"/><marker lat="40.454204011355536" lng="-80.021261849835767" zone="Zone 1" incidentdate="2016-05-13" incidenttime="20:00:00" incidentnumber="16087928" address="1100 block Sheffield St" type="OFFENSE" age="" gender="" description="*********************************************** &lt;br/&gt;8106, Shots Fired&lt;br/&gt;"/><marker lat="40.466157023204467" lng="-79.98535298496779" zone="Zone 1" incidentdate="2016-05-13" incidenttime="22:59:00" incidentnumber="16088048" address="1600 block Spring Garden Ave" type="OFFENSE" age="" gender="" description="*********************************************** &lt;br/&gt;5503, Disorderly Conduct.&lt;br/&gt;5505, Public Drunkenness&lt;br/&gt;3503.B1I, DEF. TRESPASS ACTUAL COMMUNICATION&lt;br/&gt;"/><marker lat="40.42308350105106" lng="-79.903074737915318" zone="Zone 4" incidentdate="2016-05-13" incidenttime="17:50:00" incidentnumber="16087856" address="1200 block Windermere Dr" type="OFFENSE" age="" gender="" description="*********************************************** &lt;br/&gt;9504, Lost Property&lt;br/&gt;"/><marker lat="40.487492117031167" lng="-79.92019570326714" zone="Zone 5" incidentdate="2016-05-13" incidenttime="17:00:00" incidentnumber="16087793" address="Baker St &amp; Butler St" type="OFFENSE" age="" gender="" description="*********************************************** &lt;br/&gt;13(a)(16), Possession of Controlled Substance&lt;br/&gt;13(a)(32), Paraphernalia - Use or Possession&lt;br/&gt;"/><marker lat="40.431441882854926" lng="-80.01078734053786" zone="Zone 3" incidentdate="2016-05-13" incidenttime="17:10:00" incidentnumber="16087817" address="300 block Virginia Ave" type="OFFENSE" age="" gender="" description="*********************************************** &lt;br/&gt;2709, Harassment (Non-Specific)&lt;br/&gt;2706, Terroristic Threats.&lt;br/&gt;"/><marker lat="40.438610014203924" lng="-79.968020290435504" zone="Zone 2" incidentdate="2016-05-13" incidenttime="08:15:00" incidentnumber="16087604" address="200 block BURROWS St" type="OFFENSE" age="" gender="" description="*********************************************** &lt;br/&gt;2709, Harassment (Non-Specific)&lt;br/&gt;"/><marker lat="40.468779162131661" lng="-79.985624774626743" zone="Zone 1" incidentdate="2016-05-13" incidenttime="14:20:00" incidentnumber="16087714" address="1900 block Spring Garden Ave" type="OFFENSE" age="" gender="" description="*********************************************** &lt;br/&gt;3702, Robbery of Motor Vehicle.&lt;br/&gt;"/><marker lat="40.4659905" lng="-79.9817767" zone="Zone 1" incidentdate="2016-05-13" incidenttime="17:30:00" incidentnumber="16087834" address="31st St Brg &amp; Rialto St" type="OFFENSE" age="" gender="" description="*********************************************** &lt;br/&gt;5507, Obstructing Highways and Passages.&lt;br/&gt;6501(a)(1), Scattering Rubbish; Any waste, dangerous or detrimental substance upon public property or waters&lt;br/&gt;"/><marker lat="40.460706790003542" lng="-79.923780776230444" zone="Zone 5" incidentdate="2016-05-13" incidenttime="14:30:00" incidentnumber="16087722" address="6100 block Penn Ave" type="OFFENSE" age="" gender="" description="*********************************************** &lt;br/&gt;9501, Bench Warrant&lt;br/&gt;"/><marker lat="40.478310116886512" lng="-80.037282376001983" zone="Zone 1" incidentdate="2016-05-13" incidenttime="11:51:00" incidentnumber="16087617" address="1500 block Hubbard St" type="OFFENSE" age="" gender="" description="*********************************************** &lt;br/&gt;3503(a), Criminal Trespass&lt;br/&gt;"/><marker lat="40.466877756870879" lng="-79.994177935104844" zone="Zone 1" incidentdate="2016-05-13" incidenttime="09:05:00" incidentnumber="16087517" address="100 block Rhine Pl" type="OFFENSE" age="" gender="" description="*********************************************** &lt;br/&gt;2706, Terroristic Threats.&lt;br/&gt;"/><marker lat="40.452042212663898" lng="-80.008738896002342" zone="Zone 1" incidentdate="2016-05-13" incidenttime="17:09:00" incidentnumber="16087832" address="200 block Ridge Ave" type="OFFENSE" age="" gender="" description="*********************************************** &lt;br/&gt;029, Missing Juvenile&lt;br/&gt;"/><marker lat="40.475421707796627" lng="-80.03740953062777" zone="Zone 1" incidentdate="2016-05-13" incidenttime="00:01:00" incidentnumber="16087221" address="3300 block Fleming Ave" type="OFFENSE" age="" gender="" description="*********************************************** &lt;br/&gt;13(a)(16), Possession of Controlled Substance&lt;br/&gt;13(a)(30), Possession w/ Intent to Del. Controlled Substance&lt;br/&gt;13(a)(32), Paraphernalia - Use or Possession&lt;br/&gt;5104, Resisting Arrest or Other Law Enforcement.&lt;br/&gt;6308(a), Underage Purchase, Consume, Possessed or Transport Liquor&lt;br/&gt;5101, Obstructing Admin. of Law&lt;br/&gt;3925, Receiving Stolen Property.&lt;br/&gt;903, Criminal Conspiracy.&lt;br/&gt;907, Possessing Instruments of Crime.&lt;br/&gt;6110.2, Possesion of Firearm with Altered Mfg. Number&lt;br/&gt;"/><marker lat="40.429225878504681" lng="-79.985118718653496" zone="Zone 3" incidentdate="2016-05-13" incidenttime="15:30:00" incidentnumber="16087821" address="1300 block Bingham St" type="OFFENSE" age="" gender="" description="*********************************************** &lt;br/&gt;3304, Criminal Mischief.&lt;br/&gt;"/><marker lat="40.423181653741167" lng="-79.928733488981621" zone="Zone 4" incidentdate="2016-05-13" incidenttime="17:19:00" incidentnumber="16087828" address="4200 block Murray Ave" type="OFFENSE" age="" gender="" description="*********************************************** &lt;br/&gt;3745, Accidents Involving Damage to Unattended Veh.or Prop.&lt;br/&gt;"/><marker lat="40.442584949905417" lng="-80.001789508770926" zone="Zone 2" incidentdate="2016-05-13" incidenttime="12:13:00" incidentnumber="16048738" address="600 block Penn Ave" type="OFFENSE" age="" gender="" description="*********************************************** &lt;br/&gt;3922, Theft by Deception.&lt;br/&gt;4101, Forgery.&lt;br/&gt;"/><marker lat="40.4499400" lng="-79.8782795" zone="Zone 5" incidentdate="2016-05-13" incidenttime="00:05:00" incidentnumber="16087302" address="1800 block Fahnestock St" type="OFFENSE" age="" gender="" description="*********************************************** &lt;br/&gt;9489, Found Property&lt;br/&gt;"/><marker lat="40.387167963125073" lng="-79.983326314937173" zone="Zone 3" incidentdate="2016-05-13" incidenttime="16:46:00" incidentnumber="16087802" address="Carrick Ave" type="OFFENSE" age="" gender="" description="*********************************************** &lt;br/&gt;2705, Recklessly Endangering Another Person.&lt;br/&gt;2702, Aggravated Assault.&lt;br/&gt;3701, Robbery.&lt;br/&gt;903, Criminal Conspiracy.&lt;br/&gt;2701(a)(1), Simple Assault - Intent., Know., Reckless.Cause Bod. Injury&lt;br/&gt;"/><marker lat="40.456219220028117" lng="-80.002621271585497" zone="Zone 1" incidentdate="2016-05-13" incidenttime="17:11:00" incidentnumber="16087823" address="Cedar Ave &amp; E North Ave" type="OFFENSE" age="" gender="" description="*********************************************** &lt;br/&gt;13(a)(32), Paraphernalia - Use or Possession&lt;br/&gt;9501, Bench Warrant&lt;br/&gt;4914, False Identification to Law Enforcement Authorities&lt;br/&gt;"/><marker lat="40.460919418024339" lng="-79.950997253476103" zone="Zone 5" incidentdate="2016-05-13" incidenttime="00:01:00" incidentnumber="16087820" address="400 block Pearl St" type="OFFENSE" age="" gender="" description="*********************************************** &lt;br/&gt;2709(a)(1), Harassment by Physical Contact, or Attempts or Threats&lt;br/&gt;4912, Impersonating a Public Servant.&lt;br/&gt;"/><marker lat="40.463546498591519" lng="-79.957576762955654" zone="Zone 2" incidentdate="2016-05-13" incidenttime="13:45:00" incidentnumber="16087898" address="500 block 40th St" type="OFFENSE" age="" gender="" description="*********************************************** &lt;br/&gt;4106, Access Device Fraud&lt;br/&gt;"/><marker lat="40.467465940925841" lng="-79.908833274714695" zone="Zone 5" incidentdate="2016-05-13" incidenttime="11:30:00" incidentnumber="16087824" address="1300 block Washington Blvd" type="OFFENSE" age="" gender="" description="*********************************************** &lt;br/&gt;3924, Theft of Property Lost, Mislaid or Delivered by Mistake.&lt;br/&gt;"/><marker lat="40.444883171558565" lng="-79.894672150605913" zone="Zone 4" incidentdate="2016-05-13" incidenttime="06:15:00" incidentnumber="16087511" address="7700 block Brashear St" type="OFFENSE" age="" gender="" description="*********************************************** &lt;br/&gt;3921(a), Theft by Unlawful Taking or Disposition - Movable item&lt;br/&gt;"/><marker lat="40.435095503606554" lng="-79.993077686753679" zone="Zone 2" incidentdate="2016-05-13" incidenttime="12:13:00" incidentnumber="16047321" address="900 block Second Ave" type="OFFENSE" age="" gender="" description="*********************************************** &lt;br/&gt;3922, Theft by Deception.&lt;br/&gt;4101, Forgery.&lt;br/&gt;"/><marker lat="40.419076839454924" lng="-80.005960870254327" zone="Zone 3" incidentdate="2016-05-13" incidenttime="17:05:00" incidentnumber="16087841" address="100 block Climax St" type="OFFENSE" age="" gender="" description="*********************************************** &lt;br/&gt;3923, Theft by Extortion.&lt;br/&gt;"/><marker lat="40.46725205961728" lng="-79.91288627597271" zone="Zone 5" incidentdate="2016-05-13" incidenttime="07:25:00" incidentnumber="16087496" address="600 block Leonora St" type="OFFENSE" age="" gender="" description="*********************************************** &lt;br/&gt;13(a)(31), Marijuana: Possession Small Amount&lt;br/&gt;3925, Receiving Stolen Property.&lt;br/&gt;6106, Firearms not to be Carried without a License.&lt;br/&gt;6105(a)(1), Persons not to possess, use, manufacture, control, sell or transfer firearms: Former convict enumerated in subsection (b)&lt;br/&gt;"/><marker lat="40.437752828499235" lng="-79.972824767216693" zone="Zone 2" incidentdate="2016-05-13" incidenttime="04:12:00" incidentnumber="16087439" address="5th Ave &amp; Kirkpatrick St" type="OFFENSE" age="" gender="" description="*********************************************** &lt;br/&gt;3736, Reckless Driving&lt;br/&gt;3802(a)(1), DUI - General Impairment&lt;br/&gt;"/><marker lat="40.467710129126026" lng="-79.930218731989413" zone="Zone 5" incidentdate="2016-05-13" incidenttime="07:54:00" incidentnumber="16087575" address="5500 block Rippey Pl" type="OFFENSE" age="" gender="" description="*********************************************** &lt;br/&gt;2701, Simple Assault.&lt;br/&gt;"/><marker lat="40.449216527656368" lng="-79.882636576329489" zone="Zone 5" incidentdate="2016-05-13" incidenttime="20:55:00" incidentnumber="16087976" address="500 block Singer Pl" type="OFFENSE" age="" gender="" description="*********************************************** &lt;br/&gt;3304, Criminal Mischief.&lt;br/&gt;3921(a), Theft by Unlawful Taking or Disposition - Movable item&lt;br/&gt;"/><marker lat="40.427625356005251" lng="-79.983469085110642" zone="Zone 3" incidentdate="2016-05-13" incidenttime="01:56:00" incidentnumber="16087382" address="S 15th St &amp; Sarah St" type="OFFENSE" age="" gender="" description="*********************************************** &lt;br/&gt;5505, Public Drunkenness&lt;br/&gt;"/><marker lat="40.455998270328337" lng="-79.915376166617065" zone="Zone 5" incidentdate="2016-05-13" incidenttime="14:15:00" incidentnumber="16087762" address="6500 block Penn Ave" type="OFFENSE" age="" gender="" description="*********************************************** &lt;br/&gt;3745, Accidents Involving Damage to Unattended Veh.or Prop.&lt;br/&gt;"/><marker lat="40.403229872244545" lng="-79.986388575762803" zone="Zone 3" incidentdate="2016-05-13" incidenttime="11:15:00" incidentnumber="16087633" address="200 block Linnview Ave" type="OFFENSE" age="" gender="" description="*********************************************** &lt;br/&gt;2709(a), Harassment.&lt;br/&gt;"/><marker lat="40.441919441965581" lng="-79.982892744621594" zone="Zone 2" incidentdate="2016-05-13" incidenttime="20:50:00" incidentnumber="16087973" address="1800 block Centre Ave" type="OFFENSE" age="" gender="" description="*********************************************** &lt;br/&gt;13(a)(16), Possession of Controlled Substance&lt;br/&gt;13(a)(30), Possession w/ Intent to Del. Controlled Substance&lt;br/&gt;13(a)(30)*, Delivery of Controlled Substance&lt;br/&gt;13(a)(31), Marijuana: Possession Small Amount&lt;br/&gt;1543, Driving While Operating Privilege is Suspended or Revoked.&lt;br/&gt;7512, Criminal Use of Communication&lt;br/&gt;"/><marker lat="40.459953890553351" lng="-79.925043274541594" zone="Zone 4" incidentdate="2016-05-13" incidenttime="11:20:00" incidentnumber="16087614" address="Centre Ave &amp; S Highland Ave" type="OFFENSE" age="" gender="" description="*********************************************** &lt;br/&gt;13(a)(16), Possession of Controlled Substance&lt;br/&gt;4910, Tampering with or Fabricating Physical Evidence.&lt;br/&gt;1543, Driving While Operating Privilege is Suspended or Revoked.&lt;br/&gt;3334, Turning Movements and Required Signals.&lt;br/&gt;908, Prohibited Offensive Weapons.&lt;br/&gt;"/><marker lat="40.424714617808156" lng="-80.012683053846217" zone="Zone 3" incidentdate="2016-05-13" incidenttime="19:00:00" incidentnumber="16087939" address="Norton St" type="OFFENSE" age="" gender="" description="*********************************************** &lt;br/&gt;9496, Dead on Arrival (DOA)&lt;br/&gt;"/><marker lat="40.456263809253123" lng="-79.904759424811445" zone="Zone 5" incidentdate="2016-05-13" incidenttime="15:45:00" incidentnumber="16087766" address="Hamilton Ave &amp; N Dallas Ave" type="OFFENSE" age="" gender="" description="*********************************************** &lt;br/&gt;3921, Theft by Unlawful Taking or Disposition.&lt;br/&gt;"/><marker lat="40.43007247445037" lng="-80.053908499092216" zone="Zone 6" incidentdate="2016-05-13" incidenttime="19:10:00" incidentnumber="16087936" address="2200 block Noblestown Rd" type="OFFENSE" age="" gender="" description="*********************************************** &lt;br/&gt;3743, Accidents Involving Damage to Attended Veh. or Property&lt;br/&gt;"/><marker lat="40.438367888293556" lng="-80.004376760638351" zone="Zone 2" incidentdate="2016-05-13" incidenttime="09:20:00" incidentnumber="16087565" address="100 block 1ST. Ave" type="OFFENSE" age="" gender="" description="*********************************************** &lt;br/&gt;3921, Theft by Unlawful Taking or Disposition.&lt;br/&gt;"/><marker lat="40.457167514471287" lng="-80.013535151310023" zone="Zone 1" incidentdate="2016-05-13" incidenttime="05:10:00" incidentnumber="16087473" address="Jacksonia St &amp; Monterey St" type="OFFENSE" age="" gender="" description="*********************************************** &lt;br/&gt;13(a)(31), Marijuana: Possession Small Amount&lt;br/&gt;"/><marker lat="40.399184649147095" lng="-80.025493435297477" zone="Zone 6" incidentdate="2016-05-13" incidenttime="02:20:00" incidentnumber="16087398" address="2500 block West Liberty Ave" type="OFFENSE" age="" gender="" description="*********************************************** &lt;br/&gt;3921(a), Theft by Unlawful Taking or Disposition - Movable item&lt;br/&gt;2702, Aggravated Assault.&lt;br/&gt;"/><marker lat="40.4530676" lng="-80.0030662" zone="Zone 1" incidentdate="2016-05-13" incidenttime="03:37:00" incidentnumber="16087430" address="200 block East Ohio St" type="OFFENSE" age="" gender="" description="*********************************************** &lt;br/&gt;9488, False  Burglar Alarm&lt;br/&gt;"/><marker lat="40.467710129126026" lng="-79.930218731989413" zone="Zone 5" incidentdate="2016-05-13" incidenttime="10:47:00" incidentnumber="16087575" address="5500 block Rippey Pl" type="ARREST" age="29" gender="F" description="*********************************************** &lt;br/&gt;2701, Simple Assault.&lt;br/&gt;"/><marker lat="40.408117826338788" lng="-79.945917480605573" zone="Zone 4" incidentdate="2016-05-13" incidenttime="23:45:00" incidentnumber="16043518" address="Lytle St &amp; Tecumseh St" type="ARREST" age="60" gender="M" description="*********************************************** &lt;br/&gt;13(a)(16), Possession of Controlled Substance&lt;br/&gt;13(a)(32), Paraphernalia - Use or Possession&lt;br/&gt;9501, Bench Warrant&lt;br/&gt;"/><marker lat="40.456219220028117" lng="-80.002621271585497" zone="Zone 1" incidentdate="2016-05-13" incidenttime="17:30:00" incidentnumber="16087823" address="Cedar Ave &amp; E North Ave" type="ARREST" age="34" gender="F" description="*********************************************** &lt;br/&gt;13(a)(32), Paraphernalia - Use or Possession&lt;br/&gt;9501, Bench Warrant&lt;br/&gt;4914, False Identification to Law Enforcement Authorities&lt;br/&gt;"/><marker lat="40.446263051038443" lng="-80.012336576772157" zone="Zone 1" incidentdate="2016-05-13" incidenttime="21:41:00" incidentnumber="16088006" address="400 block N Shore Dr" type="ARREST" age="21" gender="F" description="*********************************************** &lt;br/&gt;5503, Disorderly Conduct.&lt;br/&gt;2702, Aggravated Assault.&lt;br/&gt;5505, Public Drunkenness&lt;br/&gt;3503.B1I, DEF. TRESPASS ACTUAL COMMUNICATION&lt;br/&gt;"/><marker lat="40.438288712573893" lng="-79.988307080841821" zone="Zone 2" incidentdate="2016-05-13" incidenttime="19:31:00" incidentnumber="16087930" address="Magee St &amp; Watson St" type="ARREST" age="60" gender="M" description="*********************************************** &lt;br/&gt;5507, Obstructing Highways and Passages.&lt;br/&gt;602.04(b)(2), Aggressive Panhandling&lt;br/&gt;"/><marker lat="40.4790955" lng="-79.9177846" zone="Zone 5" incidentdate="2016-05-13" incidenttime="13:30:00" incidentnumber="15225682" address="1900 block N Euclid Ave" type="ARREST" age="36" gender="F" description="*********************************************** &lt;br/&gt;3304(a)(4), CRIMINAL MISCHIEF- Intentionally Damage Property (By Graffiti, Aerosol Spray Paint, Broad Tip Marker, or Similar)&lt;br/&gt;"/><marker lat="40.442699834204745" lng="-80.002206793246714" zone="Zone 2" incidentdate="2016-05-13" incidenttime="15:21:00" incidentnumber="16087730" address="200 block 6th St" type="ARREST" age="18" gender="F" description="*********************************************** &lt;br/&gt;13(a)(32), Paraphernalia - Use or Possession&lt;br/&gt;3929, Retail Theft.&lt;br/&gt;3503(b.1)(i), Simple Trespasser -- threatening or terrorizing the owner or occupant of the premises&lt;br/&gt;"/><marker lat="40.456938679070994" lng="-79.999947636278463" zone="Zone 5" incidentdate="2016-05-13" incidenttime="13:30:00" incidentnumber="15229350" address="600 block N Homewood Ave" type="ARREST" age="36" gender="F" description="*********************************************** &lt;br/&gt;3304(a)(4), CRIMINAL MISCHIEF- Intentionally Damage Property (By Graffiti, Aerosol Spray Paint, Broad Tip Marker, or Similar)&lt;br/&gt;9130, Graffiti Investigation&lt;br/&gt;"/><marker lat="40.437752828499235" lng="-79.972824767216693" zone="Zone 2" incidentdate="2016-05-13" incidenttime="04:27:00" incidentnumber="16087439" address="5th Ave &amp; Kirkpatrick St" type="ARREST" age="25" gender="F" description="*********************************************** &lt;br/&gt;3736, Reckless Driving&lt;br/&gt;3802(a)(1), DUI - General Impairment&lt;br/&gt;"/><marker lat="40.450284391121954" lng="-79.986503782715374" zone="Zone 2" incidentdate="2016-05-13" incidenttime="13:30:00" incidentnumber="16037780" address="1700 block Smallman St" type="ARREST" age="36" gender="F" description="*********************************************** &lt;br/&gt;3304(a)(4), CRIMINAL MISCHIEF- Intentionally Damage Property (By Graffiti, Aerosol Spray Paint, Broad Tip Marker, or Similar)&lt;br/&gt;"/><marker lat="40.5290761" lng="-80.0255770" zone="Zone 4" incidentdate="2016-05-13" incidenttime="13:30:00" incidentnumber="16037783" address="Hot Metal St Brg &amp; 2nd Ave" type="ARREST" age="36" gender="F" description="*********************************************** &lt;br/&gt;3304(a)(4), CRIMINAL MISCHIEF- Intentionally Damage Property (By Graffiti, Aerosol Spray Paint, Broad Tip Marker, or Similar)&lt;br/&gt;"/><marker lat="40.446270277905342" lng="-79.970729724241167" zone="Zone 2" incidentdate="2016-05-13" incidenttime="21:08:00" incidentnumber="16087966" address="Junilla St &amp; Elba St" type="ARREST" age="44" gender="M" description="*********************************************** &lt;br/&gt;13(a)(32), Paraphernalia - Use or Possession&lt;br/&gt;9501, Bench Warrant&lt;br/&gt;"/><marker lat="40.455106996864117" lng="-79.899642494381283" zone="Zone 5" incidentdate="2016-05-13" incidenttime="13:30:00" incidentnumber="15235823" address="N Lang Ave &amp; Hamilton Ave" type="ARREST" age="36" gender="F" description="*********************************************** &lt;br/&gt;3304(a)(4), CRIMINAL MISCHIEF- Intentionally Damage Property (By Graffiti, Aerosol Spray Paint, Broad Tip Marker, or Similar)&lt;br/&gt;9130, Graffiti Investigation&lt;br/&gt;"/><marker lat="40.448800264565456" lng="-79.987415224990301" zone="Zone 2" incidentdate="2016-05-13" incidenttime="13:30:00" incidentnumber="16037779" address="1600 block Penn Ave" type="ARREST" age="36" gender="F" description="*********************************************** &lt;br/&gt;3304(a)(4), CRIMINAL MISCHIEF- Intentionally Damage Property (By Graffiti, Aerosol Spray Paint, Broad Tip Marker, or Similar)&lt;br/&gt;"/><marker lat="40.459953890553351" lng="-79.925043274541594" zone="Zone 4" incidentdate="2016-05-13" incidenttime="11:20:00" incidentnumber="16087614" address="Centre Ave &amp; S Highland Ave" type="ARREST" age="40" gender="F" description="*********************************************** &lt;br/&gt;13(a)(16), Possession of Controlled Substance&lt;br/&gt;4910, Tampering with or Fabricating Physical Evidence.&lt;br/&gt;1543, Driving While Operating Privilege is Suspended or Revoked.&lt;br/&gt;3334, Turning Movements and Required Signals.&lt;br/&gt;908, Prohibited Offensive Weapons.&lt;br/&gt;"/><marker lat="40.399184649147095" lng="-80.025493435297477" zone="Zone 6" incidentdate="2016-05-13" incidenttime="03:10:00" incidentnumber="16087398" address="2500 block West Liberty Ave" type="ARREST" age="24" gender="M" description="*********************************************** &lt;br/&gt;3921(a), Theft by Unlawful Taking or Disposition - Movable item&lt;br/&gt;2702, Aggravated Assault.&lt;br/&gt;"/><marker lat="40.465878895844689" lng="-79.971028164418385" zone="Zone 2" incidentdate="2016-05-13" incidenttime="13:30:00" incidentnumber="16047328" address="35th St" type="ARREST" age="36" gender="F" description="*********************************************** &lt;br/&gt;3304(a)(4), CRIMINAL MISCHIEF- Intentionally Damage Property (By Graffiti, Aerosol Spray Paint, Broad Tip Marker, or Similar)&lt;br/&gt;"/><marker lat="40.448800264565456" lng="-79.987415224990301" zone="Zone 2" incidentdate="2016-05-13" incidenttime="13:30:00" incidentnumber="16037785" address="1600 block Penn Ave" type="ARREST" age="36" gender="F" description="*********************************************** &lt;br/&gt;3304(a)(4), CRIMINAL MISCHIEF- Intentionally Damage Property (By Graffiti, Aerosol Spray Paint, Broad Tip Marker, or Similar)&lt;br/&gt;"/><marker lat="40.487823540011732" lng="-79.897614208935366" zone="Zone 5" incidentdate="2016-05-13" incidenttime="08:10:00" incidentnumber="16074152" address="800 block Freeport Rd" type="ARREST" age="31" gender="F" description="*********************************************** &lt;br/&gt;5104, Resisting Arrest or Other Law Enforcement.&lt;br/&gt;2702, Aggravated Assault.&lt;br/&gt;3736, Reckless Driving&lt;br/&gt;1543, Driving While Operating Privilege is Suspended or Revoked.&lt;br/&gt;3929(a)(1), Retail Theft; takes possession of, carries away, or transfers displayed merchandise&lt;br/&gt;3929, Retail Theft.&lt;br/&gt;5121, Escape.&lt;br/&gt;3323, Stop Signs and Yield Signs.&lt;br/&gt;3929(a)(2), Retail Theft; alters  transfers  or removes label  price tag&lt;br/&gt;"/><marker lat="40.456645972111147" lng="-79.906649432588011" zone="Zone 5" incidentdate="2016-05-13" incidenttime="13:30:00" incidentnumber="15235824" address="6800 block Hamilton Ave" type="ARREST" age="36" gender="F" description="*********************************************** &lt;br/&gt;3304(a)(4), CRIMINAL MISCHIEF- Intentionally Damage Property (By Graffiti, Aerosol Spray Paint, Broad Tip Marker, or Similar)&lt;br/&gt;9130, Graffiti Investigation&lt;br/&gt;"/><marker lat="40.421796968159853" lng="-80.012747466268337" zone="Zone 3" incidentdate="2016-05-13" incidenttime="07:37:00" incidentnumber="16087477" address="600 block Southern Ave" type="ARREST" age="22" gender="F" description="*********************************************** &lt;br/&gt;2705, Recklessly Endangering Another Person.&lt;br/&gt;2702, Aggravated Assault.&lt;br/&gt;2701, Simple Assault.&lt;br/&gt;2706, Terroristic Threats.&lt;br/&gt;"/><marker lat="40.4659905" lng="-79.9817767" zone="Zone 1" incidentdate="2016-05-13" incidenttime="17:30:00" incidentnumber="16087834" address="31st St Brg &amp; Rialto St" type="ARREST" age="33" gender="M" description="*********************************************** &lt;br/&gt;5507, Obstructing Highways and Passages.&lt;br/&gt;6501(a)(1), Scattering Rubbish; Any waste, dangerous or detrimental substance upon public property or waters&lt;br/&gt;"/><marker lat="40.463257827024755" lng="-79.970843296594651" zone="Zone 2" incidentdate="2016-05-13" incidenttime="13:30:00" incidentnumber="16047331" address="100 block 33rd St" type="ARREST" age="36" gender="F" description="*********************************************** &lt;br/&gt;3304(a)(4), CRIMINAL MISCHIEF- Intentionally Damage Property (By Graffiti, Aerosol Spray Paint, Broad Tip Marker, or Similar)&lt;br/&gt;"/><marker lat="40.441919441965581" lng="-79.982892744621594" zone="Zone 2" incidentdate="2016-05-13" incidenttime="20:50:00" incidentnumber="16087973" address="1800 block Centre Ave" type="ARREST" age="26" gender="M" description="*********************************************** &lt;br/&gt;13(a)(16), Possession of Controlled Substance&lt;br/&gt;13(a)(30), Possession w/ Intent to Del. Controlled Substance&lt;br/&gt;13(a)(30)*, Delivery of Controlled Substance&lt;br/&gt;13(a)(31), Marijuana: Possession Small Amount&lt;br/&gt;1543, Driving While Operating Privilege is Suspended or Revoked.&lt;br/&gt;7512, Criminal Use of Communication&lt;br/&gt;"/><marker lat="40.454038272737556" lng="-79.867341042290406" zone="Zone 5" incidentdate="2016-05-13" incidenttime="13:00:00" incidentnumber="16059773" address="2200 block Wilner Dr" type="ARREST" age="25" gender="M" description="*********************************************** &lt;br/&gt;3502, Burglary.&lt;br/&gt;3304, Criminal Mischief.&lt;br/&gt;3921(a), Theft by Unlawful Taking or Disposition - Movable item&lt;br/&gt;4304(a)(1), Endangering Welfare of Children - Course of Conduct Enhanced&lt;br/&gt;2701, Simple Assault.&lt;br/&gt;3701, Robbery.&lt;br/&gt;2701(b)(2), Simple Assault -  Child Under 12 / Adult 21 Or Older&lt;br/&gt;"/><marker lat="40.457007815748646" lng="-79.933458442713274" zone="Zone 5" incidentdate="2016-05-13" incidenttime="13:30:00" incidentnumber="16052665" address="5700 block Centre Ave" type="ARREST" age="36" gender="F" description="*********************************************** &lt;br/&gt;3304(a)(4), CRIMINAL MISCHIEF- Intentionally Damage Property (By Graffiti, Aerosol Spray Paint, Broad Tip Marker, or Similar)&lt;br/&gt;"/><marker lat="40.428585203983602" lng="-79.981869007680203" zone="Zone 3" incidentdate="2016-05-13" incidenttime="00:50:00" incidentnumber="16087351" address="1700 block E Carson St" type="ARREST" age="21" gender="M" description="*********************************************** &lt;br/&gt;5503(a)(4), DISORDERLY CONDUCT - HAZARDOUS/PHYS. OFF&lt;br/&gt;2701, Simple Assault.&lt;br/&gt;5505, Public Drunkenness&lt;br/&gt;2706, Terroristic Threats.&lt;br/&gt;"/><marker lat="40.451945421387748" lng="-79.952009729366381" zone="Zone 4" incidentdate="2016-05-13" incidenttime="22:25:00" incidentnumber="16053851" address="4600 block Centre Ave" type="ARREST" age="43" gender="M" description="*********************************************** &lt;br/&gt;2709(b), Stalking&lt;br/&gt;3503(a), Criminal Trespass&lt;br/&gt;2709(a)(2), Harassment by Following Person in Public Place(s)&lt;br/&gt;"/><marker lat="40.467876401574117" lng="-79.907231654400434" zone="Zone 5" incidentdate="2016-05-13" incidenttime="13:30:00" incidentnumber="16077283" address="100 block Larimer Ave" type="ARREST" age="36" gender="F" description="*********************************************** &lt;br/&gt;3304(a)(4), CRIMINAL MISCHIEF- Intentionally Damage Property (By Graffiti, Aerosol Spray Paint, Broad Tip Marker, or Similar)&lt;br/&gt;3503(b.1)(1)(iii), Criminal Trespass/Simple Trespasser - Defacing or Damaging the Premises&lt;br/&gt;"/><marker lat="40.442584949905417" lng="-80.001789508770926" zone="Zone 2" incidentdate="2016-05-13" incidenttime="12:13:00" incidentnumber="16048738" address="600 block Penn Ave" type="ARREST" age="26" gender="F" description="*********************************************** &lt;br/&gt;3922, Theft by Deception.&lt;br/&gt;4101, Forgery.&lt;br/&gt;"/><marker lat="40.46725205961728" lng="-79.91288627597271" zone="Zone 5" incidentdate="2016-05-13" incidenttime="07:25:00" incidentnumber="16087496" address="600 block Leonora St" type="ARREST" age="22" gender="M" description="*********************************************** &lt;br/&gt;13(a)(31), Marijuana: Possession Small Amount&lt;br/&gt;3925, Receiving Stolen Property.&lt;br/&gt;6106, Firearms not to be Carried without a License.&lt;br/&gt;6105(a)(1), Persons not to possess, use, manufacture, control, sell or transfer firearms: Former convict enumerated in subsection (b)&lt;br/&gt;"/><marker lat="40.42127287812697" lng="-79.992005012476255" zone="Zone 3" incidentdate="2016-05-13" incidenttime="18:10:00" incidentnumber="16079631" address="900 block Manton Way" type="ARREST" age="14" gender="M" description="*********************************************** &lt;br/&gt;3701, Robbery.&lt;br/&gt;903, Criminal Conspiracy.&lt;br/&gt;"/><marker lat="40.428758587531433" lng="-79.980561963586084" zone="Zone 3" incidentdate="2016-05-13" incidenttime="00:13:00" incidentnumber="16087335" address="E Carson St &amp; S 18th St" type="ARREST" age="23" gender="F" description="*********************************************** &lt;br/&gt;3925, Receiving Stolen Property.&lt;br/&gt;6106, Firearms not to be Carried without a License.&lt;br/&gt;6117, Altering or Obliterating Marks of Identification.&lt;br/&gt;"/><marker lat="40.466877756870879" lng="-79.994177935104844" zone="Zone 1" incidentdate="2016-05-13" incidenttime="15:15:00" incidentnumber="16087517" address="100 block Rhine Pl" type="ARREST" age="25" gender="M" description="*********************************************** &lt;br/&gt;2706, Terroristic Threats.&lt;br/&gt;"/><marker lat="40.456514147089479" lng="-79.896395947155369" zone="Zone 5" incidentdate="2016-05-13" incidenttime="13:30:00" incidentnumber="16052663" address="800 block N Homewood Ave" type="ARREST" age="36" gender="F" description="*********************************************** &lt;br/&gt;3304(a)(4), CRIMINAL MISCHIEF- Intentionally Damage Property (By Graffiti, Aerosol Spray Paint, Broad Tip Marker, or Similar)&lt;br/&gt;"/><marker lat="40.441919441965581" lng="-79.982892744621594" zone="Zone 2" incidentdate="2016-05-13" incidenttime="20:50:00" incidentnumber="16087973" address="1800 block Centre Ave" type="ARREST" age="22" gender="F" description="*********************************************** &lt;br/&gt;13(a)(16), Possession of Controlled Substance&lt;br/&gt;13(a)(30), Possession w/ Intent to Del. Controlled Substance&lt;br/&gt;13(a)(30)*, Delivery of Controlled Substance&lt;br/&gt;13(a)(31), Marijuana: Possession Small Amount&lt;br/&gt;1543, Driving While Operating Privilege is Suspended or Revoked.&lt;br/&gt;7512, Criminal Use of Communication&lt;br/&gt;"/><marker lat="40.487492117031167" lng="-79.92019570326714" zone="Zone 5" incidentdate="2016-05-13" incidenttime="16:37:00" incidentnumber="16087793" address="Baker St &amp; Butler St" type="ARREST" age="23" gender="M" description="*********************************************** &lt;br/&gt;13(a)(16), Possession of Controlled Substance&lt;br/&gt;13(a)(32), Paraphernalia - Use or Possession&lt;br/&gt;"/><marker lat="40.435095503606554" lng="-79.993077686753679" zone="Zone 2" incidentdate="2016-05-13" incidenttime="12:13:00" incidentnumber="16047321" address="900 block Second Ave" type="ARREST" age="26" gender="F" description="*********************************************** &lt;br/&gt;3922, Theft by Deception.&lt;br/&gt;4101, Forgery.&lt;br/&gt;"/><marker lat="40.457261886016532" lng="-79.934057272019743" zone="Zone 4" incidentdate="2016-05-13" incidenttime="13:30:00" incidentnumber="15226390" address="Centre Ave &amp; S Negley Ave" type="ARREST" age="36" gender="F" description="*********************************************** &lt;br/&gt;3304(a)(4), CRIMINAL MISCHIEF- Intentionally Damage Property (By Graffiti, Aerosol Spray Paint, Broad Tip Marker, or Similar)&lt;br/&gt;"/><marker lat="40.4360780" lng="-79.9991661" zone="Zone 2" incidentdate="2016-05-13" incidenttime="13:30:00" incidentnumber="16024349" address="Fort Pitt Blvd &amp; Grant St" type="ARREST" age="36" gender="F" description="*********************************************** &lt;br/&gt;3304(a)(4), CRIMINAL MISCHIEF- Intentionally Damage Property (By Graffiti, Aerosol Spray Paint, Broad Tip Marker, or Similar)&lt;br/&gt;"/><marker lat="40.496043807332242" lng="-80.007875434923847" zone="Zone 1" incidentdate="2016-05-13" incidenttime="01:00:00" incidentnumber="16087344" address="Ivory Ave &amp; Evergreen Rd" type="ARREST" age="52" gender="F" description="*********************************************** &lt;br/&gt;3802(a)(1), DUI - General Impairment&lt;br/&gt;3802(c), DUI - Highest Rate of Alcohol - BAC &gt;= .16%&lt;br/&gt;"/><marker lat="40.457167514471287" lng="-80.013535151310023" zone="Zone 1" incidentdate="2016-05-13" incidenttime="05:10:00" incidentnumber="16087473" address="Jacksonia St &amp; Monterey St" type="ARREST" age="21" gender="M" description="*********************************************** &lt;br/&gt;13(a)(31), Marijuana: Possession Small Amount&lt;br/&gt;"/><marker lat="40.458984469829907" lng="-79.914262427093618" zone="Zone 5" incidentdate="2016-05-13" incidenttime="13:30:00" incidentnumber="16032617" address="6500 block Hamilton Ave" type="ARREST" age="36" gender="F" description="*********************************************** &lt;br/&gt;3304(a)(4), CRIMINAL MISCHIEF- Intentionally Damage Property (By Graffiti, Aerosol Spray Paint, Broad Tip Marker, or Similar)&lt;br/&gt;"/><marker lat="40.4406248" lng="-79.9958864" zone="Zone 2" incidentdate="2016-05-13" incidenttime="13:30:00" incidentnumber="16030358" address="Forbes Ave &amp; Birmingham Brg Ramp" type="ARREST" age="36" gender="F" description="*********************************************** &lt;br/&gt;3304(a)(4), CRIMINAL MISCHIEF- Intentionally Damage Property (By Graffiti, Aerosol Spray Paint, Broad Tip Marker, or Similar)&lt;br/&gt;"/><marker lat="40.437344950831772" lng="-79.981322200027023" zone="Zone 2" incidentdate="2016-05-13" incidenttime="01:20:00" incidentnumber="16087354" address="1800 block Forbes Ave" type="ARREST" age="31" gender="M" description="*********************************************** &lt;br/&gt;9501, Bench Warrant&lt;br/&gt;2701, Simple Assault.&lt;br/&gt;"/><marker lat="40.450976359208497" lng="-79.983578246487241" zone="Zone 2" incidentdate="2016-05-13" incidenttime="13:30:00" incidentnumber="16037774" address="2000 block Penn Ave" type="ARREST" age="36" gender="F" description="*********************************************** &lt;br/&gt;3304(a)(2), CRIMINAL MISCHIEF- Tamper With Property (So As To Endanger Person or Property)&lt;br/&gt;"/><marker lat="40.4597609" lng="-79.9208177" zone="Zone 5" incidentdate="2016-05-13" incidenttime="13:30:00" incidentnumber="16044055" address="6300 block Penn Ave" type="ARREST" age="36" gender="F" description="*********************************************** &lt;br/&gt;3304(a)(4), CRIMINAL MISCHIEF- Intentionally Damage Property (By Graffiti, Aerosol Spray Paint, Broad Tip Marker, or Similar)&lt;br/&gt;"/><marker lat="40.454038272737556" lng="-79.867341042290406" zone="Zone 5" incidentdate="2016-05-13" incidenttime="10:10:00" incidentnumber="13092707" address="2200 block Wilner Dr" type="ARREST" age="32" gender="M" description="*********************************************** &lt;br/&gt;3502, Burglary.&lt;br/&gt;2705, Recklessly Endangering Another Person.&lt;br/&gt;2702, Aggravated Assault.&lt;br/&gt;903, Criminal Conspiracy.&lt;br/&gt;2701(a)(1), Simple Assault - Intent., Know., Reckless.Cause Bod. Injury&lt;br/&gt;2707.1, Discharge of a Firearm into Occupied Structure&lt;br/&gt;"/><marker lat="40.472984117257518" lng="-79.921456556492842" zone="Zone 5" incidentdate="2016-05-13" incidenttime="13:30:00" incidentnumber="16081989" address="5900 block Wellesley Ave" type="ARREST" age="36" gender="F" description="*********************************************** &lt;br/&gt;3304(a)(4), CRIMINAL MISCHIEF- Intentionally Damage Property (By Graffiti, Aerosol Spray Paint, Broad Tip Marker, or Similar)&lt;br/&gt;3503(b.1)(1)(iii), Criminal Trespass/Simple Trespasser - Defacing or Damaging the Premises&lt;br/&gt;"/><marker lat="40.450849391494714" lng="-79.984242378763199" zone="Zone 2" incidentdate="2016-05-13" incidenttime="13:30:00" incidentnumber="16037781" address="1900 block Penn Ave" type="ARREST" age="36" gender="F" description="*********************************************** &lt;br/&gt;3304(a)(4), CRIMINAL MISCHIEF- Intentionally Damage Property (By Graffiti, Aerosol Spray Paint, Broad Tip Marker, or Similar)&lt;br/&gt;"/><marker lat="40.465024269264923" lng="-79.94679157977582" zone="Zone 5" incidentdate="2016-05-13" incidenttime="07:25:00" incidentnumber="15242829" address="200 block S Mathilda St" type="ARREST" age="22" gender="M" description="*********************************************** &lt;br/&gt;13(a)(16), Possession of Controlled Substance&lt;br/&gt;13(a)(30), Possession w/ Intent to Del. Controlled Substance&lt;br/&gt;2501, Criminal Homicide.&lt;br/&gt;6105(a)(1), Persons not to possess, use, manufacture, control, sell or transfer firearms: Former convict enumerated in subsection (b)&lt;br/&gt;"/><marker lat="40.449057255903568" lng="-79.970596830783506" zone="Zone 2" incidentdate="2016-05-13" incidenttime="03:15:00" incidentnumber="16047992" address="600 block Watt St" type="ARREST" age="33" gender="M" description="*********************************************** &lt;br/&gt;9501, Bench Warrant&lt;br/&gt;2701(a)(3), Simple Assault - Attempts by Physical Menace&lt;br/&gt;"/><marker lat="40.461630806852277" lng="-79.926784260450063" zone="Zone 5" incidentdate="2016-05-13" incidenttime="13:30:00" incidentnumber="16044058" address="5900 block Penn Ave" type="ARREST" age="36" gender="F" description="*********************************************** &lt;br/&gt;3304(a)(4), CRIMINAL MISCHIEF- Intentionally Damage Property (By Graffiti, Aerosol Spray Paint, Broad Tip Marker, or Similar)&lt;br/&gt;"/><marker lat="40.452248747142249" lng="-79.980724252534884" zone="Zone 2" incidentdate="2016-05-13" incidenttime="13:30:00" incidentnumber="16032636" address="2300 block Liberty Ave" type="ARREST" age="36" gender="F" description="*********************************************** &lt;br/&gt;3304(a)(4), CRIMINAL MISCHIEF- Intentionally Damage Property (By Graffiti, Aerosol Spray Paint, Broad Tip Marker, or Similar)&lt;br/&gt;"/><marker lat="40.456938679070994" lng="-79.999947636278463" zone="Zone 5" incidentdate="2016-05-13" incidenttime="13:30:00" incidentnumber="15229352" address="600 block N Homewood Ave" type="ARREST" age="36" gender="F" description="*********************************************** &lt;br/&gt;3304(a)(4), CRIMINAL MISCHIEF- Intentionally Damage Property (By Graffiti, Aerosol Spray Paint, Broad Tip Marker, or Similar)&lt;br/&gt;9130, Graffiti Investigation&lt;br/&gt;"/><marker lat="40.458307463323074" lng="-79.933769835295948" zone="Zone 5" incidentdate="2016-05-13" incidenttime="13:30:00" incidentnumber="16052666" address="5700 block Baum Blvd" type="ARREST" age="36" gender="F" description="*********************************************** &lt;br/&gt;3304(a)(4), CRIMINAL MISCHIEF- Intentionally Damage Property (By Graffiti, Aerosol Spray Paint, Broad Tip Marker, or Similar)&lt;br/&gt;"/><marker lat="40.455979124093979" lng="-79.899259987141818" zone="Zone 5" incidentdate="2016-05-13" incidenttime="13:30:00" incidentnumber="15229351" address="7100 block Kelly St" type="ARREST" age="36" gender="F" description="*********************************************** &lt;br/&gt;3304(a)(4), CRIMINAL MISCHIEF- Intentionally Damage Property (By Graffiti, Aerosol Spray Paint, Broad Tip Marker, or Similar)&lt;br/&gt;9130, Graffiti Investigation&lt;br/&gt;"/><marker lat="40.441137684867279" lng="-79.957585934716349" zone="Zone 4" incidentdate="2016-05-13" incidenttime="02:30:00" incidentnumber="16087432" address="200 block Atwood St" type="ARREST" age="" gender="M" description="*********************************************** &lt;br/&gt;13(a)(16), Possession of Controlled Substance&lt;br/&gt;5104, Resisting Arrest or Other Law Enforcement.&lt;br/&gt;5505, Public Drunkenness&lt;br/&gt;4914, False Identification to Law Enforcement Authorities&lt;br/&gt;6310.3(a), Carrying a False Identification Card; under 21 to obtain liquor&lt;br/&gt;"/><marker lat="40.455113543801467" lng="-79.953469273956586" zone="Zone 4" incidentdate="2016-05-13" incidenttime="13:30:00" incidentnumber="15248628" address="500 block Gold Way" type="ARREST" age="36" gender="F" description="*********************************************** &lt;br/&gt;3304(a)(4), CRIMINAL MISCHIEF- Intentionally Damage Property (By Graffiti, Aerosol Spray Paint, Broad Tip Marker, or Similar)&lt;br/&gt;9130, Graffiti Investigation&lt;br/&gt;"/><marker lat="40.44956618746032" lng="-79.987646691015016" zone="Zone 2" incidentdate="2016-05-13" incidenttime="13:30:00" incidentnumber="16037778" address="1600 block Smallman St" type="ARREST" age="36" gender="F" description="*********************************************** &lt;br/&gt;3304(a)(4), CRIMINAL MISCHIEF- Intentionally Damage Property (By Graffiti, Aerosol Spray Paint, Broad Tip Marker, or Similar)&lt;br/&gt;"/><marker lat="40.447846162622405" lng="-79.98832788759286" zone="Zone 2" incidentdate="2016-05-13" incidenttime="13:30:00" incidentnumber="16037777" address="1500 block Penn Ave" type="ARREST" age="36" gender="F" description="*********************************************** &lt;br/&gt;3304(a)(4), CRIMINAL MISCHIEF- Intentionally Damage Property (By Graffiti, Aerosol Spray Paint, Broad Tip Marker, or Similar)&lt;br/&gt;"/><marker lat="40.4530676" lng="-80.0030662" zone="Zone 1" incidentdate="2016-05-13" incidenttime="19:05:00" incidentnumber="16086143" address="200 block East Ohio St" type="ARREST" age="28" gender="F" description="*********************************************** &lt;br/&gt;5121, Escape.&lt;br/&gt;601.11(a), Littering and Dumping; Any waste, dangerous or detrimental substance upon public property&lt;br/&gt;"/><marker lat="40.455504998738647" lng="-80.007850467221047" zone="Zone 5" incidentdate="2016-05-13" incidenttime="13:30:00" incidentnumber="16044057" address="100 block N Beatty St" type="ARREST" age="36" gender="F" description="*********************************************** &lt;br/&gt;3304(a)(4), CRIMINAL MISCHIEF- Intentionally Damage Property (By Graffiti, Aerosol Spray Paint, Broad Tip Marker, or Similar)&lt;br/&gt;"/><marker lat="40.458079657542726" lng="-80.026101218065349" zone="Zone 1" incidentdate="2016-05-13" incidenttime="13:30:00" incidentnumber="16067935" address="1300 block Columbus Ave" type="ARREST" age="36" gender="F" description="*********************************************** &lt;br/&gt;3304(a)(4), CRIMINAL MISCHIEF- Intentionally Damage Property (By Graffiti, Aerosol Spray Paint, Broad Tip Marker, or Similar)&lt;br/&gt;"/><marker lat="40.454610285615381" lng="-79.888378482601411" zone="Zone 5" incidentdate="2016-05-13" incidenttime="12:27:00" incidentnumber="16087307" address="800 block Brushton Ave" type="ARREST" age="34" gender="M" description="*********************************************** &lt;br/&gt;13(a)(31), Marijuana: Possession Small Amount&lt;br/&gt;2705, Recklessly Endangering Another Person.&lt;br/&gt;2702, Aggravated Assault.&lt;br/&gt;3304(a)(5), CRIMINAL MISCHIEF - Intentionally Damages Real Or Personal Property Of Another&lt;br/&gt;901, Criminal Attempt&lt;br/&gt;5123, Contraband.&lt;br/&gt;6106, Firearms not to be Carried without a License.&lt;br/&gt;6105(a)(1), Persons not to possess, use, manufacture, control, sell or transfer firearms: Former convict enumerated in subsection (b)&lt;br/&gt;"/><marker lat="40.436036005233959" lng="-79.985455385193148" zone="Zone 2" incidentdate="2016-05-13" incidenttime="14:35:00" incidentnumber="16084806" address="1400 block Locust St" type="ARREST" age="22" gender="M" description="*********************************************** &lt;br/&gt;2709(a), Harassment.&lt;br/&gt;"/><marker lat="40.460706790003542" lng="-79.923780776230444" zone="Zone 5" incidentdate="2016-05-13" incidenttime="14:35:00" incidentnumber="16087722" address="6100 block Penn Ave" type="ARREST" age="35" gender="M" description="*********************************************** &lt;br/&gt;9501, Bench Warrant&lt;br/&gt;"/><marker lat="40.455470090179453" lng="-79.897028104534954" zone="Zone 5" incidentdate="2016-05-13" incidenttime="20:25:00" incidentnumber="16076366" address="7200 block Kelly St" type="ARREST" age="21" gender="M" description="*********************************************** &lt;br/&gt;2705, Recklessly Endangering Another Person.&lt;br/&gt;2702, Aggravated Assault.&lt;br/&gt;903, Criminal Conspiracy.&lt;br/&gt;"/><marker lat="40.466157023204467" lng="-79.98535298496779" zone="Zone 1" incidentdate="2016-05-13" incidenttime="23:56:00" incidentnumber="16088048" address="1600 block Spring Garden Ave" type="ARREST" age="32" gender="M" description="*********************************************** &lt;br/&gt;5503, Disorderly Conduct.&lt;br/&gt;5505, Public Drunkenness&lt;br/&gt;3503.B1I, DEF. TRESPASS ACTUAL COMMUNICATION&lt;br/&gt;"/><marker lat="40.408570845455131" lng="-79.94367997262448" zone="Zone 4" incidentdate="2016-05-13" incidenttime="23:45:00" incidentnumber="16038052" address="Tecumseh St &amp; 2nd Ave" type="ARREST" age="60" gender="M" description="*********************************************** &lt;br/&gt;13(a)(16), Possession of Controlled Substance&lt;br/&gt;13(a)(32), Paraphernalia - Use or Possession&lt;br/&gt;9501, Bench Warrant&lt;br/&gt;1543, Driving While Operating Privilege is Suspended or Revoked.&lt;br/&gt;3714, Careless Driving&lt;br/&gt;4703, Operation of Vehicle without Official Certif. of Inspection&lt;br/&gt;4534, Rearview Mirrors.&lt;br/&gt;"/><marker lat="40.446207760459167" lng="-79.906250319730987" zone="Zone 5" incidentdate="2016-05-13" incidenttime="13:30:00" incidentnumber="15229349" address="500 block N Lang Ave" type="ARREST" age="36" gender="F" description="*********************************************** &lt;br/&gt;3304(a)(4), CRIMINAL MISCHIEF- Intentionally Damage Property (By Graffiti, Aerosol Spray Paint, Broad Tip Marker, or Similar)&lt;br/&gt;9130, Graffiti Investigation&lt;br/&gt;"/><marker lat="40.4406248" lng="-79.9958864" zone="Zone 2" incidentdate="2016-05-13" incidenttime="13:30:00" incidentnumber="16037773" address="Forbes Ave &amp; Birmingham Brg Ramp" type="ARREST" age="36" gender="F" description="*********************************************** &lt;br/&gt;3304(a)(4), CRIMINAL MISCHIEF- Intentionally Damage Property (By Graffiti, Aerosol Spray Paint, Broad Tip Marker, or Similar)&lt;br/&gt;"/><marker lat="40.450892721440539" lng="-80.000843891836467" zone="Zone 1" incidentdate="2016-05-13" incidenttime="10:25:00" incidentnumber="16062592" address="300 block Cedar Ave" type="ARREST" age="23" gender="M" description="*********************************************** &lt;br/&gt;13(a)(31), Marijuana: Possession Small Amount&lt;br/&gt;13(a)(32), Paraphernalia - Use or Possession&lt;br/&gt;9501, Bench Warrant&lt;br/&gt;9015, Failure To Appear/Arrest on Attachment Order&lt;br/&gt;3929(a)(1), Retail Theft; takes possession of, carries away, or transfers displayed merchandise&lt;br/&gt;5123, Contraband.&lt;br/&gt;"/><marker lat="40.463257827024755" lng="-79.970843296594651" zone="Zone 2" incidentdate="2016-05-13" incidenttime="13:30:00" incidentnumber="16047330" address="100 block 33rd St" type="ARREST" age="36" gender="F" description="*********************************************** &lt;br/&gt;3304(a)(4), CRIMINAL MISCHIEF- Intentionally Damage Property (By Graffiti, Aerosol Spray Paint, Broad Tip Marker, or Similar)&lt;br/&gt;"/><marker lat="40.458307463323074" lng="-79.933769835295948" zone="Zone 5" incidentdate="2016-05-13" incidenttime="13:30:00" incidentnumber="16052667" address="5700 block Baum Blvd" type="ARREST" age="36" gender="F" description="*********************************************** &lt;br/&gt;3304(a)(4), CRIMINAL MISCHIEF- Intentionally Damage Property (By Graffiti, Aerosol Spray Paint, Broad Tip Marker, or Similar)&lt;br/&gt;"/><marker lat="40.45059598497069" lng="-80.027026475204522" zone="Zone 1" incidentdate="2016-05-13" incidenttime="13:30:00" incidentnumber="16081346" address="1000 block Chateau St" type="ARREST" age="36" gender="F" description="*********************************************** &lt;br/&gt;3304(a)(4), CRIMINAL MISCHIEF- Intentionally Damage Property (By Graffiti, Aerosol Spray Paint, Broad Tip Marker, or Similar)&lt;br/&gt;"/><marker lat="40.415305169007219" lng="-79.998124705200198" zone="Zone 3" incidentdate="2016-05-13" incidenttime="20:00:00" incidentnumber="16086535" address="Bausman St &amp; Bernd St" type="ARREST" age="25" gender="M" description="*********************************************** &lt;br/&gt;3743, Accidents Involving Damage to Attended Veh. or Property&lt;br/&gt;"/></markers>
