<?xml version="1.0"?>
<markers><marker lat="40.448867744979175" lng="-79.893882536080838" zone="Zone 4" incidentdate="2016-09-30" incidenttime="14:30:00" incidentnumber="16184986" address="N Braddock Ave &amp; Thomas St" type="OFFENSE" age="" gender="" description="*********************************************** &lt;br/&gt;3745, Accidents Involving Damage to Unattended Veh.or Prop.&lt;br/&gt;"/><marker lat="40.487823540011732" lng="-79.897614208935366" zone="Zone 5" incidentdate="2016-09-30" incidenttime="20:36:00" incidentnumber="16185113" address="800 block Freeport Rd" type="OFFENSE" age="" gender="" description="*********************************************** &lt;br/&gt;9501, Bench Warrant&lt;br/&gt;3929, Retail Theft.&lt;br/&gt;"/><marker lat="40.413244662079144" lng="-79.989125551697001" zone="Zone 3" incidentdate="2016-09-30" incidenttime="22:57:00" incidentnumber="16185188" address="400 block Brownsville Rd" type="OFFENSE" age="" gender="" description="*********************************************** &lt;br/&gt;2701, Simple Assault.&lt;br/&gt;"/><marker lat="40.439069492655918" lng="-80.005463552778977" zone="Zone 2" incidentdate="2016-09-30" incidenttime="14:30:00" incidentnumber="16184963" address="Stanwix St" type="OFFENSE" age="" gender="" description="*********************************************** &lt;br/&gt;3745, Accidents Involving Damage to Unattended Veh.or Prop.&lt;br/&gt;"/><marker lat="40.45015579296625" lng="-79.93312844285856" zone="Zone 4" incidentdate="2016-09-30" incidenttime="18:00:00" incidentnumber="16185109" address="5500 block Howe St" type="OFFENSE" age="" gender="" description="*********************************************** &lt;br/&gt;3304(a)(5), CRIMINAL MISCHIEF - Intentionally Damages Real Or Personal Property Of Another&lt;br/&gt;3934, Theft from Vehicle&lt;br/&gt;"/><marker lat="40.459190603440391" lng="-79.927408851895919" zone="Zone 4" incidentdate="2016-09-30" incidenttime="23:52:00" incidentnumber="16185216" address="5900 block Centre Ave" type="OFFENSE" age="" gender="" description="*********************************************** &lt;br/&gt;2709(a)(1), Harassment by Physical Contact, or Attempts or Threats&lt;br/&gt;3503.B1I, DEF. TRESPASS ACTUAL COMMUNICATION&lt;br/&gt;"/><marker lat="40.438917876440819" lng="-80.001250590800993" zone="Zone 2" incidentdate="2016-09-30" incidenttime="03:10:00" incidentnumber="16184625" address="300 block Wood St" type="OFFENSE" age="" gender="" description="*********************************************** &lt;br/&gt;3924, Theft of Property Lost, Mislaid or Delivered by Mistake.&lt;br/&gt;"/><marker lat="40.452702197542358" lng="-80.007513854007968" zone="Zone 1" incidentdate="2016-09-30" incidenttime="15:35:00" incidentnumber="16184951" address="100 block Allegheny Sq E" type="OFFENSE" age="" gender="" description="*********************************************** &lt;br/&gt;2709, Harassment (Non-Specific)&lt;br/&gt;"/><marker lat="40.45195393367333" lng="-79.944745419934947" zone="Zone 4" incidentdate="2016-09-30" incidenttime="06:30:00" incidentnumber="16185005" address="400 block Coventry Rd" type="OFFENSE" age="" gender="" description="*********************************************** &lt;br/&gt;3934, Theft from Vehicle&lt;br/&gt;"/><marker lat="40.393167838197392" lng="-79.986585064520185" zone="Zone 3" incidentdate="2016-09-30" incidenttime="17:00:00" incidentnumber="16185020" address="2100 block Brownsville Rd" type="OFFENSE" age="" gender="" description="*********************************************** &lt;br/&gt;2709(a)(1), Harassment by Physical Contact, or Attempts or Threats&lt;br/&gt;"/><marker lat="40.488081814906529" lng="-79.894317224387123" zone="Zone 5" incidentdate="2016-09-30" incidenttime="11:30:00" incidentnumber="16184830" address="900 block Freeport Rd" type="OFFENSE" age="" gender="" description="*********************************************** &lt;br/&gt;3929, Retail Theft.&lt;br/&gt;"/><marker lat="40.442390418433455" lng="-79.999846344464984" zone="Zone 2" incidentdate="2016-09-30" incidenttime="16:30:00" incidentnumber="16184987" address="700 block Liberty Ave" type="OFFENSE" age="" gender="" description="*********************************************** &lt;br/&gt;9489, Found Property&lt;br/&gt;5503, Disorderly Conduct.&lt;br/&gt;"/><marker lat="40.424744519877997" lng="-79.932837833677311" zone="Zone 4" incidentdate="2016-09-30" incidenttime="11:00:00" incidentnumber="16184786" address="900 block Lilac St" type="OFFENSE" age="" gender="" description="*********************************************** &lt;br/&gt;3921, Theft by Unlawful Taking or Disposition.&lt;br/&gt;"/><marker lat="40.436219725209988" lng="-79.95276246007019" zone="Zone 4" incidentdate="2016-09-30" incidenttime="17:16:00" incidentnumber="16185010" address="Dawson St &amp; Semple St" type="OFFENSE" age="" gender="" description="*********************************************** &lt;br/&gt;3802(a)(1), DUI - General Impairment&lt;br/&gt;3802(b), DUI - High Rate of Alchol - BAC &gt;=.10% &lt;.16%&lt;br/&gt;"/><marker lat="40.443250840577129" lng="-79.935990373064897" zone="Zone 4" incidentdate="2016-09-30" incidenttime="16:30:00" incidentnumber="16184992" address="1200 block Malvern Ave" type="OFFENSE" age="" gender="" description="*********************************************** &lt;br/&gt;3922, Theft by Deception.&lt;br/&gt;"/><marker lat="40.445116648424097" lng="-80.038944150339233" zone="Zone 6" incidentdate="2016-09-30" incidenttime="10:00:00" incidentnumber="16184770" address="1000 block Lakewood St" type="OFFENSE" age="" gender="" description="*********************************************** &lt;br/&gt;9489, Found Property&lt;br/&gt;"/><marker lat="40.39379237481274" lng="-80.026208805015713" zone="Zone 6" incidentdate="2016-09-30" incidenttime="06:30:00" incidentnumber="16184746" address="500 block Fordham St" type="OFFENSE" age="" gender="" description="*********************************************** &lt;br/&gt;3934, Theft from Vehicle&lt;br/&gt;"/><marker lat="40.458992505908604" lng="-80.005968132981423" zone="Zone 1" incidentdate="2016-09-30" incidenttime="17:41:00" incidentnumber="16185024" address="Shockoe Way &amp; Fountain St" type="OFFENSE" age="" gender="" description="*********************************************** &lt;br/&gt;13(a)(16), Possession of Controlled Substance&lt;br/&gt;13(a)(32), Paraphernalia - Use or Possession&lt;br/&gt;"/><marker lat="40.421531877189601" lng="-79.993577564166102" zone="Zone 3" incidentdate="2016-09-30" incidenttime="10:50:00" incidentnumber="16184779" address="800 block E Warrington Ave" type="OFFENSE" age="" gender="" description="*********************************************** &lt;br/&gt;9489, Found Property&lt;br/&gt;"/><marker lat="40.453348194019163" lng="-80.001631282271106" zone="Zone 1" incidentdate="2016-09-30" incidenttime="16:50:00" incidentnumber="16184995" address="700 block Cedar Ave" type="OFFENSE" age="" gender="" description="*********************************************** &lt;br/&gt;9998, Overdose&lt;br/&gt;"/><marker lat="40.453243161989811" lng="-79.962487878814883" zone="Zone 2" incidentdate="2016-09-30" incidenttime="19:38:00" incidentnumber="16185095" address="700 block Bryn Mawr Rd" type="OFFENSE" age="" gender="" description="*********************************************** &lt;br/&gt;9999, 9999 - (Misc. Incident):&lt;br/&gt;"/><marker lat="40.441905010302634" lng="-79.927803474698791" zone="Zone 4" incidentdate="2016-09-30" incidenttime="09:30:00" incidentnumber="16184870" address="5600 block Woodmont St" type="OFFENSE" age="" gender="" description="*********************************************** &lt;br/&gt;3502, Burglary.&lt;br/&gt;"/><marker lat="40.425035797063522" lng="-79.938145264191888" zone="Zone 4" incidentdate="2016-09-30" incidenttime="19:35:00" incidentnumber="16185099" address="700 block Greenfield Ave" type="OFFENSE" age="" gender="" description="*********************************************** &lt;br/&gt;3921(a), Theft by Unlawful Taking or Disposition - Movable item&lt;br/&gt;"/><marker lat="40.415424065722213" lng="-80.040419247404557" zone="Zone 6" incidentdate="2016-09-30" incidenttime="15:00:00" incidentnumber="16184958" address="1400 block Crane Ave" type="OFFENSE" age="" gender="" description="*********************************************** &lt;br/&gt;3502, Burglary.&lt;br/&gt;"/><marker lat="40.460768407974605" lng="-80.054473919507714" zone="Zone 6" incidentdate="2016-09-30" incidenttime="13:10:00" incidentnumber="16184850" address="400 block Stadium St" type="OFFENSE" age="" gender="" description="*********************************************** &lt;br/&gt;9501, Bench Warrant&lt;br/&gt;"/><marker lat="40.462802636584733" lng="-80.055493454783274" zone="Zone 6" incidentdate="2016-09-30" incidenttime="16:29:00" incidentnumber="16184983" address="200 block Radcliffe St" type="OFFENSE" age="" gender="" description="*********************************************** &lt;br/&gt;9999, 9999 - (Misc. Incident):&lt;br/&gt;"/><marker lat="40.456635323771728" lng="-79.997629051365578" zone="Zone 1" incidentdate="2016-09-30" incidenttime="02:01:00" incidentnumber="16184584" address="800 block Tripoli St" type="OFFENSE" age="" gender="" description="*********************************************** &lt;br/&gt;3304, Criminal Mischief.&lt;br/&gt;485.07, Control of Animals&lt;br/&gt;"/><marker lat="40.413089520858286" lng="-79.993060169843048" zone="Zone 3" incidentdate="2016-09-30" incidenttime="17:09:00" incidentnumber="16185012" address="300 block Mathews Ave" type="OFFENSE" age="" gender="" description="*********************************************** &lt;br/&gt;3304, Criminal Mischief.&lt;br/&gt;"/><marker lat="40.452984765236415" lng="-80.001589451334169" zone="Zone 1" incidentdate="2016-09-30" incidenttime="19:14:00" incidentnumber="16185097" address="Cedar Ave &amp; Virgin Way" type="OFFENSE" age="" gender="" description="*********************************************** &lt;br/&gt;13(a)(32), Paraphernalia - Use or Possession&lt;br/&gt;5104, Resisting Arrest or Other Law Enforcement.&lt;br/&gt;5505, Public Drunkenness&lt;br/&gt;5503(a)(2), DISORDERLY CONDUCT - UNREASONABLE NOISE&lt;br/&gt;"/><marker lat="40.428540979945623" lng="-79.982836452461768" zone="Zone 3" incidentdate="2016-09-30" incidenttime="01:25:00" incidentnumber="16184567" address="S 16th St &amp; Roland St" type="OFFENSE" age="" gender="" description="*********************************************** &lt;br/&gt;601.16, Public Urination And Defecation&lt;br/&gt;"/><marker lat="40.464774823811233" lng="-79.942733938845166" zone="Zone 5" incidentdate="2016-09-30" incidenttime="16:20:00" incidentnumber="16184991" address="5100 block Penn Ave" type="OFFENSE" age="" gender="" description="*********************************************** &lt;br/&gt;3929, Retail Theft.&lt;br/&gt;"/><marker lat="40.4149193" lng="-80.0113683" zone="Zone 3" incidentdate="2016-09-30" incidenttime="17:52:00" incidentnumber="16185032" address="Saw Mill Run Blvd &amp; W Warrington Ave" type="OFFENSE" age="" gender="" description="*********************************************** &lt;br/&gt;9501, Bench Warrant&lt;br/&gt;3304, Criminal Mischief.&lt;br/&gt;2705, Recklessly Endangering Another Person.&lt;br/&gt;3736, Reckless Driving&lt;br/&gt;3802(a)(1), DUI - General Impairment&lt;br/&gt;3743, Accidents Involving Damage to Attended Veh. or Property&lt;br/&gt;5121, Escape.&lt;br/&gt;3733, Fleeing or Attempting to Elude Police Officer&lt;br/&gt;5126, Flight to Avoid Apprehension, Trial or Punishment.&lt;br/&gt;"/><marker lat="40.378443809335181" lng="-80.003123944842969" zone="Zone 3" incidentdate="2016-09-30" incidenttime="12:36:00" incidentnumber="16184834" address="2700 block Library Rd" type="OFFENSE" age="" gender="" description="*********************************************** &lt;br/&gt;3921, Theft by Unlawful Taking or Disposition.&lt;br/&gt;2709, Harassment (Non-Specific)&lt;br/&gt;"/><marker lat="40.389098844158625" lng="-80.020097161583493" zone="Zone 6" incidentdate="2016-09-30" incidenttime="10:00:00" incidentnumber="16184765" address="1000 block Fordham St" type="OFFENSE" age="" gender="" description="*********************************************** &lt;br/&gt;3921, Theft by Unlawful Taking or Disposition.&lt;br/&gt;"/><marker lat="40.429228381173026" lng="-79.980513714480466" zone="Zone 3" incidentdate="2016-09-30" incidenttime="01:08:00" incidentnumber="16184556" address="S 18th St &amp; Wrights Way" type="OFFENSE" age="" gender="" description="*********************************************** &lt;br/&gt;5503, Disorderly Conduct.&lt;br/&gt;"/><marker lat="40.438002713939021" lng="-79.977529599564193" zone="Zone 2" incidentdate="2016-09-30" incidenttime="14:40:00" incidentnumber="16184979" address="2000 block 5th Ave" type="OFFENSE" age="" gender="" description="*********************************************** &lt;br/&gt;029, Missing Juvenile&lt;br/&gt;"/><marker lat="40.443134337433094" lng="-79.980896891654254" zone="Zone 2" incidentdate="2016-09-30" incidenttime="19:30:00" incidentnumber="16185086" address="1900 block Centre Ave" type="OFFENSE" age="" gender="" description="*********************************************** &lt;br/&gt;3929, Retail Theft.&lt;br/&gt;"/><marker lat="40.443979182258303" lng="-79.915168631844438" zone="Zone 4" incidentdate="2016-09-30" incidenttime="07:20:00" incidentnumber="16184697" address="6600 block Woodwell St" type="OFFENSE" age="" gender="" description="*********************************************** &lt;br/&gt;3934, Theft from Vehicle&lt;br/&gt;"/><marker lat="40.5139607" lng="-80.1407989" zone="Zone 3" incidentdate="2016-09-30" incidenttime="07:00:00" incidentnumber="16184711" address="1700 block Riverside Ave" type="OFFENSE" age="" gender="" description="*********************************************** &lt;br/&gt;3921(a), Theft by Unlawful Taking or Disposition - Movable item&lt;br/&gt;3304(a)(1), CRIMINAL MISCHIEF-Prop Damage By Fire, Explosives, or Other Dangerous Means&lt;br/&gt;3503, Criminal Trespass&lt;br/&gt;"/><marker lat="40.453087824966865" lng="-80.000287901381768" zone="Zone 1" incidentdate="2016-09-30" incidenttime="14:14:00" incidentnumber="16184891" address="500 block Avery St" type="OFFENSE" age="" gender="" description="*********************************************** &lt;br/&gt;13(a)(16), Possession of Controlled Substance&lt;br/&gt;13(a)(30), Possession w/ Intent to Del. Controlled Substance&lt;br/&gt;1543, Driving While Operating Privilege is Suspended or Revoked.&lt;br/&gt;7512, Criminal Use of Communication&lt;br/&gt;"/><marker lat="40.456120649241221" lng="-79.958737676592463" zone="Zone 2" incidentdate="2016-09-30" incidenttime="09:00:00" incidentnumber="16185121" address="700 block Finland St" type="OFFENSE" age="" gender="" description="*********************************************** &lt;br/&gt;9999, 9999 - (Misc. Incident):&lt;br/&gt;"/><marker lat="40.423687309551099" lng="-79.966214251688839" zone="Zone 3" incidentdate="2016-09-30" incidenttime="00:45:00" incidentnumber="16184551" address="2900 block Harcum Way" type="OFFENSE" age="" gender="" description="*********************************************** &lt;br/&gt;3304, Criminal Mischief.&lt;br/&gt;"/><marker lat="40.446263051038443" lng="-80.012336576772157" zone="Zone 1" incidentdate="2016-09-30" incidenttime="23:20:00" incidentnumber="16185199" address="400 block North Shore Dr" type="OFFENSE" age="" gender="" description="*********************************************** &lt;br/&gt;3921, Theft by Unlawful Taking or Disposition.&lt;br/&gt;"/><marker lat="40.428684832699354" lng="-79.983306706238423" zone="Zone 3" incidentdate="2016-09-30" incidenttime="10:55:00" incidentnumber="16184860" address="1500 block W Carson St" type="OFFENSE" age="" gender="" description="*********************************************** &lt;br/&gt;2709(a)(1), Harassment by Physical Contact, or Attempts or Threats&lt;br/&gt;3743, Accidents Involving Damage to Attended Veh. or Property&lt;br/&gt;"/><marker lat="40.445590651116305" lng="-79.949387243364313" zone="Zone 4" incidentdate="2016-09-30" incidenttime="11:10:00" incidentnumber="16184789" address="300 block N Craig St" type="OFFENSE" age="" gender="" description="*********************************************** &lt;br/&gt;3502, Burglary.&lt;br/&gt;"/><marker lat="40.453969822993002" lng="-79.998974758094874" zone="Zone 1" incidentdate="2016-09-30" incidenttime="21:18:00" incidentnumber="16185148" address="600 block East Ohio St" type="OFFENSE" age="" gender="" description="*********************************************** &lt;br/&gt;5507, Obstructing Highways and Passages.&lt;br/&gt;5505, Public Drunkenness&lt;br/&gt;5503(a)(3), DISORDERLY CONDUCT - OBSCENE LANG/GEST&lt;br/&gt;"/><marker lat="40.447506278490174" lng="-79.989062043464401" zone="Zone 2" incidentdate="2016-09-30" incidenttime="10:05:00" incidentnumber="16184751" address="1400 block Penn Ave" type="OFFENSE" age="" gender="" description="*********************************************** &lt;br/&gt;9497, Aided Case&lt;br/&gt;"/><marker lat="40.449945984416168" lng="-79.950663260585088" zone="Zone 4" incidentdate="2016-09-30" incidenttime="12:45:00" incidentnumber="16184840" address="200 block N Craig St" type="OFFENSE" age="" gender="" description="*********************************************** &lt;br/&gt;4904, Unsworn Falsification to Authorities.&lt;br/&gt;4114, Securing Execution of Documents by Deception.&lt;br/&gt;4104, Tampering with Records or Identification.&lt;br/&gt;"/><marker lat="40.457558966263164" lng="-80.005827119970419" zone="Zone 1" incidentdate="2016-09-30" incidenttime="20:03:00" incidentnumber="16185107" address="1400 block Loraine St" type="OFFENSE" age="" gender="" description="*********************************************** &lt;br/&gt;13(a)(16), Possession of Controlled Substance&lt;br/&gt;13(a)(32), Paraphernalia - Use or Possession&lt;br/&gt;"/><marker lat="40.435349879075773" lng="-79.961349739888362" zone="Zone 4" incidentdate="2016-09-30" incidenttime="05:29:00" incidentnumber="16184658" address="300 block Craft Ave" type="OFFENSE" age="" gender="" description="*********************************************** &lt;br/&gt;9501, Bench Warrant&lt;br/&gt;"/><marker lat="40.454590398331483" lng="-79.924193633303304" zone="Zone 4" incidentdate="2016-09-30" incidenttime="15:00:00" incidentnumber="16184990" address="6100 block Walnut St" type="OFFENSE" age="" gender="" description="*********************************************** &lt;br/&gt;3745, Accidents Involving Damage to Unattended Veh.or Prop.&lt;br/&gt;"/><marker lat="40.459401563139693" lng="-80.019172488430343" zone="Zone 1" incidentdate="2016-09-30" incidenttime="04:42:00" incidentnumber="16184650" address="900 block California Ave" type="OFFENSE" age="" gender="" description="*********************************************** &lt;br/&gt;3304, Criminal Mischief.&lt;br/&gt;3503, Criminal Trespass&lt;br/&gt;"/><marker lat="40.428684832699354" lng="-79.983306706238423" zone="Zone 3" incidentdate="2016-09-30" incidenttime="02:18:00" incidentnumber="16184594" address="1500 block S E Carson St" type="OFFENSE" age="" gender="" description="*********************************************** &lt;br/&gt;5104, Resisting Arrest or Other Law Enforcement.&lt;br/&gt;5503, Disorderly Conduct.&lt;br/&gt;2702, Aggravated Assault.&lt;br/&gt;5505, Public Drunkenness&lt;br/&gt;"/><marker lat="40.4600940" lng="-79.9238524" zone="Zone 4" incidentdate="2016-09-30" incidenttime="17:45:00" incidentnumber="16185084" address="6300 block Shakespeare St" type="OFFENSE" age="" gender="" description="*********************************************** &lt;br/&gt;3921, Theft by Unlawful Taking or Disposition.&lt;br/&gt;"/><marker lat="40.463809151864481" lng="-79.931593714594143" zone="Zone 5" incidentdate="2016-09-30" incidenttime="20:50:00" incidentnumber="16185136" address="Penn Ave &amp; Stratford Ave" type="OFFENSE" age="" gender="" description="*********************************************** &lt;br/&gt;5104, Resisting Arrest or Other Law Enforcement.&lt;br/&gt;6106, Firearms not to be Carried without a License.&lt;br/&gt;"/><marker lat="40.46606521747858" lng="-79.98523582535141" zone="Zone 1" incidentdate="2016-09-30" incidenttime="03:00:00" incidentnumber="16184818" address="1600 block Wicklines Ln" type="OFFENSE" age="" gender="" description="*********************************************** &lt;br/&gt;9999, 9999 - (Misc. Incident):&lt;br/&gt;"/><marker lat="40.441772984812665" lng="-80.001620450643472" zone="Zone 2" incidentdate="2016-09-30" incidenttime="22:04:00" incidentnumber="16185169" address="600 block Liberty Ave" type="OFFENSE" age="" gender="" description="*********************************************** &lt;br/&gt;9501, Bench Warrant&lt;br/&gt;5104, Resisting Arrest or Other Law Enforcement.&lt;br/&gt;2702, Aggravated Assault.&lt;br/&gt;3929, Retail Theft.&lt;br/&gt;"/><marker lat="40.414746299882488" lng="-79.995184860921896" zone="Zone 3" incidentdate="2016-09-30" incidenttime="07:08:00" incidentnumber="16184685" address="400 block Rochelle St" type="OFFENSE" age="" gender="" description="*********************************************** &lt;br/&gt;13(a)(31), Marijuana: Possession Small Amount&lt;br/&gt;"/><marker lat="40.461263755824248" lng="-79.946362797859464" zone="Zone 5" incidentdate="2016-09-30" incidenttime="09:00:00" incidentnumber="16184731" address="4800 block Friendship Ave" type="OFFENSE" age="" gender="" description="*********************************************** &lt;br/&gt;3304, Criminal Mischief.&lt;br/&gt;"/><marker lat="40.459715082804635" lng="-79.971037996234898" zone="Zone 2" incidentdate="2016-09-30" incidenttime="12:00:00" incidentnumber="16184812" address="3100 block Penn Ave" type="OFFENSE" age="" gender="" description="*********************************************** &lt;br/&gt;3304, Criminal Mischief.&lt;br/&gt;"/><marker lat="40.44713456082129" lng="-79.967024548494592" zone="Zone 2" incidentdate="2016-09-30" incidenttime="19:17:00" incidentnumber="16185078" address="2700 block Centre Ave" type="OFFENSE" age="" gender="" description="*********************************************** &lt;br/&gt;9998, Overdose&lt;br/&gt;"/><marker lat="40.464222661803049" lng="-79.939792129159841" zone="Zone 5" incidentdate="2016-09-30" incidenttime="05:07:00" incidentnumber="16184656" address="5200 block Penn Ave" type="OFFENSE" age="" gender="" description="*********************************************** &lt;br/&gt;3802(a)(1), DUI - General Impairment&lt;br/&gt;3802(b), DUI - High Rate of Alchol - BAC &gt;=.10% &lt;.16%&lt;br/&gt;"/><marker lat="40.445589993893975" lng="-80.041243931486775" zone="Zone 6" incidentdate="2016-09-30" incidenttime="00:01:00" incidentnumber="16185108" address="1100 block Strahley Pl" type="OFFENSE" age="" gender="" description="*********************************************** &lt;br/&gt;3921, Theft by Unlawful Taking or Disposition.&lt;br/&gt;"/><marker lat="40.453087824966865" lng="-80.000287901381768" zone="Zone 1" incidentdate="2016-09-30" incidenttime="14:14:00" incidentnumber="16184891" address="500 block Avery St" type="ARREST" age="24" gender="M" description="*********************************************** &lt;br/&gt;13(a)(16), Possession of Controlled Substance&lt;br/&gt;13(a)(30), Possession w/ Intent to Del. Controlled Substance&lt;br/&gt;1543, Driving While Operating Privilege is Suspended or Revoked.&lt;br/&gt;7512, Criminal Use of Communication&lt;br/&gt;"/><marker lat="40.463809151864481" lng="-79.931593714594143" zone="Zone 5" incidentdate="2016-09-30" incidenttime="20:46:00" incidentnumber="16185136" address="Penn Ave &amp; Stratford Ave" type="ARREST" age="20" gender="M" description="*********************************************** &lt;br/&gt;5104, Resisting Arrest or Other Law Enforcement.&lt;br/&gt;6106, Firearms not to be Carried without a License.&lt;br/&gt;"/><marker lat="40.458992505908604" lng="-80.005968132981423" zone="Zone 1" incidentdate="2016-09-30" incidenttime="17:41:00" incidentnumber="16185024" address="Shockoe Way &amp; Fountain St" type="ARREST" age="34" gender="F" description="*********************************************** &lt;br/&gt;13(a)(16), Possession of Controlled Substance&lt;br/&gt;13(a)(32), Paraphernalia - Use or Possession&lt;br/&gt;"/><marker lat="40.4149193" lng="-80.0113683" zone="Zone 3" incidentdate="2016-09-30" incidenttime="17:56:00" incidentnumber="16185032" address="Saw Mill Run Blvd &amp; W Warrington Ave" type="ARREST" age="39" gender="M" description="*********************************************** &lt;br/&gt;9501, Bench Warrant&lt;br/&gt;3304, Criminal Mischief.&lt;br/&gt;2705, Recklessly Endangering Another Person.&lt;br/&gt;3736, Reckless Driving&lt;br/&gt;3802(a)(1), DUI - General Impairment&lt;br/&gt;3743, Accidents Involving Damage to Attended Veh. or Property&lt;br/&gt;5121, Escape.&lt;br/&gt;3733, Fleeing or Attempting to Elude Police Officer&lt;br/&gt;5126, Flight to Avoid Apprehension, Trial or Punishment.&lt;br/&gt;"/><marker lat="40.436219725209988" lng="-79.95276246007019" zone="Zone 4" incidentdate="2016-09-30" incidenttime="17:46:00" incidentnumber="16185010" address="Dawson St &amp; Semple St" type="ARREST" age="51" gender="M" description="*********************************************** &lt;br/&gt;3802(a)(1), DUI - General Impairment&lt;br/&gt;3802(b), DUI - High Rate of Alchol - BAC &gt;=.10% &lt;.16%&lt;br/&gt;"/><marker lat="40.441772984812665" lng="-80.001620450643472" zone="Zone 2" incidentdate="2016-09-30" incidenttime="22:18:00" incidentnumber="16185169" address="600 block Liberty Ave" type="ARREST" age="29" gender="M" description="*********************************************** &lt;br/&gt;9501, Bench Warrant&lt;br/&gt;5104, Resisting Arrest or Other Law Enforcement.&lt;br/&gt;2702, Aggravated Assault.&lt;br/&gt;3929, Retail Theft.&lt;br/&gt;"/><marker lat="40.461896962922367" lng="-80.006805150161426" zone="Zone 1" incidentdate="2016-09-30" incidenttime="11:15:00" incidentnumber="16098311" address="1800 block Belleau Dr" type="ARREST" age="30" gender="F" description="*********************************************** &lt;br/&gt;3502, Burglary.&lt;br/&gt;3304, Criminal Mischief.&lt;br/&gt;3921, Theft by Unlawful Taking or Disposition.&lt;br/&gt;3925, Receiving Stolen Property.&lt;br/&gt;903, Criminal Conspiracy.&lt;br/&gt;"/><marker lat="40.46312597312226" lng="-80.011023023310585" zone="Zone 1" incidentdate="2016-09-30" incidenttime="13:30:00" incidentnumber="16169497" address="200 block Langley St" type="ARREST" age="19" gender="M" description="*********************************************** &lt;br/&gt;3502, Burglary.&lt;br/&gt;3921(a), Theft by Unlawful Taking or Disposition - Movable item&lt;br/&gt;3925, Receiving Stolen Property.&lt;br/&gt;"/><marker lat="40.487823540011732" lng="-79.897614208935366" zone="Zone 5" incidentdate="2016-09-30" incidenttime="20:36:00" incidentnumber="16185113" address="800 block Freeport Rd" type="ARREST" age="41" gender="M" description="*********************************************** &lt;br/&gt;9501, Bench Warrant&lt;br/&gt;3929, Retail Theft.&lt;br/&gt;"/><marker lat="40.4568818757675" lng="-80.032327050303749" zone="Zone 1" incidentdate="2016-09-30" incidenttime="13:30:00" incidentnumber="15217523" address="Columbus Ave" type="ARREST" age="19" gender="M" description="*********************************************** &lt;br/&gt;2701, Simple Assault.&lt;br/&gt;"/><marker lat="40.472636161181548" lng="-80.00946468067913" zone="Zone OSC" incidentdate="2016-09-30" incidenttime="12:54:00" incidentnumber="16177695" address="Veterans Way" type="ARREST" age="25" gender="M" description="*********************************************** &lt;br/&gt;3921(a), Theft by Unlawful Taking or Disposition - Movable item&lt;br/&gt;3921, Theft by Unlawful Taking or Disposition.&lt;br/&gt;3503, Criminal Trespass&lt;br/&gt;3304(a)(5), CRIMINAL MISCHIEF - Intentionally Damages Real Or Personal Property Of Another&lt;br/&gt;3925, Receiving Stolen Property.&lt;br/&gt;903, Criminal Conspiracy.&lt;br/&gt;3503(a), Criminal Trespass&lt;br/&gt;3503(b.1)(i), Simple Trespasser -- threatening or terrorizing the owner or occupant of the premises&lt;br/&gt;"/><marker lat="40.428684832699354" lng="-79.983306706238423" zone="Zone 3" incidentdate="2016-09-30" incidenttime="02:05:00" incidentnumber="16184594" address="1500 block S E Carson St" type="ARREST" age="26" gender="M" description="*********************************************** &lt;br/&gt;5104, Resisting Arrest or Other Law Enforcement.&lt;br/&gt;5503, Disorderly Conduct.&lt;br/&gt;2702, Aggravated Assault.&lt;br/&gt;5505, Public Drunkenness&lt;br/&gt;"/><marker lat="40.435349879075773" lng="-79.961349739888362" zone="Zone 4" incidentdate="2016-09-30" incidenttime="05:29:00" incidentnumber="16184658" address="300 block Craft Ave" type="ARREST" age="35" gender="M" description="*********************************************** &lt;br/&gt;9501, Bench Warrant&lt;br/&gt;"/><marker lat="40.464222661803049" lng="-79.939792129159841" zone="Zone 5" incidentdate="2016-09-30" incidenttime="05:25:00" incidentnumber="16184656" address="5200 block Penn Ave" type="ARREST" age="27" gender="M" description="*********************************************** &lt;br/&gt;3802(a)(1), DUI - General Impairment&lt;br/&gt;3802(b), DUI - High Rate of Alchol - BAC &gt;=.10% &lt;.16%&lt;br/&gt;"/><marker lat="40.451769171677476" lng="-79.952607869734138" zone="Zone 4" incidentdate="2016-09-30" incidenttime="14:33:00" incidentnumber="16173789" address="300 block Dollar St" type="ARREST" age="31" gender="M" description="*********************************************** &lt;br/&gt;3503.B1I, DEF. TRESPASS ACTUAL COMMUNICATION&lt;br/&gt;3929, Retail Theft.&lt;br/&gt;"/><marker lat="40.460768407974605" lng="-80.054473919507714" zone="Zone 6" incidentdate="2016-09-30" incidenttime="13:10:00" incidentnumber="16184850" address="400 block Stadium St" type="ARREST" age="40" gender="M" description="*********************************************** &lt;br/&gt;9501, Bench Warrant&lt;br/&gt;"/><marker lat="40.459401563139693" lng="-80.019172488430343" zone="Zone 1" incidentdate="2016-09-30" incidenttime="04:59:00" incidentnumber="16184650" address="900 block California Ave" type="ARREST" age="26" gender="F" description="*********************************************** &lt;br/&gt;3304, Criminal Mischief.&lt;br/&gt;3503, Criminal Trespass&lt;br/&gt;"/><marker lat="40.452984765236415" lng="-80.001589451334169" zone="Zone 1" incidentdate="2016-09-30" incidenttime="19:20:00" incidentnumber="16185097" address="Cedar Ave &amp; Virgin Way" type="ARREST" age="37" gender="F" description="*********************************************** &lt;br/&gt;13(a)(32), Paraphernalia - Use or Possession&lt;br/&gt;5104, Resisting Arrest or Other Law Enforcement.&lt;br/&gt;5505, Public Drunkenness&lt;br/&gt;5503(a)(2), DISORDERLY CONDUCT - UNREASONABLE NOISE&lt;br/&gt;"/><marker lat="40.457558966263164" lng="-80.005827119970419" zone="Zone 1" incidentdate="2016-09-30" incidenttime="20:18:00" incidentnumber="16185107" address="1400 block Loraine St" type="ARREST" age="24" gender="F" description="*********************************************** &lt;br/&gt;13(a)(16), Possession of Controlled Substance&lt;br/&gt;13(a)(32), Paraphernalia - Use or Possession&lt;br/&gt;"/><marker lat="40.453969822993002" lng="-79.998974758094874" zone="Zone 1" incidentdate="2016-09-30" incidenttime="21:22:00" incidentnumber="16185148" address="600 block East Ohio St" type="ARREST" age="36" gender="F" description="*********************************************** &lt;br/&gt;5507, Obstructing Highways and Passages.&lt;br/&gt;5505, Public Drunkenness&lt;br/&gt;5503(a)(3), DISORDERLY CONDUCT - OBSCENE LANG/GEST&lt;br/&gt;"/><marker lat="40.451617038816323" lng="-80.001145711453432" zone="Zone 1" incidentdate="2016-09-30" incidenttime="09:30:00" incidentnumber="16178397" address="Cedar Ave &amp; Presley Ave" type="ARREST" age="43" gender="M" description="*********************************************** &lt;br/&gt;4915, Failure to Comply with Megans Law&lt;br/&gt;"/><marker lat="40.428695537448661" lng="-79.986387155223355" zone="Zone 3" incidentdate="2016-09-30" incidenttime="09:40:00" incidentnumber="16175036" address="1200 block E Carson St" type="ARREST" age="24" gender="M" description="*********************************************** &lt;br/&gt;5121, Escape.&lt;br/&gt;"/><marker lat="40.413244662079144" lng="-79.989125551697001" zone="Zone 3" incidentdate="2016-09-30" incidenttime="23:07:00" incidentnumber="16185188" address="400 block Brownsville Rd" type="ARREST" age="34" gender="M" description="*********************************************** &lt;br/&gt;2701, Simple Assault.&lt;br/&gt;"/><marker lat="40.414746299882488" lng="-79.995184860921896" zone="Zone 3" incidentdate="2016-09-30" incidenttime="07:08:00" incidentnumber="16184685" address="400 block Rochelle St" type="ARREST" age="20" gender="M" description="*********************************************** &lt;br/&gt;13(a)(31), Marijuana: Possession Small Amount&lt;br/&gt;"/><marker lat="40.449945984416168" lng="-79.950663260585088" zone="Zone 4" incidentdate="2016-09-30" incidenttime="13:34:00" incidentnumber="16184840" address="200 block N Craig St" type="ARREST" age="31" gender="M" description="*********************************************** &lt;br/&gt;4904, Unsworn Falsification to Authorities.&lt;br/&gt;4114, Securing Execution of Documents by Deception.&lt;br/&gt;4104, Tampering with Records or Identification.&lt;br/&gt;"/><marker lat="40.420006909052937" lng="-79.997344533048036" zone="Zone 3" incidentdate="2016-09-30" incidenttime="11:10:00" incidentnumber="16170056" address="Beltzhoover Ave &amp; Climax St" type="ARREST" age="30" gender="F" description="*********************************************** &lt;br/&gt;2702, Aggravated Assault.&lt;br/&gt;2701, Simple Assault.&lt;br/&gt;901, Criminal Attempt&lt;br/&gt;"/><marker lat="40.45386432339663" lng="-80.061100958535718" zone="Zone 6" incidentdate="2016-09-30" incidenttime="22:18:00" incidentnumber="16178908" address="3100 block Chartiers Ave" type="ARREST" age="29" gender="M" description="*********************************************** &lt;br/&gt;3701, Robbery.&lt;br/&gt;3929, Retail Theft.&lt;br/&gt;"/><marker lat="40.470191186867375" lng="-79.960582682516446" zone="Zone 2" incidentdate="2016-09-30" incidenttime="09:55:00" incidentnumber="16162461" address="200 block 42nd St" type="ARREST" age="19" gender="M" description="*********************************************** &lt;br/&gt;2706, Terroristic Threats.&lt;br/&gt;"/><marker lat="40.424799080843286" lng="-79.96723263707986" zone="Zone 3" incidentdate="2016-09-30" incidenttime="20:36:00" incidentnumber="16178721" address="2800 block Jane St" type="ARREST" age="41" gender="M" description="*********************************************** &lt;br/&gt;3502, Burglary.&lt;br/&gt;3304, Criminal Mischief.&lt;br/&gt;3921, Theft by Unlawful Taking or Disposition.&lt;br/&gt;"/></markers>
