<?xml version="1.0"?>
<markers><marker lat="40.4475333" lng="-80.0040536" zone="Zone 1" incidentdate="2014-07-25" incidenttime="19:20:00" incidentnumber="14145636" address="Federal Street &amp; Roberto Clemente Bridge, Pittsburgh, PA 15212, USA" type="OFFENSE" description="*********************************************** &lt;br/&gt;13(a)(31), Marijuana: Possession Small Amount&lt;br/&gt;13(a)(31), Marijuana: Possession Small Amount&lt;br/&gt;"/><marker lat="40.4670214" lng="-79.9937027" zone="Zone 1" incidentdate="2014-07-25" incidenttime="07:00:00" incidentnumber="14145166" address="100 Rhine Place, Pittsburgh, PA 15212, USA" type="OFFENSE" description="*********************************************** &lt;br/&gt;3736, Reckless Driving&lt;br/&gt;3745, Accidents Involving Damage to Unattended Veh.or Prop.&lt;br/&gt;3802(a)(1), DUI - General Impairment&lt;br/&gt;3802(c), DUI - Highest Rate of Alcohol - BAC &gt;= .16%&lt;br/&gt;3736, Reckless Driving&lt;br/&gt;3745, Accidents Involving Damage to Unattended Veh.or Prop.&lt;br/&gt;3802(a)(1), DUI - General Impairment&lt;br/&gt;3802(c), DUI - Highest Rate of Alcohol - BAC &gt;= .16%&lt;br/&gt;"/><marker lat="40.4410911" lng="-79.9576259" zone="Zone 4" incidentdate="2014-07-25" incidenttime="16:00:00" incidentnumber="14145491" address="Forbes Avenue &amp; Atwood Street, Pittsburgh, PA 15213, USA" type="OFFENSE" description="*********************************************** &lt;br/&gt;3743, Accidents Involving Damage to Attended Veh. or Property&lt;br/&gt;"/><marker lat="40.4560813" lng="-79.9305684" zone="Zone 4" incidentdate="2014-07-25" incidenttime="18:00:00" incidentnumber="14145588" address="5800 Ellsworth Avenue, Pittsburgh, PA 15232, USA" type="OFFENSE" description="*********************************************** &lt;br/&gt;3745, Accidents Involving Damage to Unattended Veh.or Prop.&lt;br/&gt;"/><marker lat="40.4560813" lng="-79.9305684" zone="Zone 4" incidentdate="2014-07-25" incidenttime="18:00:00" incidentnumber="14145589" address="5800 Ellsworth Avenue, Pittsburgh, PA 15232, USA" type="OFFENSE" description="*********************************************** &lt;br/&gt;3745, Accidents Involving Damage to Unattended Veh.or Prop.&lt;br/&gt;"/><marker lat="40.4463608" lng="-79.94892" zone="Zone 4" incidentdate="2014-07-25" incidenttime="19:00:00" incidentnumber="14145668" address="South Craig Street &amp; Henry Street, Pittsburgh, PA 15213, USA" type="OFFENSE" description="*********************************************** &lt;br/&gt;3745, Accidents Involving Damage to Unattended Veh.or Prop.&lt;br/&gt;"/><marker lat="40.3655484" lng="-79.9088921" zone="Zone 4" incidentdate="2014-07-25" incidenttime="21:00:00" incidentnumber="14145698" address="5800 Mifflin Road, Pittsburgh, PA 15207, USA" type="OFFENSE" description="*********************************************** &lt;br/&gt;2701, Simple Assault.&lt;br/&gt;2701, Simple Assault.&lt;br/&gt;2701, Simple Assault.&lt;br/&gt;"/><marker lat="40.4555021" lng="-79.8970122" zone="Zone 5" incidentdate="2014-07-25" incidenttime="02:27:00" incidentnumber="14145085" address="7200 Kelly Street, Pittsburgh, PA 15208, USA" type="OFFENSE" description="*********************************************** &lt;br/&gt;3304, Criminal Mischief.&lt;br/&gt;"/><marker lat="40.4568173" lng="-79.8917293" zone="Zone 5" incidentdate="2014-07-25" incidenttime="03:15:00" incidentnumber="14145109" address="Collier Street &amp; Forest Way, Pittsburgh, PA 15208, USA" type="OFFENSE" description="*********************************************** &lt;br/&gt;9497, Aided Case&lt;br/&gt;"/><marker lat="40.4531702" lng="-79.8911064" zone="Zone 5" incidentdate="2014-07-25" incidenttime="06:15:00" incidentnumber="14145163" address="Hamilton Avenue &amp; North Braddock Avenue, Pittsburgh, PA 15208, USA" type="OFFENSE" description="*********************************************** &lt;br/&gt;5902(a)(2), Prostitution - Loitering for purpose of&lt;br/&gt;5902(a)(2), Prostitution - Loitering for purpose of&lt;br/&gt;"/><marker lat="40.4526394" lng="-79.8913098" zone="Zone 5" incidentdate="2014-07-25" incidenttime="07:10:00" incidentnumber="14145170" address="North Braddock Avenue &amp; Mulford Street, Pittsburgh, PA 15208, USA" type="OFFENSE" description="*********************************************** &lt;br/&gt;13(a)(32), Paraphernalia - Use or Possession&lt;br/&gt;5902(a)(1), Prostitution&lt;br/&gt;5902(a)(2), Prostitution - Loitering for purpose of&lt;br/&gt;13(a)(32), Paraphernalia - Use or Possession&lt;br/&gt;5902(a)(1), Prostitution&lt;br/&gt;5902(a)(2), Prostitution - Loitering for purpose of&lt;br/&gt;"/><marker lat="40.4584926" lng="-79.9011054" zone="Zone 5" incidentdate="2014-07-25" incidenttime="08:20:00" incidentnumber="14145203" address="Frankstown Avenue &amp; North Murtland Street, Pittsburgh, PA 15208, USA" type="OFFENSE" description="*********************************************** &lt;br/&gt;3742, Accidents Involving Death or Personal Injury&lt;br/&gt;"/><marker lat="40.452993" lng="-79.887158" zone="Zone 5" incidentdate="2014-07-25" incidenttime="08:30:00" incidentnumber="14145222" address="7800 Kelly Street, Pittsburgh, PA 15208, USA" type="OFFENSE" description="*********************************************** &lt;br/&gt;3502, Burglary.&lt;br/&gt;"/><marker lat="40.4545762" lng="-79.8721338" zone="Zone 5" incidentdate="2014-07-25" incidenttime="09:05:00" incidentnumber="14144586" address="2200 East Hills Drive, Pittsburgh, PA 15221, USA" type="OFFENSE" description="*********************************************** &lt;br/&gt;1501, Drivers Required to be Licensed.&lt;br/&gt;3921(a), Theft by Unlawful Taking or Disposition - Movable item&lt;br/&gt;3925, Receiving Stolen Property.&lt;br/&gt;903, Criminal Conspiracy.&lt;br/&gt;1501, Drivers Required to be Licensed.&lt;br/&gt;3921(a), Theft by Unlawful Taking or Disposition - Movable item&lt;br/&gt;3925, Receiving Stolen Property.&lt;br/&gt;903, Criminal Conspiracy.&lt;br/&gt;1501, Drivers Required to be Licensed.&lt;br/&gt;3925, Receiving Stolen Property.&lt;br/&gt;903, Criminal Conspiracy.&lt;br/&gt;"/><marker lat="40.4786377" lng="-79.9259721" zone="Zone 5" incidentdate="2014-07-25" incidenttime="10:00:00" incidentnumber="14145254" address="1300 Cordova Road, Pittsburgh, PA 15206, USA" type="OFFENSE" description="*********************************************** &lt;br/&gt;3934, Theft from Vehicle&lt;br/&gt;"/><marker lat="40.461162" lng="-79.894439" zone="Zone 5" incidentdate="2014-07-25" incidenttime="12:00:00" incidentnumber="14145316" address="7200 Mount Vernon Street, Pittsburgh, PA 15208, USA" type="OFFENSE" description="*********************************************** &lt;br/&gt;4106, Access Device Fraud&lt;br/&gt;"/><marker lat="40.459421" lng="-79.883318" zone="Zone 5" incidentdate="2014-07-25" incidenttime="13:45:00" incidentnumber="14145377" address="1100 Blackadore Avenue, Pittsburgh, PA 15221, USA" type="OFFENSE" description="*********************************************** &lt;br/&gt;2709(a), Harassment.&lt;br/&gt;3934, Theft from Vehicle&lt;br/&gt;"/><marker lat="40.4546302" lng="-79.8974978" zone="Zone 5" incidentdate="2014-07-25" incidenttime="15:19:00" incidentnumber="14145432" address="600 North Homewood Avenue, Pittsburgh, PA 15208, USA" type="OFFENSE" description="*********************************************** &lt;br/&gt;4106, Access Device Fraud&lt;br/&gt;"/><marker lat="40.4565124" lng="-79.8877058" zone="Zone 5" incidentdate="2014-07-25" incidenttime="15:35:00" incidentnumber="14143998" address="1000 Brushton Avenue, Pittsburgh, PA 15208, USA" type="OFFENSE" description="*********************************************** &lt;br/&gt;2702, Aggravated Assault.&lt;br/&gt;3701, Robbery.&lt;br/&gt;6110.1, Possesion of Firearm by Minor&lt;br/&gt;901, Criminal Attempt&lt;br/&gt;2702, Aggravated Assault.&lt;br/&gt;3701, Robbery.&lt;br/&gt;6110.1, Possesion of Firearm by Minor&lt;br/&gt;901, Criminal Attempt&lt;br/&gt;"/><marker lat="40.4631382" lng="-79.8992781" zone="Zone 5" incidentdate="2014-07-25" incidenttime="16:34:00" incidentnumber="14145492" address="7000 Upland Street, Pittsburgh, PA 15208, USA" type="OFFENSE" description="*********************************************** &lt;br/&gt;2702, Aggravated Assault.&lt;br/&gt;5104, Resisting Arrest or Other Law Enforcement.&lt;br/&gt;2702, Aggravated Assault.&lt;br/&gt;5104, Resisting Arrest or Other Law Enforcement.&lt;br/&gt;"/><marker lat="40.455621" lng="-79.896671" zone="Zone 5" incidentdate="2014-07-25" incidenttime="16:45:00" incidentnumber="14145571" address="700 North Homewood Avenue, Pittsburgh, PA 15208, USA" type="OFFENSE" description="*********************************************** &lt;br/&gt;3502, Burglary.&lt;br/&gt;"/><marker lat="40.4641407" lng="-79.9412674" zone="Zone 5" incidentdate="2014-07-25" incidenttime="16:56:00" incidentnumber="14145510" address="200 South Evaline Street, Pittsburgh, PA 15224, USA" type="OFFENSE" description="*********************************************** &lt;br/&gt;3502, Burglary.&lt;br/&gt;"/><marker lat="40.4632982" lng="-79.9120989" zone="Zone 5" incidentdate="2014-07-25" incidenttime="17:50:00" incidentnumber="14145541" address="500 Paulson Avenue, Pittsburgh, PA 15206, USA" type="OFFENSE" description="*********************************************** &lt;br/&gt;9488, False  Burglar Alarm&lt;br/&gt;"/><marker lat="40.4545418" lng="-79.8741914" zone="Zone 5" incidentdate="2014-07-25" incidenttime="18:00:00" incidentnumber="14145566" address="2100 Park Hill Drive, Pittsburgh, PA 15221, USA" type="OFFENSE" description="*********************************************** &lt;br/&gt;3304(a)(5), CRIMINAL MISCHIEF - Intentionally Damages Real Or Personal Property Of Another&lt;br/&gt;"/><marker lat="40.4690548" lng="-79.9187213" zone="Zone 5" incidentdate="2014-07-25" incidenttime="18:00:00" incidentnumber="14145519" address="Stanton Avenue &amp; Sheridan Avenue, Pittsburgh, PA 15206, USA" type="OFFENSE" description="*********************************************** &lt;br/&gt;3921(a), Theft by Unlawful Taking or Disposition - Movable item&lt;br/&gt;"/><marker lat="40.4596849" lng="-79.8930285" zone="Zone 5" incidentdate="2014-07-25" incidenttime="18:23:00" incidentnumber="14145623" address="7300 Hermitage Street, Pittsburgh, PA 15208, USA" type="OFFENSE" description="*********************************************** &lt;br/&gt;5123, Contraband.&lt;br/&gt;9501, Bench Warrant&lt;br/&gt;5123, Contraband.&lt;br/&gt;9501, Bench Warrant&lt;br/&gt;"/><marker lat="40.4657146" lng="-79.949449" zone="Zone 5" incidentdate="2014-07-25" incidenttime="18:46:00" incidentnumber="14145601" address="4600 Penn Avenue, Pittsburgh, PA 15224, USA" type="OFFENSE" description="*********************************************** &lt;br/&gt;13(a)(31), Marijuana: Possession Small Amount&lt;br/&gt;1543, Driving While Operating Privilege is Suspended or Revoked.&lt;br/&gt;13(a)(31), Marijuana: Possession Small Amount&lt;br/&gt;1543, Driving While Operating Privilege is Suspended or Revoked.&lt;br/&gt;"/><marker lat="40.4527129" lng="-79.8666384" zone="Zone 5" incidentdate="2014-07-25" incidenttime="19:19:00" incidentnumber="14145642" address="2200 Wilner Drive, Pittsburgh, PA 15221, USA" type="OFFENSE" description="*********************************************** &lt;br/&gt;9999, 9999 - (Misc. Incident):&lt;br/&gt;"/><marker lat="40.4606459" lng="-79.9227644" zone="Zone 5" incidentdate="2014-07-25" incidenttime="20:58:00" incidentnumber="14145696" address="6200 Penn Avenue, Pittsburgh, PA 15206, USA" type="OFFENSE" description="*********************************************** &lt;br/&gt;3929, Retail Theft.&lt;br/&gt;9501, Bench Warrant&lt;br/&gt;3929, Retail Theft.&lt;br/&gt;9501, Bench Warrant&lt;br/&gt;"/><marker lat="40.4531709" lng="-79.8910869" zone="Zone 5" incidentdate="2014-07-25" incidenttime="21:05:00" incidentnumber="14145702" address="600 North Braddock Avenue, Pittsburgh, PA 15208, USA" type="OFFENSE" description="*********************************************** &lt;br/&gt;2701, Simple Assault.&lt;br/&gt;3921, Theft by Unlawful Taking or Disposition.&lt;br/&gt;2701, Simple Assault.&lt;br/&gt;3921, Theft by Unlawful Taking or Disposition.&lt;br/&gt;3921, Theft by Unlawful Taking or Disposition.&lt;br/&gt;"/><marker lat="40.461839" lng="-79.930821" zone="Zone 5" incidentdate="2014-07-25" incidenttime="21:25:00" incidentnumber="14145717" address="200 Amber Street, Pittsburgh, PA 15206, USA" type="OFFENSE" description="*********************************************** &lt;br/&gt;9490, Missing Persons (18 and Over)&lt;br/&gt;"/><marker lat="40.4235701" lng="-80.0702566" zone="Zone 6" incidentdate="2014-07-25" incidenttime="02:24:00" incidentnumber="14145080" address="2700 Morange Road, Pittsburgh, PA 15205, USA" type="OFFENSE" description="*********************************************** &lt;br/&gt;9488, False  Burglar Alarm&lt;br/&gt;"/><marker lat="40.4008773" lng="-80.0118864" zone="Zone 6" incidentdate="2014-07-25" incidenttime="08:27:00" incidentnumber="14145206" address="700 Fernhill Avenue, Pittsburgh, PA 15226, USA" type="OFFENSE" description="*********************************************** &lt;br/&gt;9488, False  Burglar Alarm&lt;br/&gt;"/><marker lat="40.4436541" lng="-80.0488663" zone="Zone 6" incidentdate="2014-07-25" incidenttime="08:33:00" incidentnumber="14145208" address="1000 Ringgold Street, Pittsburgh, PA 15220, USA" type="OFFENSE" description="*********************************************** &lt;br/&gt;9488, False  Burglar Alarm&lt;br/&gt;"/><marker lat="40.4432565" lng="-80.0416835" zone="Zone 6" incidentdate="2014-07-25" incidenttime="10:11:00" incidentnumber="14145253" address="1000 Crucible Street, Pittsburgh, PA 15220, USA" type="OFFENSE" description="*********************************************** &lt;br/&gt;9999, 9999 - (Misc. Incident):&lt;br/&gt;"/><marker lat="40.4577618" lng="-80.0727029" zone="Zone 6" incidentdate="2014-07-25" incidenttime="12:00:00" incidentnumber="14145348" address="3700 Chartiers Avenue, Pittsburgh, PA 15204, USA" type="OFFENSE" description="*********************************************** &lt;br/&gt;9489, Found Property&lt;br/&gt;"/><marker lat="40.395271" lng="-80.020877" zone="Zone 6" incidentdate="2014-07-25" incidenttime="14:10:00" incidentnumber="14145383" address="700 Bellaire Avenue, Pittsburgh, PA 15226, USA" type="OFFENSE" description="*********************************************** &lt;br/&gt;9488, False  Burglar Alarm&lt;br/&gt;"/><marker lat="40.414041" lng="-80.018724" zone="Zone 6" incidentdate="2014-07-25" incidenttime="20:10:00" incidentnumber="14145661" address="1300 Orangewood Avenue, Pittsburgh, PA 15216, USA" type="OFFENSE" description="*********************************************** &lt;br/&gt;9488, False  Burglar Alarm&lt;br/&gt;"/><marker lat="40.455802" lng="-80.0082509" zone="Zone 1" incidentdate="2014-07-25" incidenttime="10:00:00" incidentnumber="14145309" address="1200 Butterfield Way, Pittsburgh, PA 15212, USA" type="OFFENSE" description="*********************************************** &lt;br/&gt;2709(a), Harassment.&lt;br/&gt;"/><marker lat="40.4545638" lng="-79.9993789" zone="Zone 1" incidentdate="2014-07-25" incidenttime="10:00:00" incidentnumber="14145248" address="Middle Street &amp; Foreland Street, Pittsburgh, PA 15212, USA" type="OFFENSE" description="*********************************************** &lt;br/&gt;5902(e), Patronizing a Prostitute&lt;br/&gt;902, Criminal Solicitation.&lt;br/&gt;5902(e), Patronizing a Prostitute&lt;br/&gt;902, Criminal Solicitation.&lt;br/&gt;"/><marker lat="40.4982742" lng="-80.0479449" zone="Zone 1" incidentdate="2014-07-25" incidenttime="10:15:00" incidentnumber="14145237" address="Beech Avenue, Pittsburgh, PA 15202, USA" type="OFFENSE" description="*********************************************** &lt;br/&gt;3502, Burglary.&lt;br/&gt;"/><marker lat="40.4843328" lng="-80.0369697" zone="Zone 1" incidentdate="2014-07-25" incidenttime="10:15:00" incidentnumber="14145258" address="1400 Benton Avenue, Pittsburgh, PA 15212, USA" type="OFFENSE" description="*********************************************** &lt;br/&gt;2709(a)(1), Harassment by Physical Contact, or Attempts or Threats&lt;br/&gt;"/><marker lat="40.4545638" lng="-79.9993789" zone="Zone 1" incidentdate="2014-07-25" incidenttime="10:25:00" incidentnumber="14145260" address="Middle Street &amp; Foreland Street, Pittsburgh, PA 15212, USA" type="OFFENSE" description="*********************************************** &lt;br/&gt;5902(e), Patronizing a Prostitute&lt;br/&gt;902, Criminal Solicitation.&lt;br/&gt;5902(e), Patronizing a Prostitute&lt;br/&gt;902, Criminal Solicitation.&lt;br/&gt;"/><marker lat="40.4545638" lng="-79.9993789" zone="Zone 1" incidentdate="2014-07-25" incidenttime="10:30:00" incidentnumber="14145265" address="Middle Street &amp; Foreland Street, Pittsburgh, PA 15212, USA" type="OFFENSE" description="*********************************************** &lt;br/&gt;5902(e), Patronizing a Prostitute&lt;br/&gt;902, Criminal Solicitation.&lt;br/&gt;5902(e), Patronizing a Prostitute&lt;br/&gt;902, Criminal Solicitation.&lt;br/&gt;"/><marker lat="40.4545638" lng="-79.9993789" zone="Zone 1" incidentdate="2014-07-25" incidenttime="11:10:00" incidentnumber="14145278" address="Middle Street &amp; Foreland Street, Pittsburgh, PA 15212, USA" type="OFFENSE" description="*********************************************** &lt;br/&gt;5902(e), Patronizing a Prostitute&lt;br/&gt;902, Criminal Solicitation.&lt;br/&gt;5902(e), Patronizing a Prostitute&lt;br/&gt;902, Criminal Solicitation.&lt;br/&gt;"/><marker lat="40.4626148" lng="-80.008287" zone="Zone 1" incidentdate="2014-07-25" incidenttime="11:15:00" incidentnumber="14145284" address="1700 Letsche Street, Pittsburgh, PA 15214, USA" type="OFFENSE" description="*********************************************** &lt;br/&gt;2709(a), Harassment.&lt;br/&gt;"/><marker lat="40.4545638" lng="-79.9993789" zone="Zone 1" incidentdate="2014-07-25" incidenttime="11:50:00" incidentnumber="14145306" address="Middle Street &amp; Foreland Street, Pittsburgh, PA 15212, USA" type="OFFENSE" description="*********************************************** &lt;br/&gt;5902(e), Patronizing a Prostitute&lt;br/&gt;902, Criminal Solicitation.&lt;br/&gt;5902(e), Patronizing a Prostitute&lt;br/&gt;902, Criminal Solicitation.&lt;br/&gt;"/><marker lat="40.4755513" lng="-80.0035639" zone="Zone 1" incidentdate="2014-07-25" incidenttime="12:13:00" incidentnumber="14145325" address="100 Hazlett Street, Pittsburgh, PA 15214, USA" type="OFFENSE" description="*********************************************** &lt;br/&gt;3503.B1I, DEF. TRESPASS ACTUAL COMMUNICATION&lt;br/&gt;3503.B1I, DEF. TRESPASS ACTUAL COMMUNICATION&lt;br/&gt;"/><marker lat="40.4845242" lng="-80.0356829" zone="Zone 1" incidentdate="2014-07-25" incidenttime="15:15:00" incidentnumber="14145621" address="3800 Brighton Road, Pittsburgh, PA 15212, USA" type="OFFENSE" description="*********************************************** &lt;br/&gt;029, Missing Juvenile&lt;br/&gt;"/><marker lat="40.4524226" lng="-80.0034791" zone="Zone 1" incidentdate="2014-07-25" incidenttime="17:15:00" incidentnumber="14145564" address="400 East Commons, Pittsburgh, PA 15212, USA" type="OFFENSE" description="*********************************************** &lt;br/&gt;3304, Criminal Mischief.&lt;br/&gt;"/><marker lat="40.4548199" lng="-79.998119" zone="Zone 1" incidentdate="2014-07-25" incidenttime="17:31:00" incidentnumber="14145538" address="800 East Street, Pittsburgh, PA 15212, USA" type="OFFENSE" description="*********************************************** &lt;br/&gt;3701, Robbery.&lt;br/&gt;3701, Robbery.&lt;br/&gt;"/><marker lat="40.458512" lng="-80.015895" zone="Zone 1" incidentdate="2014-07-25" incidenttime="18:00:00" incidentnumber="14145563" address="1700 Brighton Road, Pittsburgh, PA 15212, USA" type="OFFENSE" description="*********************************************** &lt;br/&gt;2709(a), Harassment.&lt;br/&gt;"/><marker lat="40.4564259" lng="-80.001573" zone="Zone 1" incidentdate="2014-07-25" incidenttime="18:11:00" incidentnumber="14145561" address="East North Avenue &amp; James Street, Pittsburgh, PA 15212, USA" type="OFFENSE" description="*********************************************** &lt;br/&gt;13(a)(16), Possession of Controlled Substance&lt;br/&gt;13(a)(30), Possession w/ Intent to Del. Controlled Substance&lt;br/&gt;4910, Tampering with or Fabricating Physical Evidence.&lt;br/&gt;4914, False Identification to Law Enforcement Authorities&lt;br/&gt;9501, Bench Warrant&lt;br/&gt;13(a)(16), Possession of Controlled Substance&lt;br/&gt;13(a)(30), Possession w/ Intent to Del. Controlled Substance&lt;br/&gt;3334, Turning Movements and Required Signals.&lt;br/&gt;4910, Tampering with or Fabricating Physical Evidence.&lt;br/&gt;4914, False Identification to Law Enforcement Authorities&lt;br/&gt;9501, Bench Warrant&lt;br/&gt;"/><marker lat="40.4560779" lng="-80.0036681" zone="Zone 1" incidentdate="2014-07-25" incidenttime="01:00:00" incidentnumber="14145055" address="300 East North Avenue, Pittsburgh, PA 15212, USA" type="OFFENSE" description="*********************************************** &lt;br/&gt;3304(a)(5), CRIMINAL MISCHIEF - Intentionally Damages Real Or Personal Property Of Another&lt;br/&gt;"/><marker lat="40.4733589" lng="-80.0314323" zone="Zone 1" incidentdate="2014-07-25" incidenttime="20:30:00" incidentnumber="14145687" address="3100 Shadeland Avenue, Pittsburgh, PA 15212, USA" type="OFFENSE" description="*********************************************** &lt;br/&gt;13(a)(16), Possession of Controlled Substance&lt;br/&gt;13(a)(30), Possession w/ Intent to Del. Controlled Substance&lt;br/&gt;4910, Tampering with or Fabricating Physical Evidence.&lt;br/&gt;13(a)(16), Possession of Controlled Substance&lt;br/&gt;13(a)(30), Possession w/ Intent to Del. Controlled Substance&lt;br/&gt;4910, Tampering with or Fabricating Physical Evidence.&lt;br/&gt;4910, Tampering with or Fabricating Physical Evidence.&lt;br/&gt;"/><marker lat="40.452315" lng="-79.980005" zone="Zone 2" incidentdate="2014-07-25" incidenttime="05:38:00" incidentnumber="14145153" address="2500 Liberty Avenue, Pittsburgh, PA 15222, USA" type="OFFENSE" description="*********************************************** &lt;br/&gt;9488, False  Burglar Alarm&lt;br/&gt;"/><marker lat="40.4488248" lng="-79.9864119" zone="Zone 2" incidentdate="2014-07-25" incidenttime="08:25:00" incidentnumber="14145204" address="1600 Liberty Avenue, Pittsburgh, PA 15222, USA" type="OFFENSE" description="*********************************************** &lt;br/&gt;3743, Accidents Involving Damage to Attended Veh. or Property&lt;br/&gt;"/><marker lat="40.4449179" lng="-79.9937547" zone="Zone 2" incidentdate="2014-07-25" incidenttime="08:45:00" incidentnumber="14145221" address="Penn Avenue &amp; 11th Street, Pittsburgh, PA 15222, USA" type="OFFENSE" description="*********************************************** &lt;br/&gt;2709(a)(1), Harassment by Physical Contact, or Attempts or Threats&lt;br/&gt;"/><marker lat="40.4393614" lng="-80.0012669" zone="Zone 2" incidentdate="2014-07-25" incidenttime="11:40:00" incidentnumber="14145303" address="400 Wood Street, Pittsburgh, PA 15222, USA" type="OFFENSE" description="*********************************************** &lt;br/&gt;3921(a), Theft by Unlawful Taking or Disposition - Movable item&lt;br/&gt;"/><marker lat="40.442053" lng="-79.982989" zone="Zone 2" incidentdate="2014-07-25" incidenttime="12:30:00" incidentnumber="14145355" address="1800 Centre Avenue, Pittsburgh, PA 15219, USA" type="OFFENSE" description="*********************************************** &lt;br/&gt;3745, Accidents Involving Damage to Unattended Veh.or Prop.&lt;br/&gt;"/><marker lat="40.4405868" lng="-80.0021963" zone="Zone 2" incidentdate="2014-07-25" incidenttime="14:00:00" incidentnumber="14145408" address="200 Forbes Avenue, Pittsburgh, PA 15222, USA" type="OFFENSE" description="*********************************************** &lt;br/&gt;2709(a)(1), Harassment by Physical Contact, or Attempts or Threats&lt;br/&gt;"/><marker lat="40.4487797" lng="-79.9615652" zone="Zone 2" incidentdate="2014-07-25" incidenttime="14:35:00" incidentnumber="14145477" address="3100 Ewart Drive, Pittsburgh, PA 15219, USA" type="OFFENSE" description="*********************************************** &lt;br/&gt;3502, Burglary.&lt;br/&gt;3921(a), Theft by Unlawful Taking or Disposition - Movable item&lt;br/&gt;"/><marker lat="40.4798206" lng="-79.953649" zone="Zone 2" incidentdate="2014-07-25" incidenttime="16:22:00" incidentnumber="14145578" address="400 52nd Street, Pittsburgh, PA 15201, USA" type="OFFENSE" description="*********************************************** &lt;br/&gt;13(a)(31), Marijuana: Possession Small Amount&lt;br/&gt;13(a)(32), Paraphernalia - Use or Possession&lt;br/&gt;13(a)(31), Marijuana: Possession Small Amount&lt;br/&gt;13(a)(32), Paraphernalia - Use or Possession&lt;br/&gt;"/><marker lat="40.4395271" lng="-79.9981821" zone="Zone 2" incidentdate="2014-07-25" incidenttime="19:00:00" incidentnumber="14145628" address="400 Fifth Avenue, Pittsburgh, PA 15219, USA" type="OFFENSE" description="*********************************************** &lt;br/&gt;3929, Retail Theft.&lt;br/&gt;3929, Retail Theft.&lt;br/&gt;3929, Retail Theft.&lt;br/&gt;"/><marker lat="40.4217935" lng="-79.9937597" zone="Zone 3" incidentdate="2014-07-25" incidenttime="03:40:00" incidentnumber="14145118" address="East Warrington Avenue &amp; Allen Street, Pittsburgh, PA 15210, USA" type="OFFENSE" description="*********************************************** &lt;br/&gt;13(a)(32), Paraphernalia - Use or Possession&lt;br/&gt;13(a)(32), Paraphernalia - Use or Possession&lt;br/&gt;"/><marker lat="40.386895" lng="-79.983508" zone="Zone 3" incidentdate="2014-07-25" incidenttime="06:45:00" incidentnumber="14145202" address="2400 Brownsville Road, Pittsburgh, PA 15210, USA" type="OFFENSE" description="*********************************************** &lt;br/&gt;3304, Criminal Mischief.&lt;br/&gt;"/><marker lat="40.4220329" lng="-79.9647028" zone="Zone 3" incidentdate="2014-07-25" incidenttime="06:50:00" incidentnumber="14145232" address="3100 Mary Street, Pittsburgh, PA 15203, USA" type="OFFENSE" description="*********************************************** &lt;br/&gt;3921, Theft by Unlawful Taking or Disposition.&lt;br/&gt;"/><marker lat="40.416942" lng="-79.975862" zone="Zone 3" incidentdate="2014-07-25" incidenttime="08:00:00" incidentnumber="14145213" address="2200 Arlington Avenue, Pittsburgh, PA 15210, USA" type="OFFENSE" description="*********************************************** &lt;br/&gt;3921, Theft by Unlawful Taking or Disposition.&lt;br/&gt;"/><marker lat="40.4208061" lng="-79.9937105" zone="Zone 3" incidentdate="2014-07-25" incidenttime="08:15:00" incidentnumber="14145365" address="800 Industry Street, Pittsburgh, PA 15210, USA" type="OFFENSE" description="*********************************************** &lt;br/&gt;029, Missing Juvenile&lt;br/&gt;"/><marker lat="40.4316821" lng="-79.980673" zone="Zone 3" incidentdate="2014-07-25" incidenttime="10:00:00" incidentnumber="14145439" address="South Shore Court, Pittsburgh, PA 15203, USA" type="OFFENSE" description="*********************************************** &lt;br/&gt;3921, Theft by Unlawful Taking or Disposition.&lt;br/&gt;"/><marker lat="40.4183339" lng="-80.0083278" zone="Zone 3" incidentdate="2014-07-25" incidenttime="12:05:00" incidentnumber="14145302" address="Climax Street &amp; Taft Avenue, Pittsburgh, PA 15210, USA" type="OFFENSE" description="*********************************************** &lt;br/&gt;1543, Driving While Operating Privilege is Suspended or Revoked.&lt;br/&gt;3714, Careless Driving&lt;br/&gt;3802(d)(2), DUI - Drug - Impaired Ability&lt;br/&gt;4703, Operation of Vehicle without Official Certif. of Inspection&lt;br/&gt;1543, Driving While Operating Privilege is Suspended or Revoked.&lt;br/&gt;3714, Careless Driving&lt;br/&gt;3802(d)(2), DUI - Drug - Impaired Ability&lt;br/&gt;4703, Operation of Vehicle without Official Certif. of Inspection&lt;br/&gt;"/><marker lat="40.392022" lng="-79.990323" zone="Zone 3" incidentdate="2014-07-25" incidenttime="12:15:00" incidentnumber="14145310" address="200 Parkfield Street, Pittsburgh, PA 15210, USA" type="OFFENSE" description="*********************************************** &lt;br/&gt;9489, Found Property&lt;br/&gt;"/><marker lat="40.3854309" lng="-79.978824" zone="Zone 3" incidentdate="2014-07-25" incidenttime="13:00:00" incidentnumber="14145620" address="2600 Brownsville Road, Pittsburgh, PA 15227, USA" type="OFFENSE" description="*********************************************** &lt;br/&gt;9999, 9999 - (Misc. Incident):&lt;br/&gt;"/><marker lat="40.433142" lng="-80.016586" zone="Zone 3" incidentdate="2014-07-25" incidenttime="16:01:00" incidentnumber="14145467" address="300 Labelle Street, Pittsburgh, PA 15211, USA" type="OFFENSE" description="*********************************************** &lt;br/&gt;3921, Theft by Unlawful Taking or Disposition.&lt;br/&gt;3922, Theft by Deception.&lt;br/&gt;"/><marker lat="40.4216448" lng="-79.9974076" zone="Zone 3" incidentdate="2014-07-25" incidenttime="19:16:00" incidentnumber="14145615" address="East Warrington Avenue &amp; Beltzhoover Avenue, Pittsburgh, PA 15210, USA" type="OFFENSE" description="*********************************************** &lt;br/&gt;13(a)(31), Marijuana: Possession Small Amount&lt;br/&gt;4303, General Lighting Requirements.&lt;br/&gt;13(a)(31), Marijuana: Possession Small Amount&lt;br/&gt;4303, General Lighting Requirements.&lt;br/&gt;"/><marker lat="40.441557" lng="-79.914512" zone="Zone 4" incidentdate="2014-07-25" incidenttime="05:46:00" incidentnumber="14145158" address="6600 Dalzell Place, Pittsburgh, PA 15217, USA" type="OFFENSE" description="*********************************************** &lt;br/&gt;9999, 9999 - (Misc. Incident):&lt;br/&gt;"/><marker lat="40.4487224" lng="-79.8967342" zone="Zone 4" incidentdate="2014-07-25" incidenttime="06:50:00" incidentnumber="14145167" address="7400 Meade Street, Pittsburgh, PA 15208, USA" type="OFFENSE" description="*********************************************** &lt;br/&gt;13(a)(32), Paraphernalia - Use or Possession&lt;br/&gt;5902(a)(1), Prostitution&lt;br/&gt;5902(a)(2), Prostitution - Loitering for purpose of&lt;br/&gt;13(a)(32), Paraphernalia - Use or Possession&lt;br/&gt;5902(a)(1), Prostitution&lt;br/&gt;5902(a)(2), Prostitution - Loitering for purpose of&lt;br/&gt;"/><marker lat="40.438621" lng="-79.9767342" zone="Zone 4" incidentdate="2014-07-25" incidenttime="07:20:00" incidentnumber="14145180" address="2000 De Ruad Street, Pittsburgh, PA 15219, USA" type="OFFENSE" description="*********************************************** &lt;br/&gt;13(a)(31), Marijuana: Possession Small Amount&lt;br/&gt;13(a)(31), Marijuana: Possession Small Amount&lt;br/&gt;"/><marker lat="40.4571291" lng="-79.9334864" zone="Zone 4" incidentdate="2014-07-25" incidenttime="12:40:00" incidentnumber="14145358" address="5700 Centre Avenue, Pittsburgh, PA 15206, USA" type="OFFENSE" description="*********************************************** &lt;br/&gt;3921, Theft by Unlawful Taking or Disposition.&lt;br/&gt;"/><marker lat="40.4269085" lng="-79.9495132" zone="Zone 4" incidentdate="2014-07-25" incidenttime="13:50:00" incidentnumber="14145376" address="200 Saline Street, Pittsburgh, PA 15207, USA" type="OFFENSE" description="*********************************************** &lt;br/&gt;3502, Burglary.&lt;br/&gt;"/><marker lat="40.4670214" lng="-79.9937027" zone="Zone 1" incidentdate="2014-07-25" incidenttime="07:00:00" incidentnumber="14145166" address="100 Rhine Place, Pittsburgh, PA 15212, USA" type="ARREST" description="*********************************************** &lt;br/&gt;3736, Reckless Driving&lt;br/&gt;3745, Accidents Involving Damage to Unattended Veh.or Prop.&lt;br/&gt;3802(a)(1), DUI - General Impairment&lt;br/&gt;3802(c), DUI - Highest Rate of Alcohol - BAC &gt;= .16%&lt;br/&gt;3736, Reckless Driving&lt;br/&gt;3745, Accidents Involving Damage to Unattended Veh.or Prop.&lt;br/&gt;3802(a)(1), DUI - General Impairment&lt;br/&gt;3802(c), DUI - Highest Rate of Alcohol - BAC &gt;= .16%&lt;br/&gt;"/><marker lat="40.4531709" lng="-79.8910869" zone="Zone 5" incidentdate="2014-07-25" incidenttime="21:39:00" incidentnumber="14145702" address="600 North Braddock Avenue, Pittsburgh, PA 15208, USA" type="ARREST" description="*********************************************** &lt;br/&gt;2701, Simple Assault.&lt;br/&gt;3921, Theft by Unlawful Taking or Disposition.&lt;br/&gt;2701, Simple Assault.&lt;br/&gt;3921, Theft by Unlawful Taking or Disposition.&lt;br/&gt;3921, Theft by Unlawful Taking or Disposition.&lt;br/&gt;"/><marker lat="40.4798206" lng="-79.953649" zone="Zone 2" incidentdate="2014-07-25" incidenttime="16:22:00" incidentnumber="14145578" address="400 52nd Street, Pittsburgh, PA 15201, USA" type="ARREST" description="*********************************************** &lt;br/&gt;13(a)(31), Marijuana: Possession Small Amount&lt;br/&gt;13(a)(32), Paraphernalia - Use or Possession&lt;br/&gt;13(a)(31), Marijuana: Possession Small Amount&lt;br/&gt;13(a)(32), Paraphernalia - Use or Possession&lt;br/&gt;"/><marker lat="40.4545638" lng="-79.9993789" zone="Zone 1" incidentdate="2014-07-25" incidenttime="10:00:00" incidentnumber="14145248" address="Middle Street &amp; Foreland Street, Pittsburgh, PA 15212, USA" type="ARREST" description="*********************************************** &lt;br/&gt;5902(e), Patronizing a Prostitute&lt;br/&gt;902, Criminal Solicitation.&lt;br/&gt;5902(e), Patronizing a Prostitute&lt;br/&gt;902, Criminal Solicitation.&lt;br/&gt;"/><marker lat="40.4631382" lng="-79.8992781" zone="Zone 5" incidentdate="2014-07-25" incidenttime="16:40:00" incidentnumber="14145492" address="7000 Upland Street, Pittsburgh, PA 15208, USA" type="ARREST" description="*********************************************** &lt;br/&gt;2702, Aggravated Assault.&lt;br/&gt;5104, Resisting Arrest or Other Law Enforcement.&lt;br/&gt;2702, Aggravated Assault.&lt;br/&gt;5104, Resisting Arrest or Other Law Enforcement.&lt;br/&gt;"/><marker lat="40.4237922" lng="-79.9521696" zone="Zone 2" incidentdate="2014-07-25" incidenttime="18:50:00" incidentnumber="13257914" address="900 Second Avenue, Pittsburgh, PA 15207, USA" type="ARREST" description="*********************************************** &lt;br/&gt;2701, Simple Assault.&lt;br/&gt;"/><marker lat="40.4545638" lng="-79.9993789" zone="Zone 1" incidentdate="2014-07-25" incidenttime="10:25:00" incidentnumber="14145260" address="Middle Street &amp; Foreland Street, Pittsburgh, PA 15212, USA" type="ARREST" description="*********************************************** &lt;br/&gt;5902(e), Patronizing a Prostitute&lt;br/&gt;902, Criminal Solicitation.&lt;br/&gt;5902(e), Patronizing a Prostitute&lt;br/&gt;902, Criminal Solicitation.&lt;br/&gt;"/><marker lat="40.4487224" lng="-79.8967342" zone="Zone 4" incidentdate="2014-07-25" incidenttime="06:50:00" incidentnumber="14145167" address="7400 Meade Street, Pittsburgh, PA 15208, USA" type="ARREST" description="*********************************************** &lt;br/&gt;13(a)(32), Paraphernalia - Use or Possession&lt;br/&gt;5902(a)(1), Prostitution&lt;br/&gt;5902(a)(2), Prostitution - Loitering for purpose of&lt;br/&gt;13(a)(32), Paraphernalia - Use or Possession&lt;br/&gt;5902(a)(1), Prostitution&lt;br/&gt;5902(a)(2), Prostitution - Loitering for purpose of&lt;br/&gt;"/><marker lat="40.4395271" lng="-79.9981821" zone="Zone 2" incidentdate="2014-07-25" incidenttime="19:15:00" incidentnumber="14145628" address="400 Fifth Avenue, Pittsburgh, PA 15219, USA" type="ARREST" description="*********************************************** &lt;br/&gt;3929, Retail Theft.&lt;br/&gt;3929, Retail Theft.&lt;br/&gt;3929, Retail Theft.&lt;br/&gt;"/><marker lat="40.4545638" lng="-79.9993789" zone="Zone 1" incidentdate="2014-07-25" incidenttime="10:30:00" incidentnumber="14145265" address="Middle Street &amp; Foreland Street, Pittsburgh, PA 15212, USA" type="ARREST" description="*********************************************** &lt;br/&gt;5902(e), Patronizing a Prostitute&lt;br/&gt;902, Criminal Solicitation.&lt;br/&gt;5902(e), Patronizing a Prostitute&lt;br/&gt;902, Criminal Solicitation.&lt;br/&gt;"/><marker lat="40.4545638" lng="-79.9993789" zone="Zone 1" incidentdate="2014-07-25" incidenttime="11:05:00" incidentnumber="14145278" address="Middle Street &amp; Foreland Street, Pittsburgh, PA 15212, USA" type="ARREST" description="*********************************************** &lt;br/&gt;5902(e), Patronizing a Prostitute&lt;br/&gt;902, Criminal Solicitation.&lt;br/&gt;5902(e), Patronizing a Prostitute&lt;br/&gt;902, Criminal Solicitation.&lt;br/&gt;"/><marker lat="40.4217935" lng="-79.9937597" zone="Zone 3" incidentdate="2014-07-25" incidenttime="03:40:00" incidentnumber="14145118" address="East Warrington Avenue &amp; Allen Street, Pittsburgh, PA 15210, USA" type="ARREST" description="*********************************************** &lt;br/&gt;13(a)(32), Paraphernalia - Use or Possession&lt;br/&gt;13(a)(32), Paraphernalia - Use or Possession&lt;br/&gt;"/><marker lat="40.4531702" lng="-79.8911064" zone="Zone 5" incidentdate="2014-07-25" incidenttime="06:25:00" incidentnumber="14145163" address="Hamilton Avenue &amp; North Braddock Avenue, Pittsburgh, PA 15208, USA" type="ARREST" description="*********************************************** &lt;br/&gt;5902(a)(2), Prostitution - Loitering for purpose of&lt;br/&gt;5902(a)(2), Prostitution - Loitering for purpose of&lt;br/&gt;"/><marker lat="40.438621" lng="-79.9767342" zone="Zone 4" incidentdate="2014-07-25" incidenttime="07:20:00" incidentnumber="14145180" address="2000 De Ruad Street, Pittsburgh, PA 15219, USA" type="ARREST" description="*********************************************** &lt;br/&gt;13(a)(31), Marijuana: Possession Small Amount&lt;br/&gt;13(a)(31), Marijuana: Possession Small Amount&lt;br/&gt;"/><marker lat="40.4545638" lng="-79.9993789" zone="Zone 1" incidentdate="2014-07-25" incidenttime="11:50:00" incidentnumber="14145306" address="Middle Street &amp; Foreland Street, Pittsburgh, PA 15212, USA" type="ARREST" description="*********************************************** &lt;br/&gt;5902(e), Patronizing a Prostitute&lt;br/&gt;902, Criminal Solicitation.&lt;br/&gt;5902(e), Patronizing a Prostitute&lt;br/&gt;902, Criminal Solicitation.&lt;br/&gt;"/><marker lat="40.4596849" lng="-79.8930285" zone="Zone 5" incidentdate="2014-07-25" incidenttime="19:02:00" incidentnumber="14145623" address="7300 Hermitage Street, Pittsburgh, PA 15208, USA" type="ARREST" description="*********************************************** &lt;br/&gt;5123, Contraband.&lt;br/&gt;9501, Bench Warrant&lt;br/&gt;5123, Contraband.&lt;br/&gt;9501, Bench Warrant&lt;br/&gt;"/><marker lat="40.4755513" lng="-80.0035639" zone="Zone 1" incidentdate="2014-07-25" incidenttime="12:45:00" incidentnumber="14145325" address="100 Hazlett Street, Pittsburgh, PA 15214, USA" type="ARREST" description="*********************************************** &lt;br/&gt;3503.B1I, DEF. TRESPASS ACTUAL COMMUNICATION&lt;br/&gt;3503.B1I, DEF. TRESPASS ACTUAL COMMUNICATION&lt;br/&gt;"/><marker lat="40.4887743" lng="-80.0140253" zone="Zone 1" incidentdate="2014-07-25" incidenttime="13:40:00" incidentnumber="14134323" address="3700 Baytree Street, Pittsburgh, PA 15214, USA" type="ARREST" description="*********************************************** &lt;br/&gt;2701, Simple Assault.&lt;br/&gt;2705, Recklessly Endangering Another Person.&lt;br/&gt;"/><marker lat="40.4526394" lng="-79.8913098" zone="Zone 5" incidentdate="2014-07-25" incidenttime="07:10:00" incidentnumber="14145170" address="North Braddock Avenue &amp; Mulford Street, Pittsburgh, PA 15208, USA" type="ARREST" description="*********************************************** &lt;br/&gt;13(a)(32), Paraphernalia - Use or Possession&lt;br/&gt;5902(a)(1), Prostitution&lt;br/&gt;5902(a)(2), Prostitution - Loitering for purpose of&lt;br/&gt;13(a)(32), Paraphernalia - Use or Possession&lt;br/&gt;5902(a)(1), Prostitution&lt;br/&gt;5902(a)(2), Prostitution - Loitering for purpose of&lt;br/&gt;"/><marker lat="40.4606459" lng="-79.9227644" zone="Zone 5" incidentdate="2014-07-25" incidenttime="20:58:00" incidentnumber="14145696" address="6200 Penn Avenue, Pittsburgh, PA 15206, USA" type="ARREST" description="*********************************************** &lt;br/&gt;3929, Retail Theft.&lt;br/&gt;9501, Bench Warrant&lt;br/&gt;3929, Retail Theft.&lt;br/&gt;9501, Bench Warrant&lt;br/&gt;"/><marker lat="40.4565124" lng="-79.8877058" zone="Zone 5" incidentdate="2014-07-25" incidenttime="15:34:00" incidentnumber="14143998" address="1000 Brushton Avenue, Pittsburgh, PA 15208, USA" type="ARREST" description="*********************************************** &lt;br/&gt;2702, Aggravated Assault.&lt;br/&gt;3701, Robbery.&lt;br/&gt;6110.1, Possesion of Firearm by Minor&lt;br/&gt;901, Criminal Attempt&lt;br/&gt;2702, Aggravated Assault.&lt;br/&gt;3701, Robbery.&lt;br/&gt;6110.1, Possesion of Firearm by Minor&lt;br/&gt;901, Criminal Attempt&lt;br/&gt;"/><marker lat="40.4548199" lng="-79.998119" zone="Zone 1" incidentdate="2014-07-25" incidenttime="17:35:00" incidentnumber="14145538" address="800 East Street, Pittsburgh, PA 15212, USA" type="ARREST" description="*********************************************** &lt;br/&gt;3701, Robbery.&lt;br/&gt;3701, Robbery.&lt;br/&gt;"/><marker lat="40.386775" lng="-79.989927" zone="Zone 3" incidentdate="2014-07-25" incidenttime="11:40:00" incidentnumber="14137310" address="400 Overbrook Boulevard, Pittsburgh, PA 15210, USA" type="ARREST" description="*********************************************** &lt;br/&gt;1543, Driving While Operating Privilege is Suspended or Revoked.&lt;br/&gt;4914, False Identification to Law Enforcement Authorities&lt;br/&gt;"/><marker lat="40.4564259" lng="-80.001573" zone="Zone 1" incidentdate="2014-07-25" incidenttime="18:11:00" incidentnumber="14145561" address="East North Avenue &amp; James Street, Pittsburgh, PA 15212, USA" type="ARREST" description="*********************************************** &lt;br/&gt;13(a)(16), Possession of Controlled Substance&lt;br/&gt;13(a)(30), Possession w/ Intent to Del. Controlled Substance&lt;br/&gt;4910, Tampering with or Fabricating Physical Evidence.&lt;br/&gt;4914, False Identification to Law Enforcement Authorities&lt;br/&gt;9501, Bench Warrant&lt;br/&gt;13(a)(16), Possession of Controlled Substance&lt;br/&gt;13(a)(30), Possession w/ Intent to Del. Controlled Substance&lt;br/&gt;3334, Turning Movements and Required Signals.&lt;br/&gt;4910, Tampering with or Fabricating Physical Evidence.&lt;br/&gt;4914, False Identification to Law Enforcement Authorities&lt;br/&gt;9501, Bench Warrant&lt;br/&gt;"/><marker lat="40.4657146" lng="-79.949449" zone="Zone 5" incidentdate="2014-07-25" incidenttime="18:35:00" incidentnumber="14145601" address="4600 Penn Avenue, Pittsburgh, PA 15224, USA" type="ARREST" description="*********************************************** &lt;br/&gt;13(a)(31), Marijuana: Possession Small Amount&lt;br/&gt;1543, Driving While Operating Privilege is Suspended or Revoked.&lt;br/&gt;13(a)(31), Marijuana: Possession Small Amount&lt;br/&gt;1543, Driving While Operating Privilege is Suspended or Revoked.&lt;br/&gt;"/><marker lat="40.4475333" lng="-80.0040536" zone="Zone 1" incidentdate="2014-07-25" incidenttime="19:17:00" incidentnumber="14145636" address="Federal Street &amp; Roberto Clemente Bridge, Pittsburgh, PA 15212, USA" type="ARREST" description="*********************************************** &lt;br/&gt;13(a)(31), Marijuana: Possession Small Amount&lt;br/&gt;13(a)(31), Marijuana: Possession Small Amount&lt;br/&gt;"/><marker lat="40.4183339" lng="-80.0083278" zone="Zone 3" incidentdate="2014-07-25" incidenttime="12:12:00" incidentnumber="14145302" address="Climax Street &amp; Taft Avenue, Pittsburgh, PA 15210, USA" type="ARREST" description="*********************************************** &lt;br/&gt;1543, Driving While Operating Privilege is Suspended or Revoked.&lt;br/&gt;3714, Careless Driving&lt;br/&gt;3802(d)(2), DUI - Drug - Impaired Ability&lt;br/&gt;4703, Operation of Vehicle without Official Certif. of Inspection&lt;br/&gt;1543, Driving While Operating Privilege is Suspended or Revoked.&lt;br/&gt;3714, Careless Driving&lt;br/&gt;3802(d)(2), DUI - Drug - Impaired Ability&lt;br/&gt;4703, Operation of Vehicle without Official Certif. of Inspection&lt;br/&gt;"/><marker lat="40.4733589" lng="-80.0314323" zone="Zone 1" incidentdate="2014-07-25" incidenttime="20:30:00" incidentnumber="14145687" address="3100 Shadeland Avenue, Pittsburgh, PA 15212, USA" type="ARREST" description="*********************************************** &lt;br/&gt;13(a)(16), Possession of Controlled Substance&lt;br/&gt;13(a)(30), Possession w/ Intent to Del. Controlled Substance&lt;br/&gt;4910, Tampering with or Fabricating Physical Evidence.&lt;br/&gt;13(a)(16), Possession of Controlled Substance&lt;br/&gt;13(a)(30), Possession w/ Intent to Del. Controlled Substance&lt;br/&gt;4910, Tampering with or Fabricating Physical Evidence.&lt;br/&gt;4910, Tampering with or Fabricating Physical Evidence.&lt;br/&gt;"/><marker lat="40.4545762" lng="-79.8721338" zone="Zone 5" incidentdate="2014-07-25" incidenttime="09:23:00" incidentnumber="14144586" address="2200 East Hills Drive, Pittsburgh, PA 15221, USA" type="ARREST" description="*********************************************** &lt;br/&gt;1501, Drivers Required to be Licensed.&lt;br/&gt;3921(a), Theft by Unlawful Taking or Disposition - Movable item&lt;br/&gt;3925, Receiving Stolen Property.&lt;br/&gt;903, Criminal Conspiracy.&lt;br/&gt;1501, Drivers Required to be Licensed.&lt;br/&gt;3921(a), Theft by Unlawful Taking or Disposition - Movable item&lt;br/&gt;3925, Receiving Stolen Property.&lt;br/&gt;903, Criminal Conspiracy.&lt;br/&gt;1501, Drivers Required to be Licensed.&lt;br/&gt;3925, Receiving Stolen Property.&lt;br/&gt;903, Criminal Conspiracy.&lt;br/&gt;"/><marker lat="40.416942" lng="-79.975862" zone="Zone 3" incidentdate="2014-07-25" incidenttime="12:45:00" incidentnumber="14138984" address="2200 Arlington Avenue, Pittsburgh, PA 15210, USA" type="ARREST" description="*********************************************** &lt;br/&gt;3701, Robbery.&lt;br/&gt;"/><marker lat="40.4545762" lng="-79.8721338" zone="Zone 5" incidentdate="2014-07-25" incidenttime="09:23:00" incidentnumber="14144586" address="2200 East Hills Drive, Pittsburgh, PA 15221, USA" type="ARREST" description="*********************************************** &lt;br/&gt;1501, Drivers Required to be Licensed.&lt;br/&gt;3921(a), Theft by Unlawful Taking or Disposition - Movable item&lt;br/&gt;3925, Receiving Stolen Property.&lt;br/&gt;903, Criminal Conspiracy.&lt;br/&gt;1501, Drivers Required to be Licensed.&lt;br/&gt;3921(a), Theft by Unlawful Taking or Disposition - Movable item&lt;br/&gt;3925, Receiving Stolen Property.&lt;br/&gt;903, Criminal Conspiracy.&lt;br/&gt;1501, Drivers Required to be Licensed.&lt;br/&gt;3925, Receiving Stolen Property.&lt;br/&gt;903, Criminal Conspiracy.&lt;br/&gt;"/><marker lat="40.3655484" lng="-79.9088921" zone="Zone 4" incidentdate="2014-07-25" incidenttime="21:46:00" incidentnumber="14145698" address="5800 Mifflin Road, Pittsburgh, PA 15207, USA" type="ARREST" description="*********************************************** &lt;br/&gt;2701, Simple Assault.&lt;br/&gt;2701, Simple Assault.&lt;br/&gt;2701, Simple Assault.&lt;br/&gt;"/><marker lat="40.4216448" lng="-79.9974076" zone="Zone 3" incidentdate="2014-07-25" incidenttime="19:16:00" incidentnumber="14145615" address="East Warrington Avenue &amp; Beltzhoover Avenue, Pittsburgh, PA 15210, USA" type="ARREST" description="*********************************************** &lt;br/&gt;13(a)(31), Marijuana: Possession Small Amount&lt;br/&gt;4303, General Lighting Requirements.&lt;br/&gt;13(a)(31), Marijuana: Possession Small Amount&lt;br/&gt;4303, General Lighting Requirements.&lt;br/&gt;"/><marker lat="40.486877" lng="-79.894016" zone="Zone 5" incidentdate="2014-07-25" incidenttime="09:40:00" incidentnumber="14117806" address="900 Freeport Road, Pittsburgh, PA 15238, USA" type="ARREST" description="*********************************************** &lt;br/&gt;3929, Retail Theft.&lt;br/&gt;"/><marker lat="40.4237922" lng="-79.9521696" zone="Zone 2" incidentdate="2014-07-25" incidenttime="13:35:00" incidentnumber="14092435" address="900 Second Avenue, Pittsburgh, PA 15207, USA" type="ARREST" description="*********************************************** &lt;br/&gt;2709(a)(4), Harassment Communicates Prohibited Acts&lt;br/&gt;2709.1, Stalking Conduct or Repeatedly Acts Including Follows&lt;br/&gt;"/><marker lat="40.431398" lng="-80.010859" zone="Zone 3" incidentdate="2014-07-25" incidenttime="20:30:00" incidentnumber="14142377" address="300 Virginia Avenue, Pittsburgh, PA 15211, USA" type="ARREST" description="*********************************************** &lt;br/&gt;2701, Simple Assault.&lt;br/&gt;2701, Simple Assault.&lt;br/&gt;"/></markers>
