<?xml version="1.0"?>
<markers><marker lat="40.485465609824097" lng="-79.936083287266996" zone="Zone 5" incidentdate="2016-01-15" incidenttime="18:20:00" incidentnumber="16009109" address="1500 block Woodbine St" type="OFFENSE" age="" gender="" description="*********************************************** &lt;br/&gt;9490, Missing Persons (18 and Over)&lt;br/&gt;"/><marker lat="40.464375080723777" lng="-79.93844245301311" zone="Zone 5" incidentdate="2016-01-15" incidenttime="18:00:00" incidentnumber="16009073" address="5300 block Penn Ave" type="OFFENSE" age="" gender="" description="*********************************************** &lt;br/&gt;3745, Accidents Involving Damage to Unattended Veh.or Prop.&lt;br/&gt;"/><marker lat="40.460302578526942" lng="-80.006980071080037" zone="Zone 1" incidentdate="2016-01-15" incidenttime="23:20:00" incidentnumber="16009233" address="1700 block Belleau Dr" type="OFFENSE" age="" gender="" description="*********************************************** &lt;br/&gt;3304, Criminal Mischief.&lt;br/&gt;"/><marker lat="40.394957985423687" lng="-79.986864420495252" zone="Zone 3" incidentdate="2016-01-15" incidenttime="19:31:00" incidentnumber="16009111" address="2000 block Brownsville Rd" type="OFFENSE" age="" gender="" description="*********************************************** &lt;br/&gt;13(a)(31), Marijuana: Possession Small Amount&lt;br/&gt;13(a)(32), Paraphernalia - Use or Possession&lt;br/&gt;1301, Registration and Certificate of Title Required.&lt;br/&gt;4524, Windshield Obstructions and Wipers.&lt;br/&gt;"/><marker lat="40.475743982324708" lng="-79.999473074803177" zone="Zone 1" incidentdate="2016-01-15" incidenttime="13:00:00" incidentnumber="16008083" address="800 block Mt Pleasant Rd" type="OFFENSE" age="" gender="" description="*********************************************** &lt;br/&gt;029, Missing Juvenile&lt;br/&gt;"/><marker lat="40.468693075773288" lng="-79.961677392158549" zone="Zone 2" incidentdate="2016-01-15" incidenttime="19:58:00" incidentnumber="16009129" address="4000 block Butler St" type="OFFENSE" age="" gender="" description="*********************************************** &lt;br/&gt;13(a)(16), Possession of Controlled Substance&lt;br/&gt;13(a)(30), Possession w/ Intent to Del. Controlled Substance&lt;br/&gt;"/><marker lat="40.428585203983602" lng="-79.981869007680203" zone="Zone 3" incidentdate="2016-01-15" incidenttime="10:53:00" incidentnumber="16008796" address="1700 block E Carson St" type="OFFENSE" age="" gender="" description="*********************************************** &lt;br/&gt;3701, Robbery.&lt;br/&gt;"/><marker lat="40.474443657749802" lng="-80.038342227771452" zone="Zone 1" incidentdate="2016-01-15" incidenttime="19:30:00" incidentnumber="16009122" address="Hybla St" type="OFFENSE" age="" gender="" description="*********************************************** &lt;br/&gt;3304, Criminal Mischief.&lt;br/&gt;"/><marker lat="40.429441638775302" lng="-79.985356376308403" zone="Zone 3" incidentdate="2016-01-15" incidenttime="00:07:00" incidentnumber="16008555" address="S 13th St &amp; Bingham St" type="OFFENSE" age="" gender="" description="*********************************************** &lt;br/&gt;13(a)(31), Marijuana: Possession Small Amount&lt;br/&gt;5505, Public Drunkenness&lt;br/&gt;"/><marker lat="40.40706626076058" lng="-80.015051850839356" zone="Zone 6" incidentdate="2016-01-15" incidenttime="07:55:00" incidentnumber="16008725" address="Southcrest Dr &amp; Pioneer Ave" type="OFFENSE" age="" gender="" description="*********************************************** &lt;br/&gt;3743, Accidents Involving Damage to Attended Veh. or Property&lt;br/&gt;"/><marker lat="40.437765998839865" lng="-80.00010722975037" zone="Zone 2" incidentdate="2016-01-15" incidenttime="17:30:00" incidentnumber="16009036" address="200 block Smithfield St" type="OFFENSE" age="" gender="" description="*********************************************** &lt;br/&gt;5505, Public Drunkenness&lt;br/&gt;3503.B1I, DEF. TRESPASS ACTUAL COMMUNICATION&lt;br/&gt;"/><marker lat="40.390772308539823" lng="-79.99481251123234" zone="Zone 3" incidentdate="2016-01-15" incidenttime="10:30:00" incidentnumber="16008788" address="2100 block Fairland St" type="OFFENSE" age="" gender="" description="*********************************************** &lt;br/&gt;9496, Dead on Arrival (DOA)&lt;br/&gt;"/><marker lat="40.428099260681869" lng="-79.977756813970757" zone="Zone 3" incidentdate="2016-01-15" incidenttime="16:09:00" incidentnumber="16008970" address="S 20th St" type="OFFENSE" age="" gender="" description="*********************************************** &lt;br/&gt;5507, Obstructing Highways and Passages.&lt;br/&gt;5505, Public Drunkenness&lt;br/&gt;"/><marker lat="40.437234774192362" lng="-80.000546304208186" zone="Zone 2" incidentdate="2016-01-15" incidenttime="10:48:00" incidentnumber="16008821" address="1st Ave &amp; Smithfield St" type="OFFENSE" age="" gender="" description="*********************************************** &lt;br/&gt;6106, Firearms not to be Carried without a License.&lt;br/&gt;"/><marker lat="40.454940175208797" lng="-79.940585296338455" zone="Zone 4" incidentdate="2016-01-15" incidenttime="10:00:00" incidentnumber="16008834" address="5200 block Centre Ave" type="OFFENSE" age="" gender="" description="*********************************************** &lt;br/&gt;3921, Theft by Unlawful Taking or Disposition.&lt;br/&gt;"/><marker lat="40.425546812709413" lng="-79.935537899170498" zone="Zone 4" incidentdate="2016-01-15" incidenttime="17:15:00" incidentnumber="16009023" address="800 block Kennebec St" type="OFFENSE" age="" gender="" description="*********************************************** &lt;br/&gt;2709(a), Harassment.&lt;br/&gt;"/><marker lat="40.459465273684245" lng="-80.080552878812455" zone="Zone 6" incidentdate="2016-01-15" incidenttime="19:33:00" incidentnumber="16009115" address="3800 block Mayfair St" type="OFFENSE" age="" gender="" description="*********************************************** &lt;br/&gt;13(a)(16), Possession of Controlled Substance&lt;br/&gt;13(a)(30), Possession w/ Intent to Del. Controlled Substance&lt;br/&gt;"/><marker lat="40.429441638775302" lng="-79.985356376308403" zone="Zone 3" incidentdate="2016-01-15" incidenttime="01:51:00" incidentnumber="16008616" address="S 13th St &amp; Bingham St" type="OFFENSE" age="" gender="" description="*********************************************** &lt;br/&gt;601.16(b)(1)(a), Any Person who urinates or defecates in, on, or about any public place&lt;br/&gt;"/><marker lat="40.453987058109647" lng="-79.886696020081857" zone="Zone 5" incidentdate="2016-01-15" incidenttime="02:04:00" incidentnumber="16008623" address="7800 block Bennett St" type="OFFENSE" age="" gender="" description="*********************************************** &lt;br/&gt;8106, Shots Fired&lt;br/&gt;"/><marker lat="40.436036005233959" lng="-79.985455385193148" zone="Zone 2" incidentdate="2016-01-15" incidenttime="08:45:00" incidentnumber="16008755" address="1400 block Locust St" type="OFFENSE" age="" gender="" description="*********************************************** &lt;br/&gt;3924, Theft of Property Lost, Mislaid or Delivered by Mistake.&lt;br/&gt;"/><marker lat="40.459111099747318" lng="-80.050515100437579" zone="Zone 6" incidentdate="2016-01-15" incidenttime="00:34:00" incidentnumber="16008584" address="3000 block Brunot Ave" type="OFFENSE" age="" gender="" description="*********************************************** &lt;br/&gt;2709(a)(6), Harassment Communicates Repeatedly at Extreme Hours&lt;br/&gt;"/><marker lat="40.399184649147095" lng="-80.025493435297477" zone="Zone 6" incidentdate="2016-01-15" incidenttime="01:45:00" incidentnumber="16008617" address="2500 block West Liberty Ave" type="OFFENSE" age="" gender="" description="*********************************************** &lt;br/&gt;3701, Robbery.&lt;br/&gt;"/><marker lat="40.380394466337009" lng="-79.934452104695268" zone="Zone 4" incidentdate="2016-01-15" incidenttime="17:30:00" incidentnumber="16008987" address="600 block Calera St" type="OFFENSE" age="" gender="" description="*********************************************** &lt;br/&gt;029, Missing Juvenile&lt;br/&gt;"/><marker lat="40.4378279" lng="-79.9160527" zone="Zone 4" incidentdate="2016-01-15" incidenttime="07:40:00" incidentnumber="16008735" address="I-376 Ramp &amp; Beechwood Blvd" type="OFFENSE" age="" gender="" description="*********************************************** &lt;br/&gt;3743, Accidents Involving Damage to Attended Veh. or Property&lt;br/&gt;"/><marker lat="40.426938114733531" lng="-79.968258810086212" zone="Zone 3" incidentdate="2016-01-15" incidenttime="12:35:00" incidentnumber="16008859" address="2600 block E Carson St" type="OFFENSE" age="" gender="" description="*********************************************** &lt;br/&gt;3929, Retail Theft.&lt;br/&gt;"/><marker lat="40.473349600095005" lng="-80.002822219962013" zone="Zone 1" incidentdate="2016-01-15" incidenttime="13:35:00" incidentnumber="16008877" address="100 block Penfort St" type="OFFENSE" age="" gender="" description="*********************************************** &lt;br/&gt;029, Missing Juvenile&lt;br/&gt;"/><marker lat="40.433506227695702" lng="-79.923234257536734" zone="Zone 4" incidentdate="2016-01-15" incidenttime="18:59:00" incidentnumber="16009117" address="2100 block Murray Ave" type="OFFENSE" age="" gender="" description="*********************************************** &lt;br/&gt;9497, Aided Case&lt;br/&gt;"/><marker lat="40.455643298111653" lng="-79.938604138327051" zone="Zone 4" incidentdate="2016-01-15" incidenttime="16:14:00" incidentnumber="16008968" address="500 block S Aiken Ave" type="OFFENSE" age="" gender="" description="*********************************************** &lt;br/&gt;9496, Dead on Arrival (DOA)&lt;br/&gt;"/><marker lat="40.458778859290838" lng="-79.970703399584181" zone="Zone 2" incidentdate="2016-01-15" incidenttime="01:05:00" incidentnumber="16008588" address="3100 block Liberty Ave" type="OFFENSE" age="" gender="" description="*********************************************** &lt;br/&gt;2701, Simple Assault.&lt;br/&gt;"/><marker lat="40.460623402161843" lng="-79.932766652756285" zone="Zone 5" incidentdate="2016-01-15" incidenttime="12:15:00" incidentnumber="16008833" address="300 block S Negley Ave" type="OFFENSE" age="" gender="" description="*********************************************** &lt;br/&gt;4106, Access Device Fraud&lt;br/&gt;4120, Identity Theft&lt;br/&gt;"/><marker lat="40.4394645" lng="-79.9787977" zone="Zone 2" incidentdate="2016-01-15" incidenttime="11:39:00" incidentnumber="16008901" address="200 block Lombard St" type="OFFENSE" age="" gender="" description="*********************************************** &lt;br/&gt;3502, Burglary.&lt;br/&gt;2702, Aggravated Assault.&lt;br/&gt;2902, Unlawful Restraint.&lt;br/&gt;3701, Robbery.&lt;br/&gt;"/><marker lat="40.445099987229362" lng="-79.999050002208406" zone="Zone 2" incidentdate="2016-01-15" incidenttime="02:00:00" incidentnumber="16008629" address="100 block 9th St" type="OFFENSE" age="" gender="" description="*********************************************** &lt;br/&gt;3304, Criminal Mischief.&lt;br/&gt;"/><marker lat="40.472282292054388" lng="-80.01599314226911" zone="Zone 1" incidentdate="2016-01-15" incidenttime="18:15:00" incidentnumber="16009059" address="400 block Marshall Ave" type="OFFENSE" age="" gender="" description="*********************************************** &lt;br/&gt;13(a)(16), Possession of Controlled Substance&lt;br/&gt;"/><marker lat="40.420029605448534" lng="-79.96415924628009" zone="Zone 3" incidentdate="2016-01-15" incidenttime="16:10:00" incidentnumber="16008973" address="3200 block Josephine St" type="OFFENSE" age="" gender="" description="*********************************************** &lt;br/&gt;9093, Indirect Criminal Contempt&lt;br/&gt;"/><marker lat="40.4600940" lng="-79.9238524" zone="Zone 4" incidentdate="2016-01-15" incidenttime="12:45:00" incidentnumber="16008847" address="6300 block Shakespeare St" type="OFFENSE" age="" gender="" description="*********************************************** &lt;br/&gt;13(a)(31), Marijuana: Possession Small Amount&lt;br/&gt;5104, Resisting Arrest or Other Law Enforcement.&lt;br/&gt;3929, Retail Theft.&lt;br/&gt;"/><marker lat="40.4127108" lng="-79.9892070" zone="Zone 3" incidentdate="2016-01-15" incidenttime="02:16:00" incidentnumber="16008626" address="Ormsby St &amp; Brownsville Rd" type="OFFENSE" age="" gender="" description="*********************************************** &lt;br/&gt;1543, Driving While Operating Privilege is Suspended or Revoked.&lt;br/&gt;3802(a)(1), DUI - General Impairment&lt;br/&gt;3802(c), DUI - Highest Rate of Alcohol - BAC &gt;= .16%&lt;br/&gt;1301, Registration and Certificate of Title Required.&lt;br/&gt;3702, Robbery of Motor Vehicle.&lt;br/&gt;"/><marker lat="40.487847949399352" lng="-80.03737827832316" zone="Zone 1" incidentdate="2016-01-15" incidenttime="13:00:00" incidentnumber="16008879" address="3900 block Brandon Rd" type="OFFENSE" age="" gender="" description="*********************************************** &lt;br/&gt;3502, Burglary.&lt;br/&gt;3304, Criminal Mischief.&lt;br/&gt;"/><marker lat="40.4561060211458" lng="-79.87322386742575" zone="Zone 5" incidentdate="2016-01-15" incidenttime="13:35:00" incidentnumber="16008883" address="2500 block Park Hill Dr" type="OFFENSE" age="" gender="" description="*********************************************** &lt;br/&gt;2701, Simple Assault.&lt;br/&gt;"/><marker lat="40.460770540941056" lng="-79.915653002039789" zone="Zone 5" incidentdate="2016-01-15" incidenttime="06:42:00" incidentnumber="16008711" address="6400 block Frankstown Ave" type="OFFENSE" age="" gender="" description="*********************************************** &lt;br/&gt;2701, Simple Assault.&lt;br/&gt;3701, Robbery.&lt;br/&gt;"/><marker lat="40.404939361855945" lng="-79.990899233620965" zone="Zone 3" incidentdate="2016-01-15" incidenttime="15:56:00" incidentnumber="16008967" address="1100 block Brownsville Rd" type="OFFENSE" age="" gender="" description="*********************************************** &lt;br/&gt;3929, Retail Theft.&lt;br/&gt;"/><marker lat="40.4406248" lng="-79.9958864" zone="Zone 4" incidentdate="2016-01-15" incidenttime="16:40:00" incidentnumber="16009008" address="2nd Ave &amp; Hot Metal St Brg" type="OFFENSE" age="" gender="" description="*********************************************** &lt;br/&gt;9501, Bench Warrant&lt;br/&gt;"/><marker lat="40.439441722543918" lng="-79.961779462652729" zone="Zone 4" incidentdate="2016-01-15" incidenttime="18:47:00" incidentnumber="16009091" address="100 block Chesterfield Rd" type="OFFENSE" age="" gender="" description="*********************************************** &lt;br/&gt;3502, Burglary.&lt;br/&gt;"/><marker lat="40.457281883886331" lng="-79.909059701531348" zone="Zone 5" incidentdate="2016-01-15" incidenttime="16:00:00" incidentnumber="16009062" address="5th Ave &amp; Hamilton Ave" type="OFFENSE" age="" gender="" description="*********************************************** &lt;br/&gt;3743, Accidents Involving Damage to Attended Veh. or Property&lt;br/&gt;"/><marker lat="40.454948691850667" lng="-80.009640272832598" zone="Zone 1" incidentdate="2016-01-15" incidenttime="09:58:00" incidentnumber="16008770" address="300 block E North Ave" type="OFFENSE" age="" gender="" description="*********************************************** &lt;br/&gt;3921, Theft by Unlawful Taking or Disposition.&lt;br/&gt;"/><marker lat="40.4478675" lng="-80.0189887" zone="Zone 1" incidentdate="2016-01-15" incidenttime="17:15:00" incidentnumber="16009065" address="700 block Reedsdale St" type="OFFENSE" age="" gender="" description="*********************************************** &lt;br/&gt;3745, Accidents Involving Damage to Unattended Veh.or Prop.&lt;br/&gt;"/><marker lat="40.468618820168373" lng="-79.901162048433363" zone="Zone 5" incidentdate="2016-01-15" incidenttime="16:00:00" incidentnumber="16008989" address="1300 block Paulson Ave" type="OFFENSE" age="" gender="" description="*********************************************** &lt;br/&gt;3304, Criminal Mischief.&lt;br/&gt;"/><marker lat="40.44511004552583" lng="-80.039246537687731" zone="Zone 6" incidentdate="2016-01-15" incidenttime="20:23:00" incidentnumber="16009142" address="700 block Lorenz Ave" type="OFFENSE" age="" gender="" description="*********************************************** &lt;br/&gt;2701, Simple Assault.&lt;br/&gt;"/><marker lat="40.456839195430454" lng="-79.999232378956989" zone="Zone 1" incidentdate="2016-01-15" incidenttime="16:25:00" incidentnumber="16008975" address="Howard St &amp; E North Ave" type="OFFENSE" age="" gender="" description="*********************************************** &lt;br/&gt;3304, Criminal Mischief.&lt;br/&gt;3934, Theft from Vehicle&lt;br/&gt;3925, Receiving Stolen Property.&lt;br/&gt;2706, Terroristic Threats.&lt;br/&gt;"/><marker lat="40.474022796900542" lng="-79.90443705132833" zone="Zone 5" incidentdate="2016-01-15" incidenttime="15:30:00" incidentnumber="16008945" address="Highland Dr &amp; Lemington Ave" type="OFFENSE" age="" gender="" description="*********************************************** &lt;br/&gt;9999, 9999 - (Misc. Incident):&lt;br/&gt;"/><marker lat="40.420813359850463" lng="-79.993714814215252" zone="Zone 3" incidentdate="2016-01-15" incidenttime="22:44:00" incidentnumber="16009216" address="Allen St &amp; Industry St" type="OFFENSE" age="" gender="" description="*********************************************** &lt;br/&gt;13(a)(16), Possession of Controlled Substance&lt;br/&gt;2702, Aggravated Assault.&lt;br/&gt;1543, Driving While Operating Privilege is Suspended or Revoked.&lt;br/&gt;6106, Firearms not to be Carried without a License.&lt;br/&gt;4302, Periods for Requiring Lighted Lamps.&lt;br/&gt;6105(a)(1), Persons not to possess, use, manufacture, control, sell or transfer firearms: Former convict enumerated in subsection (b)&lt;br/&gt;"/><marker lat="40.437674058241967" lng="-79.986497040382901" zone="Zone 2" incidentdate="2016-01-15" incidenttime="15:15:00" incidentnumber="16008930" address="1400 block Forbes Ave" type="OFFENSE" age="" gender="" description="*********************************************** &lt;br/&gt;029, Missing Juvenile&lt;br/&gt;"/><marker lat="40.417087353445595" lng="-79.974439009540703" zone="Zone 3" incidentdate="2016-01-15" incidenttime="15:00:00" incidentnumber="16008920" address="2300 block Arlington Ave" type="OFFENSE" age="" gender="" description="*********************************************** &lt;br/&gt;3304, Criminal Mischief.&lt;br/&gt;"/><marker lat="40.3993418" lng="-80.0447346" zone="Zone 6" incidentdate="2016-01-15" incidenttime="02:42:00" incidentnumber="16008644" address="3200 block Banksville Rd" type="OFFENSE" age="" gender="" description="*********************************************** &lt;br/&gt;3701, Robbery.&lt;br/&gt;"/><marker lat="40.431135693148185" lng="-79.95920277983889" zone="Zone 4" incidentdate="2016-01-15" incidenttime="15:23:00" incidentnumber="16008940" address="2nd Ave &amp; Bates St" type="OFFENSE" age="" gender="" description="*********************************************** &lt;br/&gt;9999, 9999 - (Misc. Incident):&lt;br/&gt;"/><marker lat="40.4521671408367" lng="-80.063939948738394" zone="Zone 6" incidentdate="2016-01-15" incidenttime="16:20:00" incidentnumber="16009000" address="1300 block Mutual St" type="OFFENSE" age="" gender="" description="*********************************************** &lt;br/&gt;3304, Criminal Mischief.&lt;br/&gt;"/><marker lat="40.450901096519573" lng="-79.930622154707279" zone="Zone 5" incidentdate="2016-01-15" incidenttime="02:00:00" incidentnumber="16008611" address="900 block N Negley Ave" type="OFFENSE" age="" gender="" description="*********************************************** &lt;br/&gt;029, Missing Juvenile&lt;br/&gt;"/><marker lat="40.449646657025653" lng="-79.892798110797884" zone="Zone 4" incidentdate="2016-01-15" incidenttime="13:30:00" incidentnumber="16008910" address="300 block N Braddock Ave" type="OFFENSE" age="" gender="" description="*********************************************** &lt;br/&gt;3745, Accidents Involving Damage to Unattended Veh.or Prop.&lt;br/&gt;"/><marker lat="40.442149856978411" lng="-79.957840380080995" zone="Zone 4" incidentdate="2016-01-15" incidenttime="01:15:00" incidentnumber="16008604" address="100 block Oakland Ave" type="OFFENSE" age="" gender="" description="*********************************************** &lt;br/&gt;3926(a)(1), Theft of Services; Cable, Gas, Taxi, Bill, Tab, etc.&lt;br/&gt;"/><marker lat="40.459513162485933" lng="-79.973606680563009" zone="Zone 2" incidentdate="2016-01-15" incidenttime="17:00:00" incidentnumber="16009089" address="Smallman St &amp; 30th St" type="OFFENSE" age="" gender="" description="*********************************************** &lt;br/&gt;9489, Found Property&lt;br/&gt;"/><marker lat="40.410552176761328" lng="-79.99322262414627" zone="Zone 3" incidentdate="2016-01-15" incidenttime="02:57:00" incidentnumber="16008654" address="300 block Suncrest St" type="OFFENSE" age="" gender="" description="*********************************************** &lt;br/&gt;9122, Miscellaneous Fire Vehicle Investigation to Continue&lt;br/&gt;"/><marker lat="40.439140768201945" lng="-80.0011699789804" zone="Zone 2" incidentdate="2016-01-15" incidenttime="14:36:00" incidentnumber="16008992" address="300 block 4th Ave" type="OFFENSE" age="" gender="" description="*********************************************** &lt;br/&gt;3502, Burglary.&lt;br/&gt;"/><marker lat="40.390773387372882" lng="-79.986310632074392" zone="Zone 3" incidentdate="2016-01-15" incidenttime="01:25:00" incidentnumber="16008594" address="Brownsville Rd &amp; Hazeldell St" type="OFFENSE" age="" gender="" description="*********************************************** &lt;br/&gt;13(a)(31), Marijuana: Possession Small Amount&lt;br/&gt;9501, Bench Warrant&lt;br/&gt;4914, False Identification to Law Enforcement Authorities&lt;br/&gt;"/><marker lat="40.439517594123451" lng="-79.95594514096048" zone="Zone 4" incidentdate="2016-01-15" incidenttime="12:00:00" incidentnumber="16008913" address="300 block Atwood St" type="OFFENSE" age="" gender="" description="*********************************************** &lt;br/&gt;2706, Terroristic Threats.&lt;br/&gt;"/><marker lat="40.4587090" lng="-79.8711587" zone="Zone 5" incidentdate="2016-01-15" incidenttime="18:00:00" incidentnumber="15134465" address="East Hills Dr &amp; Eastgate Dr" type="OFFENSE" age="" gender="" description="*********************************************** &lt;br/&gt;3502, Burglary.&lt;br/&gt;9015, Failure To Appear/Arrest on Attachment Order&lt;br/&gt;"/><marker lat="40.471012276973703" lng="-80.016772844247583" zone="Zone 1" incidentdate="2016-01-15" incidenttime="12:10:00" incidentnumber="16008915" address="500 block Marshall Ave" type="OFFENSE" age="" gender="" description="*********************************************** &lt;br/&gt;3304, Criminal Mischief.&lt;br/&gt;"/><marker lat="40.455273086676286" lng="-80.008870414965187" zone="Zone 1" incidentdate="2016-01-15" incidenttime="17:38:00" incidentnumber="16009043" address="200 block North Shore Dr" type="OFFENSE" age="" gender="" description="*********************************************** &lt;br/&gt;3743, Accidents Involving Damage to Attended Veh. or Property&lt;br/&gt;"/><marker lat="40.452999941786423" lng="-80.030472053104148" zone="Zone 1" incidentdate="2016-01-15" incidenttime="22:33:00" incidentnumber="15213919" address="Pennsylvania Ave &amp; Metropolitan St" type="ARREST" age="25" gender="M" description="*********************************************** &lt;br/&gt;13(a)(16), Possession of Controlled Substance&lt;br/&gt;13(a)(32), Paraphernalia - Use or Possession&lt;br/&gt;"/><marker lat="40.420813359850463" lng="-79.993714814215252" zone="Zone 3" incidentdate="2016-01-15" incidenttime="22:44:00" incidentnumber="16009216" address="Allen St &amp; Industry St" type="ARREST" age="19" gender="M" description="*********************************************** &lt;br/&gt;13(a)(16), Possession of Controlled Substance&lt;br/&gt;2702, Aggravated Assault.&lt;br/&gt;1543, Driving While Operating Privilege is Suspended or Revoked.&lt;br/&gt;6106, Firearms not to be Carried without a License.&lt;br/&gt;4302, Periods for Requiring Lighted Lamps.&lt;br/&gt;6105(a)(1), Persons not to possess, use, manufacture, control, sell or transfer firearms: Former convict enumerated in subsection (b)&lt;br/&gt;"/><marker lat="40.456026397140533" lng="-80.006488644201866" zone="Zone 1" incidentdate="2016-01-15" incidenttime="14:10:00" incidentnumber="15222177" address="1200 block Federal St" type="ARREST" age="31" gender="M" description="*********************************************** &lt;br/&gt;13(a)(16), Possession of Controlled Substance&lt;br/&gt;13(a)(32), Paraphernalia - Use or Possession&lt;br/&gt;9015, Failure To Appear/Arrest on Attachment Order&lt;br/&gt;"/><marker lat="40.4127108" lng="-79.9892070" zone="Zone 3" incidentdate="2016-01-15" incidenttime="02:16:00" incidentnumber="16008626" address="Ormsby St &amp; Brownsville Rd" type="ARREST" age="24" gender="M" description="*********************************************** &lt;br/&gt;1543, Driving While Operating Privilege is Suspended or Revoked.&lt;br/&gt;3802(a)(1), DUI - General Impairment&lt;br/&gt;3802(c), DUI - Highest Rate of Alcohol - BAC &gt;= .16%&lt;br/&gt;1301, Registration and Certificate of Title Required.&lt;br/&gt;3702, Robbery of Motor Vehicle.&lt;br/&gt;"/><marker lat="40.4561060211458" lng="-79.87322386742575" zone="Zone 5" incidentdate="2016-01-15" incidenttime="13:57:00" incidentnumber="16008883" address="2500 block Park Hill Dr" type="ARREST" age="54" gender="M" description="*********************************************** &lt;br/&gt;2701, Simple Assault.&lt;br/&gt;"/><marker lat="40.390773387372882" lng="-79.986310632074392" zone="Zone 3" incidentdate="2016-01-15" incidenttime="01:25:00" incidentnumber="16008594" address="Brownsville Rd &amp; Hazeldell St" type="ARREST" age="26" gender="M" description="*********************************************** &lt;br/&gt;13(a)(31), Marijuana: Possession Small Amount&lt;br/&gt;9501, Bench Warrant&lt;br/&gt;4914, False Identification to Law Enforcement Authorities&lt;br/&gt;"/><marker lat="40.404939361855945" lng="-79.990899233620965" zone="Zone 3" incidentdate="2016-01-15" incidenttime="16:31:00" incidentnumber="16008967" address="1100 block Brownsville Rd" type="ARREST" age="35" gender="M" description="*********************************************** &lt;br/&gt;3929, Retail Theft.&lt;br/&gt;"/><marker lat="40.44511004552583" lng="-80.039246537687731" zone="Zone 6" incidentdate="2016-01-15" incidenttime="20:45:00" incidentnumber="16009142" address="700 block Lorenz Ave" type="ARREST" age="38" gender="F" description="*********************************************** &lt;br/&gt;2701, Simple Assault.&lt;br/&gt;"/><marker lat="40.462039648985133" lng="-79.949904112059144" zone="Zone 5" incidentdate="2016-01-15" incidenttime="09:00:00" incidentnumber="15194180" address="4700 block Liberty Ave" type="ARREST" age="30" gender="M" description="*********************************************** &lt;br/&gt;3502, Burglary.&lt;br/&gt;3304(a)(5), CRIMINAL MISCHIEF - Intentionally Damages Real Or Personal Property Of Another&lt;br/&gt;2709(a)(1), Harassment by Physical Contact, or Attempts or Threats&lt;br/&gt;2701(a)(3), Simple Assault - Attempts by Physical Menace&lt;br/&gt;"/><marker lat="40.420813359850463" lng="-79.993714814215252" zone="Zone 3" incidentdate="2016-01-15" incidenttime="22:44:00" incidentnumber="16009216" address="Allen St &amp; Industry St" type="ARREST" age="21" gender="M" description="*********************************************** &lt;br/&gt;13(a)(16), Possession of Controlled Substance&lt;br/&gt;2702, Aggravated Assault.&lt;br/&gt;1543, Driving While Operating Privilege is Suspended or Revoked.&lt;br/&gt;6106, Firearms not to be Carried without a License.&lt;br/&gt;4302, Periods for Requiring Lighted Lamps.&lt;br/&gt;6105(a)(1), Persons not to possess, use, manufacture, control, sell or transfer firearms: Former convict enumerated in subsection (b)&lt;br/&gt;"/><marker lat="40.462039648985133" lng="-79.949904112059144" zone="Zone 5" incidentdate="2016-01-15" incidenttime="09:00:00" incidentnumber="15195505" address="4700 block Liberty Ave" type="ARREST" age="30" gender="M" description="*********************************************** &lt;br/&gt;2701, Simple Assault.&lt;br/&gt;"/><marker lat="40.429441638775302" lng="-79.985356376308403" zone="Zone 3" incidentdate="2016-01-15" incidenttime="00:07:00" incidentnumber="16008555" address="S 13th St &amp; Bingham St" type="ARREST" age="28" gender="M" description="*********************************************** &lt;br/&gt;13(a)(31), Marijuana: Possession Small Amount&lt;br/&gt;5505, Public Drunkenness&lt;br/&gt;"/><marker lat="40.455726186465654" lng="-80.010455406547521" zone="Zone 1" incidentdate="2016-01-15" incidenttime="08:00:00" incidentnumber="16005723" address="1200 block Wolfrum St" type="ARREST" age="53" gender="M" description="*********************************************** &lt;br/&gt;4915, Failure to Comply with Megans Law&lt;br/&gt;"/><marker lat="40.472282292054388" lng="-80.01599314226911" zone="Zone 1" incidentdate="2016-01-15" incidenttime="18:15:00" incidentnumber="16009059" address="400 block Marshall Ave" type="ARREST" age="24" gender="M" description="*********************************************** &lt;br/&gt;13(a)(16), Possession of Controlled Substance&lt;br/&gt;"/><marker lat="40.456839195430454" lng="-79.999232378956989" zone="Zone 1" incidentdate="2016-01-15" incidenttime="16:30:00" incidentnumber="16008975" address="Howard St &amp; E North Ave" type="ARREST" age="37" gender="M" description="*********************************************** &lt;br/&gt;3304, Criminal Mischief.&lt;br/&gt;3934, Theft from Vehicle&lt;br/&gt;3925, Receiving Stolen Property.&lt;br/&gt;2706, Terroristic Threats.&lt;br/&gt;"/><marker lat="40.437765998839865" lng="-80.00010722975037" zone="Zone 2" incidentdate="2016-01-15" incidenttime="17:35:00" incidentnumber="16009036" address="200 block Smithfield St" type="ARREST" age="32" gender="M" description="*********************************************** &lt;br/&gt;5505, Public Drunkenness&lt;br/&gt;3503.B1I, DEF. TRESPASS ACTUAL COMMUNICATION&lt;br/&gt;"/><marker lat="40.440916658244909" lng="-80.020392211329721" zone="Zone 3" incidentdate="2016-01-15" incidenttime="13:45:00" incidentnumber="15247907" address="1000 block E Carson St" type="ARREST" age="22" gender="M" description="*********************************************** &lt;br/&gt;3701, Robbery.&lt;br/&gt;903, Criminal Conspiracy.&lt;br/&gt;"/><marker lat="40.4600940" lng="-79.9238524" zone="Zone 4" incidentdate="2016-01-15" incidenttime="12:50:00" incidentnumber="16008847" address="6300 block Shakespeare St" type="ARREST" age="45" gender="M" description="*********************************************** &lt;br/&gt;13(a)(31), Marijuana: Possession Small Amount&lt;br/&gt;5104, Resisting Arrest or Other Law Enforcement.&lt;br/&gt;3929, Retail Theft.&lt;br/&gt;"/><marker lat="40.4406248" lng="-79.9958864" zone="Zone 4" incidentdate="2016-01-15" incidenttime="16:45:00" incidentnumber="16009008" address="2nd Ave &amp; Hot Metal St Brg" type="ARREST" age="29" gender="M" description="*********************************************** &lt;br/&gt;9501, Bench Warrant&lt;br/&gt;"/><marker lat="40.462039648985133" lng="-79.949904112059144" zone="Zone 5" incidentdate="2016-01-15" incidenttime="09:00:00" incidentnumber="15138495" address="4700 block Liberty Ave" type="ARREST" age="30" gender="M" description="*********************************************** &lt;br/&gt;2702, Aggravated Assault.&lt;br/&gt;2701, Simple Assault.&lt;br/&gt;2709(a)(1), Harassment by Physical Contact, or Attempts or Threats&lt;br/&gt;"/><marker lat="40.394957985423687" lng="-79.986864420495252" zone="Zone 3" incidentdate="2016-01-15" incidenttime="19:30:00" incidentnumber="16009111" address="2000 block Brownsville Rd" type="ARREST" age="23" gender="M" description="*********************************************** &lt;br/&gt;13(a)(31), Marijuana: Possession Small Amount&lt;br/&gt;13(a)(32), Paraphernalia - Use or Possession&lt;br/&gt;1301, Registration and Certificate of Title Required.&lt;br/&gt;4524, Windshield Obstructions and Wipers.&lt;br/&gt;"/><marker lat="40.459465273684245" lng="-80.080552878812455" zone="Zone 6" incidentdate="2016-01-15" incidenttime="19:40:00" incidentnumber="16009115" address="3800 block Mayfair St" type="ARREST" age="40" gender="M" description="*********************************************** &lt;br/&gt;13(a)(16), Possession of Controlled Substance&lt;br/&gt;13(a)(30), Possession w/ Intent to Del. Controlled Substance&lt;br/&gt;"/><marker lat="40.4406248" lng="-79.9958864" zone="Zone 4" incidentdate="2016-01-15" incidenttime="16:45:00" incidentnumber="16009008" address="2nd Ave &amp; Hot Metal St Brg" type="ARREST" age="31" gender="M" description="*********************************************** &lt;br/&gt;9501, Bench Warrant&lt;br/&gt;"/><marker lat="40.437234774192362" lng="-80.000546304208186" zone="Zone 2" incidentdate="2016-01-15" incidenttime="11:20:00" incidentnumber="16008821" address="1st Ave &amp; Smithfield St" type="ARREST" age="23" gender="M" description="*********************************************** &lt;br/&gt;6106, Firearms not to be Carried without a License.&lt;br/&gt;"/><marker lat="40.420029605448534" lng="-79.96415924628009" zone="Zone 3" incidentdate="2016-01-15" incidenttime="16:20:00" incidentnumber="16008973" address="3200 block Josephine St" type="ARREST" age="55" gender="M" description="*********************************************** &lt;br/&gt;9093, Indirect Criminal Contempt&lt;br/&gt;"/><marker lat="40.458778859290838" lng="-79.970703399584181" zone="Zone 2" incidentdate="2016-01-15" incidenttime="01:05:00" incidentnumber="16008588" address="3100 block Liberty Ave" type="ARREST" age="24" gender="M" description="*********************************************** &lt;br/&gt;2701, Simple Assault.&lt;br/&gt;"/><marker lat="40.468693075773288" lng="-79.961677392158549" zone="Zone 2" incidentdate="2016-01-15" incidenttime="19:58:00" incidentnumber="16009129" address="4000 block Butler St" type="ARREST" age="14" gender="M" description="*********************************************** &lt;br/&gt;13(a)(16), Possession of Controlled Substance&lt;br/&gt;13(a)(30), Possession w/ Intent to Del. Controlled Substance&lt;br/&gt;"/><marker lat="40.4587090" lng="-79.8711587" zone="Zone 5" incidentdate="2016-01-15" incidenttime="17:44:00" incidentnumber="15134465" address="East Hills Dr &amp; Eastgate Dr" type="ARREST" age="27" gender="F" description="*********************************************** &lt;br/&gt;3502, Burglary.&lt;br/&gt;9015, Failure To Appear/Arrest on Attachment Order&lt;br/&gt;"/><marker lat="40.382527119313124" lng="-79.979476215377588" zone="Zone 3" incidentdate="2016-01-15" incidenttime="16:10:00" incidentnumber="15203429" address="100 block Stewart Ave" type="ARREST" age="28" gender="M" description="*********************************************** &lt;br/&gt;9015, Failure To Appear/Arrest on Attachment Order&lt;br/&gt;2701(a)(1), Simple Assault - Intent., Know., Reckless.Cause Bod. Injury&lt;br/&gt;"/></markers>
