<?xml version="1.0"?>
<markers><marker lat="40.454307782768687" lng="-79.946518733076431" zone="Zone 5" incidentdate="2016-10-21" incidenttime="15:03:00" incidentnumber="16198948" address="4900 block Baum Blvd" type="OFFENSE" age="" gender="" description="*********************************************** &lt;br/&gt;9999, 9999 - (Misc. Incident):&lt;br/&gt;"/><marker lat="40.471664574713081" lng="-79.94021807569932" zone="Zone 5" incidentdate="2016-10-21" incidenttime="00:21:00" incidentnumber="16198550" address="Schenley Ave &amp; Columbo St" type="OFFENSE" age="" gender="" description="*********************************************** &lt;br/&gt;3925, Receiving Stolen Property.&lt;br/&gt;"/><marker lat="40.456249975527761" lng="-80.00093692366552" zone="Zone 1" incidentdate="2016-10-21" incidenttime="07:30:00" incidentnumber="16198736" address="500 block Tripoli St" type="OFFENSE" age="" gender="" description="*********************************************** &lt;br/&gt;9489, Found Property&lt;br/&gt;"/><marker lat="40.44956618746032" lng="-79.987646691015016" zone="Zone 2" incidentdate="2016-10-21" incidenttime="01:50:00" incidentnumber="16198601" address="1600 block Smallman St" type="OFFENSE" age="" gender="" description="*********************************************** &lt;br/&gt;3503(b)(1)(i), Actual Communication&lt;br/&gt;5104, Resisting Arrest or Other Law Enforcement.&lt;br/&gt;2702, Aggravated Assault.&lt;br/&gt;"/><marker lat="40.423307201998043" lng="-79.961250980900815" zone="Zone 3" incidentdate="2016-10-21" incidenttime="18:47:00" incidentnumber="16199041" address="3200 block E Carson St" type="OFFENSE" age="" gender="" description="*********************************************** &lt;br/&gt;9999, 9999 - (Misc. Incident):&lt;br/&gt;"/><marker lat="40.479864793810727" lng="-79.919738711106376" zone="Zone 5" incidentdate="2016-10-21" incidenttime="19:30:00" incidentnumber="16199076" address="One Wild Pl" type="OFFENSE" age="" gender="" description="*********************************************** &lt;br/&gt;3802(a)(1), DUI - General Impairment&lt;br/&gt;"/><marker lat="40.41136888220619" lng="-79.990299456571108" zone="Zone 3" incidentdate="2016-10-21" incidenttime="06:00:00" incidentnumber="16198729" address="200 block Knox Ave" type="OFFENSE" age="" gender="" description="*********************************************** &lt;br/&gt;029, Missing Juvenile&lt;br/&gt;"/><marker lat="40.407614386037416" lng="-79.940012571439624" zone="Zone 4" incidentdate="2016-10-21" incidenttime="14:25:00" incidentnumber="16198920" address="5100 block Glenwood Ave" type="OFFENSE" age="" gender="" description="*********************************************** &lt;br/&gt;9501, Bench Warrant&lt;br/&gt;"/><marker lat="40.450892721440539" lng="-80.000843891836467" zone="Zone 1" incidentdate="2016-10-21" incidenttime="02:55:00" incidentnumber="16198621" address="300 block Cedar Ave" type="OFFENSE" age="" gender="" description="*********************************************** &lt;br/&gt;9497, Aided Case&lt;br/&gt;"/><marker lat="40.4377887" lng="-80.0001709" zone="Zone 2" incidentdate="2016-10-21" incidenttime="15:40:00" incidentnumber="16198949" address="Boulevard of the Allies &amp; Smithfield St" type="OFFENSE" age="" gender="" description="*********************************************** &lt;br/&gt;3921, Theft by Unlawful Taking or Disposition.&lt;br/&gt;2706, Terroristic Threats.&lt;br/&gt;"/><marker lat="40.468190475764942" lng="-79.917435889702006" zone="Zone 5" incidentdate="2016-10-21" incidenttime="08:30:00" incidentnumber="16198768" address="6200 block Stanton Ave" type="OFFENSE" age="" gender="" description="*********************************************** &lt;br/&gt;3743, Accidents Involving Damage to Attended Veh. or Property&lt;br/&gt;"/><marker lat="40.428746746224945" lng="-79.982646526389246" zone="Zone 3" incidentdate="2016-10-21" incidenttime="01:14:00" incidentnumber="16198580" address="1600 block E Carson St" type="OFFENSE" age="" gender="" description="*********************************************** &lt;br/&gt;5505, Public Drunkenness&lt;br/&gt;2701(a)(1), Simple Assault - Intent., Know., Reckless.Cause Bod. Injury&lt;br/&gt;5503(a)(1), DISORDERLY CONDUCT - ENGAGE IN FIGHTING&lt;br/&gt;"/><marker lat="40.443001352287645" lng="-79.997495488283064" zone="Zone 1" incidentdate="2016-10-21" incidenttime="10:00:00" incidentnumber="16198751" address="300 block W 7th St" type="OFFENSE" age="" gender="" description="*********************************************** &lt;br/&gt;9094, Recovered Stolen Vehicle (OUTSIDE CITY)&lt;br/&gt;"/><marker lat="40.385891735246354" lng="-79.978254236122268" zone="Zone 3" incidentdate="2016-10-21" incidenttime="18:36:00" incidentnumber="16199049" address="100 block Kirk Ave" type="OFFENSE" age="" gender="" description="*********************************************** &lt;br/&gt;9999, 9999 - (Misc. Incident):&lt;br/&gt;"/><marker lat="40.404914940128336" lng="-80.040145473413176" zone="Zone 6" incidentdate="2016-10-21" incidenttime="08:10:00" incidentnumber="16198718" address="2800 block Banksville Rd" type="OFFENSE" age="" gender="" description="*********************************************** &lt;br/&gt;9497, Aided Case&lt;br/&gt;"/><marker lat="40.449606365527259" lng="-79.974270684591801" zone="Zone 2" incidentdate="2016-10-21" incidenttime="15:30:00" incidentnumber="16198933" address="2400 block Bedford Ave" type="OFFENSE" age="" gender="" description="*********************************************** &lt;br/&gt;2702, Aggravated Assault.&lt;br/&gt;"/><marker lat="40.407880141393832" lng="-79.946287273663344" zone="Zone 4" incidentdate="2016-10-21" incidenttime="16:45:00" incidentnumber="16198972" address="5000 block Lytle St" type="OFFENSE" age="" gender="" description="*********************************************** &lt;br/&gt;4304(a)(1), Endangering Welfare of Children - Course of Conduct Enhanced&lt;br/&gt;"/><marker lat="40.452210852851195" lng="-79.998676352919205" zone="Zone 1" incidentdate="2016-10-21" incidenttime="00:19:00" incidentnumber="16198585" address="600 block Pressley St" type="OFFENSE" age="" gender="" description="*********************************************** &lt;br/&gt;9497, Aided Case&lt;br/&gt;"/><marker lat="40.457062372015514" lng="-79.925283580877647" zone="Zone 4" incidentdate="2016-10-21" incidenttime="13:43:00" incidentnumber="16198887" address="300 block S Highland Ave" type="OFFENSE" age="" gender="" description="*********************************************** &lt;br/&gt;9489, Found Property&lt;br/&gt;"/><marker lat="40.437118233644384" lng="-79.919237384285097" zone="Zone 4" incidentdate="2016-10-21" incidenttime="14:30:00" incidentnumber="16198967" address="Darlington Rd &amp; Shady Ave" type="OFFENSE" age="" gender="" description="*********************************************** &lt;br/&gt;3921(a), Theft by Unlawful Taking or Disposition - Movable item&lt;br/&gt;"/><marker lat="40.481349967958757" lng="-79.937742250984641" zone="Zone 5" incidentdate="2016-10-21" incidenttime="08:30:00" incidentnumber="16198732" address="Stanton Ave &amp; Mc Cabe St" type="OFFENSE" age="" gender="" description="*********************************************** &lt;br/&gt;9999, 9999 - (Misc. Incident):&lt;br/&gt;"/><marker lat="40.454948691850667" lng="-80.009640272832598" zone="Zone 1" incidentdate="2016-10-21" incidenttime="20:56:00" incidentnumber="16199119" address="300 block E North Ave" type="OFFENSE" age="" gender="" description="*********************************************** &lt;br/&gt;5104, Resisting Arrest or Other Law Enforcement.&lt;br/&gt;2702, Aggravated Assault.&lt;br/&gt;"/><marker lat="40.459468634817931" lng="-79.938394685531392" zone="Zone 5" incidentdate="2016-10-21" incidenttime="07:00:00" incidentnumber="16198727" address="400 block S Aiken Ave" type="OFFENSE" age="" gender="" description="*********************************************** &lt;br/&gt;3921, Theft by Unlawful Taking or Disposition.&lt;br/&gt;"/><marker lat="40.386926638543144" lng="-79.983552458412845" zone="Zone 3" incidentdate="2016-10-21" incidenttime="05:30:00" incidentnumber="16198668" address="2400 block Brownsville Rd" type="OFFENSE" age="" gender="" description="*********************************************** &lt;br/&gt;3921(a), Theft by Unlawful Taking or Disposition - Movable item&lt;br/&gt;3921, Theft by Unlawful Taking or Disposition.&lt;br/&gt;3745, Accidents Involving Damage to Unattended Veh.or Prop.&lt;br/&gt;1543, Driving While Operating Privilege is Suspended or Revoked.&lt;br/&gt;1501(A), Valid Drivers License Required&lt;br/&gt;"/><marker lat="40.421917420619479" lng="-80.00370573203304" zone="Zone 3" incidentdate="2016-10-21" incidenttime="13:38:00" incidentnumber="16198891" address="100 block Secane Ave" type="OFFENSE" age="" gender="" description="*********************************************** &lt;br/&gt;3701, Robbery.&lt;br/&gt;"/><marker lat="40.418177901060766" lng="-80.000290680432826" zone="Zone 3" incidentdate="2016-10-21" incidenttime="09:00:00" incidentnumber="16198946" address="400 block Cedarhurst St" type="OFFENSE" age="" gender="" description="*********************************************** &lt;br/&gt;3502, Burglary.&lt;br/&gt;"/><marker lat="40.450892721440539" lng="-80.000843891836467" zone="Zone 1" incidentdate="2016-10-21" incidenttime="13:05:00" incidentnumber="16198346" address="300 block Cedar Ave" type="OFFENSE" age="" gender="" description="*********************************************** &lt;br/&gt;3921, Theft by Unlawful Taking or Disposition.&lt;br/&gt;"/><marker lat="40.461996254274133" lng="-79.940666380663913" zone="Zone 5" incidentdate="2016-10-21" incidenttime="05:50:00" incidentnumber="16198671" address="300 block S Pacific Ave" type="OFFENSE" age="" gender="" description="*********************************************** &lt;br/&gt;3934, Theft from Vehicle&lt;br/&gt;"/><marker lat="40.463509423233837" lng="-79.948934478974223" zone="Zone 5" incidentdate="2016-10-21" incidenttime="20:02:00" incidentnumber="16199078" address="Friendship Ave &amp; Pearl St" type="OFFENSE" age="" gender="" description="*********************************************** &lt;br/&gt;3802(b), DUI - High Rate of Alchol - BAC &gt;=.10% &lt;.16%&lt;br/&gt;"/><marker lat="40.385353685651943" lng="-80.010198514308371" zone="Zone 6" incidentdate="2016-10-21" incidenttime="07:36:00" incidentnumber="16198704" address="1700 block Creedmoor Ave" type="OFFENSE" age="" gender="" description="*********************************************** &lt;br/&gt;9999, 9999 - (Misc. Incident):&lt;br/&gt;"/><marker lat="40.453467566430483" lng="-79.931791612786867" zone="Zone 4" incidentdate="2016-10-21" incidenttime="15:00:00" incidentnumber="16198947" address="5700 block Elmer St" type="OFFENSE" age="" gender="" description="*********************************************** &lt;br/&gt;3304, Criminal Mischief.&lt;br/&gt;3934, Theft from Vehicle&lt;br/&gt;"/><marker lat="40.419095680584391" lng="-79.993657851548321" zone="Zone 3" incidentdate="2016-10-21" incidenttime="15:30:00" incidentnumber="16198968" address="800 block Freeland St" type="OFFENSE" age="" gender="" description="*********************************************** &lt;br/&gt;3502, Burglary.&lt;br/&gt;"/><marker lat="40.416135194574913" lng="-80.027891820611728" zone="Zone 6" incidentdate="2016-10-21" incidenttime="19:41:00" incidentnumber="16199085" address="1300 block Belasco Ave" type="OFFENSE" age="" gender="" description="*********************************************** &lt;br/&gt;9496, Dead on Arrival (DOA)&lt;br/&gt;"/><marker lat="40.418899857196259" lng="-79.988061168931495" zone="Zone 3" incidentdate="2016-10-21" incidenttime="09:00:00" incidentnumber="16198888" address="1000 block Mt Oliver St" type="OFFENSE" age="" gender="" description="*********************************************** &lt;br/&gt;3934, Theft from Vehicle&lt;br/&gt;"/><marker lat="40.457062372015514" lng="-79.925283580877647" zone="Zone 4" incidentdate="2016-10-21" incidenttime="18:30:00" incidentnumber="16199048" address="300 block S Highland Ave" type="OFFENSE" age="" gender="" description="*********************************************** &lt;br/&gt;3502, Burglary.&lt;br/&gt;"/><marker lat="40.438411104332907" lng="-79.960897379202279" zone="Zone 4" incidentdate="2016-10-21" incidenttime="14:20:00" incidentnumber="16198934" address="3400 block Forbes Ave" type="OFFENSE" age="" gender="" description="*********************************************** &lt;br/&gt;3743, Accidents Involving Damage to Attended Veh. or Property&lt;br/&gt;"/><marker lat="40.463425451184747" lng="-79.909227534401651" zone="Zone 5" incidentdate="2016-10-21" incidenttime="09:58:00" incidentnumber="16198772" address="6500 block Shetland St" type="OFFENSE" age="" gender="" description="*********************************************** &lt;br/&gt;9123, Miscellaneous Fire Other Investigation to Continue&lt;br/&gt;"/><marker lat="40.467668512394319" lng="-80.026886880386868" zone="Zone 1" incidentdate="2016-10-21" incidenttime="16:10:00" incidentnumber="16198957" address="1200 block Hodgkiss St" type="OFFENSE" age="" gender="" description="*********************************************** &lt;br/&gt;3934, Theft from Vehicle&lt;br/&gt;"/><marker lat="40.437118233644384" lng="-79.919237384285097" zone="Zone 4" incidentdate="2016-10-21" incidenttime="08:25:00" incidentnumber="16198757" address="Darlington Rd &amp; Shady Ave" type="OFFENSE" age="" gender="" description="*********************************************** &lt;br/&gt;3745, Accidents Involving Damage to Unattended Veh.or Prop.&lt;br/&gt;"/><marker lat="40.470577508434786" lng="-79.96004252127338" zone="Zone 2" incidentdate="2016-10-21" incidenttime="03:02:00" incidentnumber="16198624" address="4300 block Butler St" type="OFFENSE" age="" gender="" description="*********************************************** &lt;br/&gt;3502, Burglary.&lt;br/&gt;3304(a)(5), CRIMINAL MISCHIEF - Intentionally Damages Real Or Personal Property Of Another&lt;br/&gt;"/><marker lat="40.4406248" lng="-79.9958864" zone="Zone 2" incidentdate="2016-10-21" incidenttime="07:00:00" incidentnumber="16198688" address="7th Ave &amp; Chatam Sq" type="OFFENSE" age="" gender="" description="*********************************************** &lt;br/&gt;3743, Accidents Involving Damage to Attended Veh. or Property&lt;br/&gt;"/><marker lat="40.468776455045955" lng="-79.918620668766948" zone="Zone 5" incidentdate="2016-10-21" incidenttime="07:10:00" incidentnumber="16198725" address="6100 block Stanton Ave" type="OFFENSE" age="" gender="" description="*********************************************** &lt;br/&gt;3921, Theft by Unlawful Taking or Disposition.&lt;br/&gt;"/><marker lat="40.4069570" lng="-79.9901890" zone="Zone OSC" incidentdate="2016-10-21" incidenttime="06:09:00" incidentnumber="16198673" address="200 block Quincy Ave" type="OFFENSE" age="" gender="" description="*********************************************** &lt;br/&gt;13(a)(16), Possession of Controlled Substance&lt;br/&gt;13(a)(30), Possession w/ Intent to Del. Controlled Substance&lt;br/&gt;903, Criminal Conspiracy.&lt;br/&gt;"/><marker lat="40.44956618746032" lng="-79.987646691015016" zone="Zone 2" incidentdate="2016-10-21" incidenttime="01:25:00" incidentnumber="16198588" address="1600 block Smallman St" type="OFFENSE" age="" gender="" description="*********************************************** &lt;br/&gt;3503(b)(1)(i), Actual Communication&lt;br/&gt;5104, Resisting Arrest or Other Law Enforcement.&lt;br/&gt;5503, Disorderly Conduct.&lt;br/&gt;5505, Public Drunkenness&lt;br/&gt;5104.1, Disarming a Law Enforcement Officer&lt;br/&gt;"/><marker lat="40.424277209227093" lng="-80.009186444274562" zone="Zone 3" incidentdate="2016-10-21" incidenttime="01:44:00" incidentnumber="16198592" address="400 block Boggs Ave" type="OFFENSE" age="" gender="" description="*********************************************** &lt;br/&gt;3304, Criminal Mischief.&lt;br/&gt;"/><marker lat="40.4454437" lng="-80.0131890" zone="Zone 1" incidentdate="2016-10-21" incidenttime="02:08:00" incidentnumber="16198614" address="300 block North Shore Dr" type="OFFENSE" age="" gender="" description="*********************************************** &lt;br/&gt;3921(a), Theft by Unlawful Taking or Disposition - Movable item&lt;br/&gt;"/><marker lat="40.429465983767656" lng="-80.007337168994823" zone="Zone 3" incidentdate="2016-10-21" incidenttime="22:05:00" incidentnumber="16199157" address="Virginia Ave &amp; Shiloh St" type="OFFENSE" age="" gender="" description="*********************************************** &lt;br/&gt;2701, Simple Assault.&lt;br/&gt;"/><marker lat="40.475068872094958" lng="-80.013705358576715" zone="Zone 1" incidentdate="2016-10-21" incidenttime="11:07:00" incidentnumber="16198810" address="200 block Marshall Ave" type="OFFENSE" age="" gender="" description="*********************************************** &lt;br/&gt;9488, False  Burglar Alarm&lt;br/&gt;"/><marker lat="40.463523772418348" lng="-79.949005950363158" zone="Zone 5" incidentdate="2016-10-21" incidenttime="09:30:00" incidentnumber="16198823" address="200 block Pearl St" type="OFFENSE" age="" gender="" description="*********************************************** &lt;br/&gt;3743, Accidents Involving Damage to Attended Veh. or Property&lt;br/&gt;"/><marker lat="40.428686990454359" lng="-79.9835018707046" zone="Zone 3" incidentdate="2016-10-21" incidenttime="06:30:00" incidentnumber="16198962" address="S 15th St" type="OFFENSE" age="" gender="" description="*********************************************** &lt;br/&gt;3304, Criminal Mischief.&lt;br/&gt;901, Criminal Attempt&lt;br/&gt;2706, Terroristic Threats.&lt;br/&gt;"/><marker lat="40.416067589386451" lng="-79.938587757768929" zone="Zone 4" incidentdate="2016-10-21" incidenttime="09:00:00" incidentnumber="16198752" address="500 block Hazelwood Ave" type="OFFENSE" age="" gender="" description="*********************************************** &lt;br/&gt;3502, Burglary.&lt;br/&gt;"/><marker lat="40.438228962475506" lng="-79.977544615311203" zone="Zone 2" incidentdate="2016-10-21" incidenttime="01:03:00" incidentnumber="16198571" address="5th Ave &amp; Wyandotte St" type="OFFENSE" age="" gender="" description="*********************************************** &lt;br/&gt;13(a)(16), Possession of Controlled Substance&lt;br/&gt;13(a)(32), Paraphernalia - Use or Possession&lt;br/&gt;9501, Bench Warrant&lt;br/&gt;5104, Resisting Arrest or Other Law Enforcement.&lt;br/&gt;"/><marker lat="40.418741910801316" lng="-79.972661536075762" zone="Zone 3" incidentdate="2016-10-21" incidenttime="12:00:00" incidentnumber="16199029" address="2400 block Salisbury St" type="OFFENSE" age="" gender="" description="*********************************************** &lt;br/&gt;4106, Access Device Fraud&lt;br/&gt;4120, Identity Theft&lt;br/&gt;"/><marker lat="40.443742001892389" lng="-80.027588418210868" zone="Zone 3" incidentdate="2016-10-21" incidenttime="12:16:00" incidentnumber="16198873" address="S Main St &amp; W Carson St" type="OFFENSE" age="" gender="" description="*********************************************** &lt;br/&gt;3743, Accidents Involving Damage to Attended Veh. or Property&lt;br/&gt;"/><marker lat="40.387040737230748" lng="-80.00224956741755" zone="Zone 3" incidentdate="2016-10-21" incidenttime="15:54:00" incidentnumber="16198936" address="Glenbury St" type="OFFENSE" age="" gender="" description="*********************************************** &lt;br/&gt;3304, Criminal Mischief.&lt;br/&gt;"/><marker lat="40.440332076098812" lng="-79.99811615543635" zone="Zone 2" incidentdate="2016-10-21" incidenttime="02:00:00" incidentnumber="16198978" address="500 block Smithfield St" type="OFFENSE" age="" gender="" description="*********************************************** &lt;br/&gt;3921, Theft by Unlawful Taking or Disposition.&lt;br/&gt;"/><marker lat="40.470494525043598" lng="-79.921803109042756" zone="Zone 5" incidentdate="2016-10-21" incidenttime="09:28:00" incidentnumber="16198804" address="800 block N Beatty St" type="OFFENSE" age="" gender="" description="*********************************************** &lt;br/&gt;3934, Theft from Vehicle&lt;br/&gt;"/><marker lat="40.420793968702014" lng="-79.991658368981334" zone="Zone 3" incidentdate="2016-10-21" incidenttime="13:47:00" incidentnumber="16198890" address="900 block Industry St" type="OFFENSE" age="" gender="" description="*********************************************** &lt;br/&gt;2701, Simple Assault.&lt;br/&gt;"/><marker lat="40.434480400766702" lng="-79.989819381411621" zone="Zone 3" incidentdate="2016-10-21" incidenttime="19:45:00" incidentnumber="16199104" address="10th St Brg &amp; 2nd Ave" type="OFFENSE" age="" gender="" description="*********************************************** &lt;br/&gt;3743, Accidents Involving Damage to Attended Veh. or Property&lt;br/&gt;"/><marker lat="40.44956618746032" lng="-79.987646691015016" zone="Zone 2" incidentdate="2016-10-21" incidenttime="01:10:00" incidentnumber="16198555" address="1600 block Smallman St" type="OFFENSE" age="" gender="" description="*********************************************** &lt;br/&gt;3503(b)(1)(i), Actual Communication&lt;br/&gt;"/><marker lat="40.461721420656602" lng="-79.925643547394102" zone="Zone 5" incidentdate="2016-10-21" incidenttime="05:44:00" incidentnumber="16198669" address="100 block S Whitfield (across from) St" type="OFFENSE" age="" gender="" description="*********************************************** &lt;br/&gt;3745, Accidents Involving Damage to Unattended Veh.or Prop.&lt;br/&gt;"/><marker lat="40.459811206906437" lng="-79.886886299411756" zone="Zone 5" incidentdate="2016-10-21" incidenttime="11:21:00" incidentnumber="16198815" address="1200 block Mohler St" type="OFFENSE" age="" gender="" description="*********************************************** &lt;br/&gt;9093, Indirect Criminal Contempt&lt;br/&gt;"/><marker lat="40.438615294156641" lng="-80.00581600502511" zone="Zone 2" incidentdate="2016-10-21" incidenttime="09:30:00" incidentnumber="16198735" address="200 block Stanwix St" type="OFFENSE" age="" gender="" description="*********************************************** &lt;br/&gt;6321(c)(2), TSEI(M2)trnsmit distrib pub dissem a visual depiction of any minor in a state of nudity w/o knowledge/consent of depicted minor&lt;br/&gt;"/><marker lat="40.4615591893592" lng="-79.968703029806875" zone="Zone 2" incidentdate="2016-10-21" incidenttime="16:00:00" incidentnumber="16198954" address="3300 block Penn Ave" type="OFFENSE" age="" gender="" description="*********************************************** &lt;br/&gt;2701, Simple Assault.&lt;br/&gt;"/><marker lat="40.443580942147605" lng="-79.979979097296493" zone="Zone 2" incidentdate="2016-10-21" incidenttime="18:40:00" incidentnumber="16199054" address="2000 block Centre Ave" type="OFFENSE" age="" gender="" description="*********************************************** &lt;br/&gt;9999, 9999 - (Misc. Incident):&lt;br/&gt;"/><marker lat="40.4276365" lng="-79.9664315" zone="Zone 3" incidentdate="2016-10-21" incidenttime="20:35:00" incidentnumber="16199122" address="500 block S 27th St" type="OFFENSE" age="" gender="" description="*********************************************** &lt;br/&gt;6110.1, Possesion of Firearm by Minor&lt;br/&gt;6106, Firearms not to be Carried without a License.&lt;br/&gt;"/><marker lat="40.456938366162987" lng="-79.894058187967261" zone="Zone 5" incidentdate="2016-10-21" incidenttime="12:15:00" incidentnumber="16198846" address="7300 block Frankstown Ave" type="OFFENSE" age="" gender="" description="*********************************************** &lt;br/&gt;3502, Burglary.&lt;br/&gt;2701, Simple Assault.&lt;br/&gt;"/><marker lat="40.4196090" lng="-79.9271419" zone="Zone 4" incidentdate="2016-10-21" incidenttime="01:35:00" incidentnumber="16198590" address="4400 block Browns Hill Rd" type="OFFENSE" age="" gender="" description="*********************************************** &lt;br/&gt;3701, Robbery.&lt;br/&gt;"/><marker lat="40.4069570" lng="-79.9901890" zone="Zone OSC" incidentdate="2016-10-21" incidenttime="06:09:00" incidentnumber="16198673" address="200 block Quincy Ave" type="ARREST" age="36" gender="M" description="*********************************************** &lt;br/&gt;13(a)(16), Possession of Controlled Substance&lt;br/&gt;13(a)(30), Possession w/ Intent to Del. Controlled Substance&lt;br/&gt;903, Criminal Conspiracy.&lt;br/&gt;"/><marker lat="40.452133962369352" lng="-80.052647900604114" zone="Zone 6" incidentdate="2016-10-21" incidenttime="22:10:00" incidentnumber="16163265" address="Chartiers Ave &amp; Municipal St" type="ARREST" age="42" gender="F" description="*********************************************** &lt;br/&gt;13(a)(16), Possession of Controlled Substance&lt;br/&gt;9015, Failure To Appear/Arrest on Attachment Order&lt;br/&gt;3111, Obedience to Traffic-Control Devices.&lt;br/&gt;"/><marker lat="40.428746746224945" lng="-79.982646526389246" zone="Zone 3" incidentdate="2016-10-21" incidenttime="01:14:00" incidentnumber="16198580" address="1600 block E Carson St" type="ARREST" age="23" gender="F" description="*********************************************** &lt;br/&gt;5505, Public Drunkenness&lt;br/&gt;2701(a)(1), Simple Assault - Intent., Know., Reckless.Cause Bod. Injury&lt;br/&gt;5503(a)(1), DISORDERLY CONDUCT - ENGAGE IN FIGHTING&lt;br/&gt;"/><marker lat="40.463509423233837" lng="-79.948934478974223" zone="Zone 5" incidentdate="2016-10-21" incidenttime="20:02:00" incidentnumber="16199078" address="Friendship Ave &amp; Pearl St" type="ARREST" age="0" gender="M" description="*********************************************** &lt;br/&gt;3802(b), DUI - High Rate of Alchol - BAC &gt;=.10% &lt;.16%&lt;br/&gt;"/><marker lat="40.399798282486785" lng="-79.98914686757854" zone="Zone 3" incidentdate="2016-10-21" incidenttime="09:44:00" incidentnumber="16174913" address="600 block Brownsville Rd" type="ARREST" age="31" gender="F" description="*********************************************** &lt;br/&gt;3743, Accidents Involving Damage to Attended Veh. or Property&lt;br/&gt;3714, Careless Driving&lt;br/&gt;1312, Notice of Change of Name or Address.&lt;br/&gt;1515, Notice of Change of Name or Address.&lt;br/&gt;"/><marker lat="40.487823540011732" lng="-79.897614208935366" zone="Zone 5" incidentdate="2016-10-21" incidenttime="20:05:00" incidentnumber="16149886" address="800 block Freeport Rd" type="ARREST" age="55" gender="F" description="*********************************************** &lt;br/&gt;3929, Retail Theft.&lt;br/&gt;"/><marker lat="40.4276365" lng="-79.9664315" zone="Zone 3" incidentdate="2016-10-21" incidenttime="20:55:00" incidentnumber="16199122" address="500 block S 27th St" type="ARREST" age="14" gender="M" description="*********************************************** &lt;br/&gt;6110.1, Possesion of Firearm by Minor&lt;br/&gt;6106, Firearms not to be Carried without a License.&lt;br/&gt;"/><marker lat="40.471664574713081" lng="-79.94021807569932" zone="Zone 5" incidentdate="2016-10-21" incidenttime="00:21:00" incidentnumber="16198550" address="Schenley Ave &amp; Columbo St" type="ARREST" age="52" gender="M" description="*********************************************** &lt;br/&gt;3925, Receiving Stolen Property.&lt;br/&gt;"/><marker lat="40.4629498" lng="-79.8923735" zone="Zone 5" incidentdate="2016-10-21" incidenttime="07:20:00" incidentnumber="16163608" address="7100 block Everton St" type="ARREST" age="44" gender="M" description="*********************************************** &lt;br/&gt;2702, Aggravated Assault.&lt;br/&gt;3701, Robbery.&lt;br/&gt;"/><marker lat="40.420793968702014" lng="-79.991658368981334" zone="Zone 3" incidentdate="2016-10-21" incidenttime="13:55:00" incidentnumber="16198890" address="900 block Industry St" type="ARREST" age="34" gender="M" description="*********************************************** &lt;br/&gt;2701, Simple Assault.&lt;br/&gt;"/><marker lat="40.44956618746032" lng="-79.987646691015016" zone="Zone 2" incidentdate="2016-10-21" incidenttime="01:25:00" incidentnumber="16198588" address="1600 block Smallman St" type="ARREST" age="24" gender="M" description="*********************************************** &lt;br/&gt;3503(b)(1)(i), Actual Communication&lt;br/&gt;5104, Resisting Arrest or Other Law Enforcement.&lt;br/&gt;5503, Disorderly Conduct.&lt;br/&gt;5505, Public Drunkenness&lt;br/&gt;5104.1, Disarming a Law Enforcement Officer&lt;br/&gt;"/><marker lat="40.459241184494772" lng="-80.005548013998464" zone="Zone 1" incidentdate="2016-10-21" incidenttime="12:44:00" incidentnumber="16187731" address="1600 block Sandusky Ct" type="ARREST" age="28" gender="M" description="*********************************************** &lt;br/&gt;13(a)(16), Possession of Controlled Substance&lt;br/&gt;13(a)(30), Possession w/ Intent to Del. Controlled Substance&lt;br/&gt;3925, Receiving Stolen Property.&lt;br/&gt;903, Criminal Conspiracy.&lt;br/&gt;6105(a)(1), Persons not to possess, use, manufacture, control, sell or transfer firearms: Former convict enumerated in subsection (b)&lt;br/&gt;"/><marker lat="40.44956618746032" lng="-79.987646691015016" zone="Zone 2" incidentdate="2016-10-21" incidenttime="01:50:00" incidentnumber="16198601" address="1600 block Smallman St" type="ARREST" age="22" gender="M" description="*********************************************** &lt;br/&gt;3503(b)(1)(i), Actual Communication&lt;br/&gt;5104, Resisting Arrest or Other Law Enforcement.&lt;br/&gt;2702, Aggravated Assault.&lt;br/&gt;"/><marker lat="40.438228962475506" lng="-79.977544615311203" zone="Zone 2" incidentdate="2016-10-21" incidenttime="01:03:00" incidentnumber="16198571" address="5th Ave &amp; Wyandotte St" type="ARREST" age="36" gender="M" description="*********************************************** &lt;br/&gt;13(a)(16), Possession of Controlled Substance&lt;br/&gt;13(a)(32), Paraphernalia - Use or Possession&lt;br/&gt;9501, Bench Warrant&lt;br/&gt;5104, Resisting Arrest or Other Law Enforcement.&lt;br/&gt;"/><marker lat="40.407614386037416" lng="-79.940012571439624" zone="Zone 4" incidentdate="2016-10-21" incidenttime="14:25:00" incidentnumber="16198920" address="5100 block Glenwood Ave" type="ARREST" age="32" gender="F" description="*********************************************** &lt;br/&gt;9501, Bench Warrant&lt;br/&gt;"/><marker lat="40.459811206906437" lng="-79.886886299411756" zone="Zone 5" incidentdate="2016-10-21" incidenttime="11:45:00" incidentnumber="16198815" address="1200 block Mohler St" type="ARREST" age="44" gender="M" description="*********************************************** &lt;br/&gt;9093, Indirect Criminal Contempt&lt;br/&gt;"/><marker lat="40.454948691850667" lng="-80.009640272832598" zone="Zone 1" incidentdate="2016-10-21" incidenttime="20:56:00" incidentnumber="16199119" address="300 block E North Ave" type="ARREST" age="16" gender="M" description="*********************************************** &lt;br/&gt;5104, Resisting Arrest or Other Law Enforcement.&lt;br/&gt;2702, Aggravated Assault.&lt;br/&gt;"/><marker lat="40.4510859" lng="-79.9431183" zone="Zone 5" incidentdate="2016-10-21" incidenttime="15:50:00" incidentnumber="16144755" address="4900 block Morewood Ave" type="ARREST" age="49" gender="M" description="*********************************************** &lt;br/&gt;13(a)(32), Paraphernalia - Use or Possession&lt;br/&gt;5503, Disorderly Conduct.&lt;br/&gt;"/><marker lat="40.473251485995974" lng="-79.930665424800665" zone="Zone 5" incidentdate="2016-10-21" incidenttime="07:27:00" incidentnumber="16121025" address="800 block Chislett St" type="ARREST" age="23" gender="M" description="*********************************************** &lt;br/&gt;3304, Criminal Mischief.&lt;br/&gt;2702, Aggravated Assault.&lt;br/&gt;"/><marker lat="40.4069570" lng="-79.9901890" zone="Zone OSC" incidentdate="2016-10-21" incidenttime="06:09:00" incidentnumber="16198673" address="200 block Quincy Ave" type="ARREST" age="43" gender="M" description="*********************************************** &lt;br/&gt;13(a)(16), Possession of Controlled Substance&lt;br/&gt;13(a)(30), Possession w/ Intent to Del. Controlled Substance&lt;br/&gt;903, Criminal Conspiracy.&lt;br/&gt;"/><marker lat="40.4001247" lng="-80.0237832" zone="Zone 3" incidentdate="2016-10-21" incidenttime="00:21:00" incidentnumber="16193346" address="Saw Mill Run Blvd Ramp &amp; West Liberty Ave" type="ARREST" age="52" gender="F" description="*********************************************** &lt;br/&gt;2705, Recklessly Endangering Another Person.&lt;br/&gt;2702, Aggravated Assault.&lt;br/&gt;3928, Unauthorized Use of Automobile and Other Vehicles.&lt;br/&gt;"/><marker lat="40.44956618746032" lng="-79.987646691015016" zone="Zone 2" incidentdate="2016-10-21" incidenttime="01:10:00" incidentnumber="16198555" address="1600 block Smallman St" type="ARREST" age="18" gender="M" description="*********************************************** &lt;br/&gt;3503(b)(1)(i), Actual Communication&lt;br/&gt;"/><marker lat="40.386684536480075" lng="-79.981147828477475" zone="Zone 3" incidentdate="2016-10-21" incidenttime="10:30:00" incidentnumber="16171979" address="2500 block Brownsville Rd" type="ARREST" age="15" gender="M" description="*********************************************** &lt;br/&gt;3921, Theft by Unlawful Taking or Disposition.&lt;br/&gt;3934, Theft from Vehicle&lt;br/&gt;"/><marker lat="40.467765994268291" lng="-79.94576492862997" zone="Zone 5" incidentdate="2016-10-21" incidenttime="07:27:00" incidentnumber="16165945" address="400 block N Mathilda St" type="ARREST" age="23" gender="M" description="*********************************************** &lt;br/&gt;2701, Simple Assault.&lt;br/&gt;"/><marker lat="40.479864793810727" lng="-79.919738711106376" zone="Zone 5" incidentdate="2016-10-21" incidenttime="20:00:00" incidentnumber="16199076" address="One Wild Pl" type="ARREST" age="55" gender="F" description="*********************************************** &lt;br/&gt;3802(a)(1), DUI - General Impairment&lt;br/&gt;"/></markers>
