<?xml version="1.0"?>
<markers><marker lat="40.466903491398845" lng="-79.905983448201809" zone="Zone 5" incidentdate="2014-10-24" incidenttime="20:30:00" incidentnumber="14021407" address="6500 block Deary St" type="OFFENSE" description="*********************************************** &lt;br/&gt;3304, Criminal Mischief.&lt;br/&gt;607.13, Penalties for Discharging Firearms or Air Guns&lt;br/&gt;"/><marker lat="40.434696587775576" lng="-79.996300985228572" zone="Zone 2" incidentdate="2014-10-24" incidenttime="18:15:00" incidentnumber="14108834" address="600 block 1st Ave" type="ARREST" description="*********************************************** &lt;br/&gt;2701(a)(3), Simple Assault - Attempts by Physical Menace&lt;br/&gt;"/><marker lat="40.442092052039932" lng="-79.999423512399062" zone="Zone 2" incidentdate="2014-10-24" incidenttime="23:30:00" incidentnumber="14152651" address="600 block Wood St" type="ARREST" description="*********************************************** &lt;br/&gt;3921(a), Theft by Unlawful Taking or Disposition - Movable item&lt;br/&gt;"/><marker lat="40.39458317783771" lng="-80.021692304865098" zone="Zone 6" incidentdate="2014-10-24" incidenttime="09:30:00" incidentnumber="14170553" address="700 block Brookline Blvd" type="ARREST" description="*********************************************** &lt;br/&gt;3502, Burglary.&lt;br/&gt;"/><marker lat="40.455262757040124" lng="-80.025063098879627" zone="Zone 1" incidentdate="2014-10-24" incidenttime="23:30:00" incidentnumber="14183794" address="Liverpool St &amp; Fulton St" type="ARREST" description="*********************************************** &lt;br/&gt;2606(a), Aggravated Assault on Unborn Child&lt;br/&gt;2701, Simple Assault.&lt;br/&gt;"/><marker lat="40.435117964984315" lng="-79.993138203602911" zone="Zone 2" incidentdate="2014-10-24" incidenttime="16:35:00" incidentnumber="14194619" address="900 block Second Ave" type="ARREST" description="*********************************************** &lt;br/&gt;2902, Unlawful Restraint.&lt;br/&gt;2706, Terroristic Threats.&lt;br/&gt;2701(a)(1), Simple Assault - Intent., Know., Reckless.Cause Bod. Injury&lt;br/&gt;"/><marker lat="40.435117964984315" lng="-79.993138203602911" zone="Zone 2" incidentdate="2014-10-24" incidenttime="12:15:00" incidentnumber="14198134" address="900 block 2nd Ave" type="ARREST" description="*********************************************** &lt;br/&gt;2701, Simple Assault.&lt;br/&gt;"/><marker lat="40.423080835702336" lng="-80.025274751408517" zone="Zone 6" incidentdate="2014-10-24" incidenttime="17:41:00" incidentnumber="14208293" address="1100 block Shadycrest Dr" type="ARREST" description="*********************************************** &lt;br/&gt;2701, Simple Assault.&lt;br/&gt;2705, Recklessly Endangering Another Person.&lt;br/&gt;"/><marker lat="40.434696587775576" lng="-79.996300985228572" zone="Zone 2" incidentdate="2014-10-24" incidenttime="10:35:00" incidentnumber="14208780" address="600 block 1st Ave" type="OFFENSE" description="*********************************************** &lt;br/&gt;3304, Criminal Mischief.&lt;br/&gt;2705, Recklessly Endangering Another Person.&lt;br/&gt;"/><marker lat="40.434696587775576" lng="-79.996300985228572" zone="Zone 2" incidentdate="2014-10-24" incidenttime="10:17:00" incidentnumber="14208780" address="600 block 1st Ave" type="ARREST" description="*********************************************** &lt;br/&gt;3304, Criminal Mischief.&lt;br/&gt;2705, Recklessly Endangering Another Person.&lt;br/&gt;"/><marker lat="40.434696587775576" lng="-79.996300985228572" zone="Zone 2" incidentdate="2014-10-24" incidenttime="12:47:00" incidentnumber="14209769" address="600 block First Ave" type="ARREST" description="*********************************************** &lt;br/&gt;5503, Disorderly Conduct.&lt;br/&gt;2701(a)(1), Simple Assault - Intent., Know., Reckless.Cause Bod. Injury&lt;br/&gt;"/><marker lat="40.41196498488614" lng="-80.044137945154048" zone="Zone 6" incidentdate="2014-10-24" incidenttime="00:27:00" incidentnumber="14211807" address="2600 block Winchester Dr" type="OFFENSE" description="*********************************************** &lt;br/&gt;3502, Burglary.&lt;br/&gt;"/><marker lat="40.391935616779428" lng="-80.012990596194811" zone="Zone 6" incidentdate="2014-10-24" incidenttime="02:00:00" incidentnumber="14211836" address="1200 block Brookline Blvd" type="OFFENSE" description="*********************************************** &lt;br/&gt;9497, Aided Case&lt;br/&gt;"/><marker lat="40.462428993626958" lng="-79.951607879354327" zone="Zone 5" incidentdate="2014-10-24" incidenttime="00:30:00" incidentnumber="14211838" address="300 block Orwell Way" type="OFFENSE" description="*********************************************** &lt;br/&gt;2709, Harassment (Non-Specific)&lt;br/&gt;"/><marker lat="40.472808664777112" lng="-79.925628710706434" zone="Zone 5" incidentdate="2014-10-24" incidenttime="01:30:00" incidentnumber="14211841" address="900 block N Negley Ave" type="OFFENSE" description="*********************************************** &lt;br/&gt;029, Missing Juvenile&lt;br/&gt;"/><marker lat="40.383837752229034" lng="-79.977488003386554" zone="Zone 3" incidentdate="2014-10-24" incidenttime="01:38:00" incidentnumber="14211845" address="Meritt Ave" type="OFFENSE" description="*********************************************** &lt;br/&gt;2702, Aggravated Assault.&lt;br/&gt;3502, Burglary.&lt;br/&gt;"/><marker lat="40.442802683726654" lng="-80.032470494061599" zone="Zone 6" incidentdate="2014-10-24" incidenttime="01:42:00" incidentnumber="14211847" address="100 block Steuben St" type="OFFENSE" description="*********************************************** &lt;br/&gt;2501, Criminal Homicide.&lt;br/&gt;"/><marker lat="40.457746324808426" lng="-79.995403647447674" zone="Zone 1" incidentdate="2014-10-24" incidenttime="02:15:00" incidentnumber="14211854" address="Spring Garden Ave &amp; Chestnut St" type="ARREST" description="*********************************************** &lt;br/&gt;1543, Driving While Operating Privilege is Suspended or Revoked.&lt;br/&gt;13(a)(32), Paraphernalia - Use or Possession&lt;br/&gt;4303, General Lighting Requirements.&lt;br/&gt;4914, False Identification to Law Enforcement Authorities&lt;br/&gt;9501, Bench Warrant&lt;br/&gt;3334, Turning Movements and Required Signals.&lt;br/&gt;"/><marker lat="40.457746324808426" lng="-79.995403647447674" zone="Zone 1" incidentdate="2014-10-24" incidenttime="01:57:00" incidentnumber="14211854" address="Spring Garden Ave &amp; Chestnut St" type="OFFENSE" description="*********************************************** &lt;br/&gt;1543, Driving While Operating Privilege is Suspended or Revoked.&lt;br/&gt;13(a)(32), Paraphernalia - Use or Possession&lt;br/&gt;4303, General Lighting Requirements.&lt;br/&gt;4914, False Identification to Law Enforcement Authorities&lt;br/&gt;9501, Bench Warrant&lt;br/&gt;3334, Turning Movements and Required Signals.&lt;br/&gt;"/><marker lat="40.413954063570756" lng="-80.009670712485374" zone="Zone 3" incidentdate="2014-10-24" incidenttime="02:30:00" incidentnumber="14211858" address="Saw Mill Run Blvd &amp; Liberty Tunnel" type="ARREST" description="*********************************************** &lt;br/&gt;3714, Careless Driving&lt;br/&gt;3802(a)(1), DUI - General Impairment&lt;br/&gt;"/><marker lat="40.413954063570756" lng="-80.009670712485374" zone="Zone 3" incidentdate="2014-10-24" incidenttime="02:15:00" incidentnumber="14211858" address="Saw Mill Run Blvd &amp; Liberty Tunnel" type="OFFENSE" description="*********************************************** &lt;br/&gt;3714, Careless Driving&lt;br/&gt;3802(a)(1), DUI - General Impairment&lt;br/&gt;"/><marker lat="40.435650920757489" lng="-79.962828604487157" zone="Zone 4" incidentdate="2014-10-24" incidenttime="03:39:00" incidentnumber="14211878" address="3200 block Blvd Of The Allies" type="OFFENSE" description="*********************************************** &lt;br/&gt;3742.1, Accident Involv. Death/Inj. While not Licensed&lt;br/&gt;1543, Driving While Operating Privilege is Suspended or Revoked.&lt;br/&gt;3301, Arson&lt;br/&gt;"/><marker lat="40.435650920757489" lng="-79.962828604487157" zone="Zone 4" incidentdate="2014-10-24" incidenttime="04:19:00" incidentnumber="14211878" address="3200 block Blvd Of The Allies" type="ARREST" description="*********************************************** &lt;br/&gt;3742.1, Accident Involv. Death/Inj. While not Licensed&lt;br/&gt;1543, Driving While Operating Privilege is Suspended or Revoked.&lt;br/&gt;3301, Arson&lt;br/&gt;"/><marker lat="40.493281743219455" lng="-80.01141761955968" zone="Zone 6" incidentdate="2014-10-24" incidenttime="01:50:00" incidentnumber="14211883" address="Mc Knight St" type="OFFENSE" description="*********************************************** &lt;br/&gt;9501, Bench Warrant&lt;br/&gt;"/><marker lat="40.493281743219455" lng="-80.01141761955968" zone="Zone 6" incidentdate="2014-10-24" incidenttime="02:11:00" incidentnumber="14211883" address="Mc Knight St" type="ARREST" description="*********************************************** &lt;br/&gt;9501, Bench Warrant&lt;br/&gt;"/><marker lat="40.438223713475992" lng="-79.977737009705436" zone="Zone 2" incidentdate="2014-10-24" incidenttime="06:30:00" incidentnumber="14211913" address="100 block Jumonville St" type="ARREST" description="*********************************************** &lt;br/&gt;13(a)(32), Paraphernalia - Use or Possession&lt;br/&gt;"/><marker lat="40.438223713475992" lng="-79.977737009705436" zone="Zone 2" incidentdate="2014-10-24" incidenttime="07:45:00" incidentnumber="14211913" address="100 block Jumonville St" type="OFFENSE" description="*********************************************** &lt;br/&gt;13(a)(32), Paraphernalia - Use or Possession&lt;br/&gt;"/><marker lat="40.455584861651879" lng="-79.941557723254078" zone="Zone 5" incidentdate="2014-10-24" incidenttime="07:45:00" incidentnumber="14211943" address="5200 block Baum Blvd" type="OFFENSE" description="*********************************************** &lt;br/&gt;3924, Theft of Property Lost, Mislaid or Delivered by Mistake.&lt;br/&gt;"/><marker lat="40.452543333605853" lng="-79.949753553249465" zone="Zone 4" incidentdate="2014-10-24" incidenttime="08:00:00" incidentnumber="14211950" address="300 block N Neville St" type="OFFENSE" description="*********************************************** &lt;br/&gt;3502, Burglary.&lt;br/&gt;"/><marker lat="40.441374477166953" lng="-80.002034043128006" zone="Zone 2" incidentdate="2014-10-24" incidenttime="05:30:00" incidentnumber="14211954" address="500 block Market St" type="OFFENSE" description="*********************************************** &lt;br/&gt;3921, Theft by Unlawful Taking or Disposition.&lt;br/&gt;"/><marker lat="40.432768273348586" lng="-79.954930006853985" zone="Zone 4" incidentdate="2014-10-24" incidenttime="08:23:00" incidentnumber="14211957" address="3200 block Ward St" type="OFFENSE" description="*********************************************** &lt;br/&gt;3304(a)(5), CRIMINAL MISCHIEF - Intentionally Damages Real Or Personal Property Of Another&lt;br/&gt;"/><marker lat="40.390649265711644" lng="-79.999508601327975" zone="Zone 6" incidentdate="2014-10-24" incidenttime="08:48:00" incidentnumber="14211968" address="2100 block Jacob St" type="OFFENSE" description="*********************************************** &lt;br/&gt;9488, False  Burglar Alarm&lt;br/&gt;"/><marker lat="40.407924376894591" lng="-79.943479890779997" zone="Zone 4" incidentdate="2014-10-24" incidenttime="09:00:00" incidentnumber="14211974" address="100 block Tipton St" type="OFFENSE" description="*********************************************** &lt;br/&gt;3502, Burglary.&lt;br/&gt;"/><marker lat="40.45616862923675" lng="-80.020455297206254" zone="Zone 1" incidentdate="2014-10-24" incidenttime="09:35:00" incidentnumber="14211989" address="1000 block Liverpool St" type="OFFENSE" description="*********************************************** &lt;br/&gt;9488, False  Burglar Alarm&lt;br/&gt;"/><marker lat="40.45204187568531" lng="-79.886171991021982" zone="Zone 5" incidentdate="2014-10-24" incidenttime="09:49:00" incidentnumber="14212010" address="Hamilton Ave &amp; Muti Way" type="ARREST" description="*********************************************** &lt;br/&gt;9501, Bench Warrant&lt;br/&gt;"/><marker lat="40.45204187568531" lng="-79.886171991021982" zone="Zone 5" incidentdate="2014-10-24" incidenttime="09:49:00" incidentnumber="14212010" address="Hamilton Ave &amp; Muti Way" type="OFFENSE" description="*********************************************** &lt;br/&gt;9501, Bench Warrant&lt;br/&gt;"/><marker lat="40.453087824966865" lng="-80.000287901381768" zone="Zone 1" incidentdate="2014-10-24" incidenttime="10:30:00" incidentnumber="14212023" address="500 block Avery St" type="ARREST" description="*********************************************** &lt;br/&gt;13(a)(16), Possession of Controlled Substance&lt;br/&gt;13(a)(30)*, Delivery of Controlled Substance&lt;br/&gt;13(a)(30), Possession w/ Intent to Del. Controlled Substance&lt;br/&gt;7512, Criminal Use of Communication&lt;br/&gt;"/><marker lat="40.453087824966865" lng="-80.000287901381768" zone="Zone 1" incidentdate="2014-10-24" incidenttime="10:30:00" incidentnumber="14212023" address="500 block Avery St" type="OFFENSE" description="*********************************************** &lt;br/&gt;13(a)(16), Possession of Controlled Substance&lt;br/&gt;13(a)(30)*, Delivery of Controlled Substance&lt;br/&gt;13(a)(30), Possession w/ Intent to Del. Controlled Substance&lt;br/&gt;7512, Criminal Use of Communication&lt;br/&gt;"/><marker lat="40.427487722390566" lng="-80.01088241911134" zone="Zone 3" incidentdate="2014-10-24" incidenttime="11:00:00" incidentnumber="14212029" address="Cowan St" type="OFFENSE" description="*********************************************** &lt;br/&gt;029, Missing Juvenile&lt;br/&gt;"/><marker lat="40.456635323771728" lng="-79.997629051365578" zone="Zone 1" incidentdate="2014-10-24" incidenttime="10:53:00" incidentnumber="14212036" address="800 block Tripoli St" type="OFFENSE" description="*********************************************** &lt;br/&gt;9488, False  Burglar Alarm&lt;br/&gt;"/><marker lat="40.419745084735858" lng="-79.933047930760196" zone="Zone 4" incidentdate="2014-10-24" incidenttime="10:30:00" incidentnumber="14212037" address="700 block Hazelwood Ave" type="OFFENSE" description="*********************************************** &lt;br/&gt;3745, Accidents Involving Damage to Unattended Veh.or Prop.&lt;br/&gt;"/><marker lat="40.456339310851142" lng="-80.076969699366785" zone="Zone 6" incidentdate="2014-10-24" incidenttime="12:10:00" incidentnumber="14212076" address="1600 block Summerdale St" type="OFFENSE" description="*********************************************** &lt;br/&gt;9488, False  Burglar Alarm&lt;br/&gt;"/><marker lat="40.452042212663898" lng="-80.008738896002342" zone="Zone 1" incidentdate="2014-10-24" incidenttime="12:22:00" incidentnumber="14212086" address="200 block Ridge Ave" type="OFFENSE" description="*********************************************** &lt;br/&gt;029, Missing Juvenile&lt;br/&gt;"/><marker lat="40.463808944807141" lng="-79.959600325278004" zone="Zone 2" incidentdate="2014-10-24" incidenttime="12:00:00" incidentnumber="14212098" address="3900 block Mintwood St" type="OFFENSE" description="*********************************************** &lt;br/&gt;9999, 9999 - (Misc. Incident):&lt;br/&gt;"/><marker lat="40.430193964482086" lng="-80.032946815243875" zone="Zone 6" incidentdate="2014-10-24" incidenttime="14:30:00" incidentnumber="14212101" address="Camden St" type="OFFENSE" description="*********************************************** &lt;br/&gt;9497, Aided Case&lt;br/&gt;"/><marker lat="40.446725490242429" lng="-79.94068708263093" zone="Zone 4" incidentdate="2014-10-24" incidenttime="13:00:00" incidentnumber="14212103" address="5000 block Warwick Ter" type="OFFENSE" description="*********************************************** &lt;br/&gt;9488, False  Burglar Alarm&lt;br/&gt;"/><marker lat="40.457245182596367" lng="-79.994195852189222" zone="Zone 1" incidentdate="2014-10-24" incidenttime="13:00:00" incidentnumber="14212111" address="1000 block Constance St" type="OFFENSE" description="*********************************************** &lt;br/&gt;3304, Criminal Mischief.&lt;br/&gt;"/><marker lat="40.435806970741275" lng="-79.972632180663282" zone="Zone 2" incidentdate="2014-10-24" incidenttime="13:13:00" incidentnumber="14212141" address="Brady St &amp; 2nd Ave" type="OFFENSE" description="*********************************************** &lt;br/&gt;3743, Accidents Involving Damage to Attended Veh. or Property&lt;br/&gt;"/><marker lat="40.4539247715024" lng="-79.997839351546148" zone="Zone 1" incidentdate="2014-10-24" incidenttime="13:39:00" incidentnumber="14212143" address="East St &amp; East Ohio St" type="OFFENSE" description="*********************************************** &lt;br/&gt;5507, Obstructing Highways and Passages.&lt;br/&gt;"/><marker lat="40.398915184429292" lng="-79.986129239166701" zone="Zone 3" incidentdate="2014-10-24" incidenttime="14:12:00" incidentnumber="14212153" address="200 block E Cherryhill St" type="OFFENSE" description="*********************************************** &lt;br/&gt;2709, Harassment (Non-Specific)&lt;br/&gt;"/><marker lat="40.459846940702469" lng="-80.057443353133792" zone="Zone 6" incidentdate="2014-10-24" incidenttime="14:40:00" incidentnumber="14212172" address="500 block Stadium St" type="OFFENSE" description="*********************************************** &lt;br/&gt;3502, Burglary.&lt;br/&gt;"/><marker lat="40.446524174742748" lng="-80.036900909030351" zone="Zone 6" incidentdate="2014-10-24" incidenttime="14:40:00" incidentnumber="14212174" address="1000 block Valonia St" type="OFFENSE" description="*********************************************** &lt;br/&gt;3921, Theft by Unlawful Taking or Disposition.&lt;br/&gt;"/><marker lat="40.390291861606542" lng="-79.981628340275449" zone="Zone 3" incidentdate="2014-10-24" incidenttime="15:10:00" incidentnumber="14212183" address="2400 block Eiler Ave" type="OFFENSE" description="*********************************************** &lt;br/&gt;3502, Burglary.&lt;br/&gt;"/><marker lat="40.428684832699354" lng="-79.983306706238423" zone="Zone 3" incidentdate="2014-10-24" incidenttime="15:00:00" incidentnumber="14212188" address="1500 block E Carson St" type="OFFENSE" description="*********************************************** &lt;br/&gt;9999, 9999 - (Misc. Incident):&lt;br/&gt;"/><marker lat="40.440790389846583" lng="-80.002957810096802" zone="Zone 2" incidentdate="2014-10-24" incidenttime="15:15:00" incidentnumber="14212194" address="Market St &amp; Forbes Ave" type="OFFENSE" description="*********************************************** &lt;br/&gt;3921, Theft by Unlawful Taking or Disposition.&lt;br/&gt;"/><marker lat="40.459190603440391" lng="-79.927408851895919" zone="Zone 5" incidentdate="2014-10-24" incidenttime="14:00:00" incidentnumber="14212195" address="5900 block CENTRE Ave" type="OFFENSE" description="*********************************************** &lt;br/&gt;3921(a), Theft by Unlawful Taking or Disposition - Movable item&lt;br/&gt;4106, Access Device Fraud&lt;br/&gt;"/><marker lat="40.410441886301861" lng="-80.024947612351937" zone="Zone 6" incidentdate="2014-10-24" incidenttime="15:20:00" incidentnumber="14212198" address="1600 block Broadway Ave" type="OFFENSE" description="*********************************************** &lt;br/&gt;3929, Retail Theft.&lt;br/&gt;"/><marker lat="40.429912956583365" lng="-79.95398397967142" zone="Zone 4" incidentdate="2014-10-24" incidenttime="15:27:00" incidentnumber="14212203" address="3200 block Dawson St" type="OFFENSE" description="*********************************************** &lt;br/&gt;13(a)(31), Marijuana: Possession Small Amount&lt;br/&gt;2701, Simple Assault.&lt;br/&gt;"/><marker lat="40.429912956583365" lng="-79.95398397967142" zone="Zone 4" incidentdate="2014-10-24" incidenttime="20:00:00" incidentnumber="14212203" address="3200 block Dawson St" type="ARREST" description="*********************************************** &lt;br/&gt;13(a)(31), Marijuana: Possession Small Amount&lt;br/&gt;2701, Simple Assault.&lt;br/&gt;"/><marker lat="40.382923639369977" lng="-79.981539930948458" zone="Zone 3" incidentdate="2014-10-24" incidenttime="15:41:00" incidentnumber="14212206" address="Claus Ave" type="OFFENSE" description="*********************************************** &lt;br/&gt;9489, Found Property&lt;br/&gt;"/><marker lat="40.4539247715024" lng="-79.997839351546148" zone="Zone 1" incidentdate="2014-10-24" incidenttime="15:52:00" incidentnumber="14212211" address="Route 28 &amp; Chestnut St" type="OFFENSE" description="*********************************************** &lt;br/&gt;2702, Aggravated Assault.&lt;br/&gt;"/><marker lat="40.410735382522446" lng="-80.017660491541704" zone="Zone 6" incidentdate="2014-10-24" incidenttime="16:00:00" incidentnumber="14212212" address="1600 block Princess Ave" type="OFFENSE" description="*********************************************** &lt;br/&gt;2709(a)(3), Harassment No Legitimate Purpose&lt;br/&gt;"/><marker lat="40.467375034401172" lng="-79.957944364123122" zone="Zone 2" incidentdate="2014-10-24" incidenttime="15:30:00" incidentnumber="14212217" address="300 block Main St" type="OFFENSE" description="*********************************************** &lt;br/&gt;3921, Theft by Unlawful Taking or Disposition.&lt;br/&gt;"/><marker lat="40.456542939615126" lng="-79.887664136937502" zone="Zone 5" incidentdate="2014-10-24" incidenttime="16:05:00" incidentnumber="14212219" address="1000 block Brushton Ave" type="OFFENSE" description="*********************************************** &lt;br/&gt;3304, Criminal Mischief.&lt;br/&gt;9999, 9999 - (Misc. Incident):&lt;br/&gt;"/><marker lat="40.407183657938951" lng="-79.941364731105793" zone="Zone 4" incidentdate="2014-10-24" incidenttime="16:00:00" incidentnumber="14212225" address="200 block E Elizabeth St" type="OFFENSE" description="*********************************************** &lt;br/&gt;2709(a)(1), Harassment by Physical Contact, or Attempts or Threats&lt;br/&gt;"/><marker lat="40.399788878927772" lng="-80.043325511648376" zone="Zone 6" incidentdate="2014-10-24" incidenttime="16:00:00" incidentnumber="14212236" address="3100 block Banksville Rd" type="OFFENSE" description="*********************************************** &lt;br/&gt;3929, Retail Theft.&lt;br/&gt;"/><marker lat="40.399788878927772" lng="-80.043325511648376" zone="Zone 6" incidentdate="2014-10-24" incidenttime="16:45:00" incidentnumber="14212236" address="3100 block Banksville Rd" type="ARREST" description="*********************************************** &lt;br/&gt;3929, Retail Theft.&lt;br/&gt;"/><marker lat="40.470459914974732" lng="-79.908540011902716" zone="Zone 5" incidentdate="2014-10-24" incidenttime="16:00:00" incidentnumber="14212240" address="1400 block Washington Blvd" type="OFFENSE" description="*********************************************** &lt;br/&gt;9093, Indirect Criminal Contempt&lt;br/&gt;"/><marker lat="40.473481220987026" lng="-79.962813878468651" zone="Zone 2" incidentdate="2014-10-24" incidenttime="16:49:00" incidentnumber="14212257" address="100 block 44th St" type="OFFENSE" description="*********************************************** &lt;br/&gt;3921(a), Theft by Unlawful Taking or Disposition - Movable item&lt;br/&gt;"/><marker lat="40.448848076836171" lng="-79.964826556481214" zone="Zone 2" incidentdate="2014-10-24" incidenttime="17:01:00" incidentnumber="14212260" address="500 block Herron Ave" type="OFFENSE" description="*********************************************** &lt;br/&gt;3921(a), Theft by Unlawful Taking or Disposition - Movable item&lt;br/&gt;"/><marker lat="40.469387669405805" lng="-79.929877482606599" zone="Zone 5" incidentdate="2014-10-24" incidenttime="15:00:00" incidentnumber="14212265" address="5500 block Black St" type="OFFENSE" description="*********************************************** &lt;br/&gt;029, Missing Juvenile&lt;br/&gt;"/><marker lat="40.459907567660288" lng="-80.005930216500616" zone="Zone 1" incidentdate="2014-10-24" incidenttime="17:35:00" incidentnumber="14212271" address="1600 block Sandusky Ct" type="ARREST" description="*********************************************** &lt;br/&gt;2701, Simple Assault.&lt;br/&gt;"/><marker lat="40.459907567660288" lng="-80.005930216500616" zone="Zone 1" incidentdate="2014-10-24" incidenttime="17:15:00" incidentnumber="14212271" address="1600 block Sandusky Ct" type="OFFENSE" description="*********************************************** &lt;br/&gt;2701, Simple Assault.&lt;br/&gt;"/><marker lat="40.469771195528878" lng="-80.030299486392565" zone="Zone 1" incidentdate="2014-10-24" incidenttime="16:25:00" incidentnumber="14212291" address="Shadeland Ave &amp; Dickson St" type="OFFENSE" description="*********************************************** &lt;br/&gt;2709(a)(1), Harassment by Physical Contact, or Attempts or Threats&lt;br/&gt;"/><marker lat="40.455909609583095" lng="-79.938591213406013" zone="Zone 4" incidentdate="2014-10-24" incidenttime="17:35:00" incidentnumber="14212292" address="Centre Ave &amp; S Aiken Ave" type="OFFENSE" description="*********************************************** &lt;br/&gt;3743, Accidents Involving Damage to Attended Veh. or Property&lt;br/&gt;"/><marker lat="40.426953165177082" lng="-79.980740321759981" zone="Zone 3" incidentdate="2014-10-24" incidenttime="16:50:00" incidentnumber="14212295" address="Jane St &amp; S 18th St" type="OFFENSE" description="*********************************************** &lt;br/&gt;3745, Accidents Involving Damage to Unattended Veh.or Prop.&lt;br/&gt;"/><marker lat="40.459707370251863" lng="-79.945845143011766" zone="Zone 5" incidentdate="2014-10-24" incidenttime="17:55:00" incidentnumber="14212299" address="4900 block Liberty Ave" type="OFFENSE" description="*********************************************** &lt;br/&gt;3934, Theft from Vehicle&lt;br/&gt;"/><marker lat="40.423010536674774" lng="-79.929051494258587" zone="Zone 4" incidentdate="2014-10-24" incidenttime="18:00:00" incidentnumber="14212305" address="4200 block Murray Ave" type="OFFENSE" description="*********************************************** &lt;br/&gt;3929, Retail Theft.&lt;br/&gt;"/><marker lat="40.423010536674774" lng="-79.929051494258587" zone="Zone 4" incidentdate="2014-10-24" incidenttime="18:10:00" incidentnumber="14212305" address="4200 block Murray Ave" type="ARREST" description="*********************************************** &lt;br/&gt;3929, Retail Theft.&lt;br/&gt;"/><marker lat="40.43512391830955" lng="-79.956407352461682" zone="Zone 4" incidentdate="2014-10-24" incidenttime="18:30:00" incidentnumber="14212310" address="Blvd Of The Allies &amp; Bates St" type="ARREST" description="*********************************************** &lt;br/&gt;5503(a)(1), DISORDERLY CONDUCT - ENGAGE IN FIGHTING&lt;br/&gt;3802(a)(1), DUI - General Impairment&lt;br/&gt;5507, Obstructing Highways and Passages.&lt;br/&gt;"/><marker lat="40.43512391830955" lng="-79.956407352461682" zone="Zone 4" incidentdate="2014-10-24" incidenttime="18:18:00" incidentnumber="14212310" address="Blvd Of The Allies &amp; Bates St" type="OFFENSE" description="*********************************************** &lt;br/&gt;5503(a)(1), DISORDERLY CONDUCT - ENGAGE IN FIGHTING&lt;br/&gt;3802(a)(1), DUI - General Impairment&lt;br/&gt;5507, Obstructing Highways and Passages.&lt;br/&gt;"/><marker lat="40.393375925239674" lng="-79.98892618839875" zone="Zone 3" incidentdate="2014-10-24" incidenttime="19:00:00" incidentnumber="14212319" address="200 block W Woodford Ave" type="OFFENSE" description="*********************************************** &lt;br/&gt;13(a)(32), Paraphernalia - Use or Possession&lt;br/&gt;"/><marker lat="40.393375925239674" lng="-79.98892618839875" zone="Zone 3" incidentdate="2014-10-24" incidenttime="19:00:00" incidentnumber="14212319" address="200 block W Woodford Ave" type="ARREST" description="*********************************************** &lt;br/&gt;13(a)(32), Paraphernalia - Use or Possession&lt;br/&gt;"/><marker lat="40.405934655153253" lng="-79.943182659504586" zone="Zone 4" incidentdate="2014-10-24" incidenttime="18:30:00" incidentnumber="14212321" address="5200 block 2nd Ave" type="OFFENSE" description="*********************************************** &lt;br/&gt;2709(a)(1), Harassment by Physical Contact, or Attempts or Threats&lt;br/&gt;2706, Terroristic Threats.&lt;br/&gt;3304(a)(5), CRIMINAL MISCHIEF - Intentionally Damages Real Or Personal Property Of Another&lt;br/&gt;"/><marker lat="40.453539170738004" lng="-80.000575279128412" zone="Zone 1" incidentdate="2014-10-24" incidenttime="19:08:00" incidentnumber="14212343" address="500 block East Ohio St" type="ARREST" description="*********************************************** &lt;br/&gt;13(a)(16), Possession of Controlled Substance&lt;br/&gt;13(a)(32), Paraphernalia - Use or Possession&lt;br/&gt;"/><marker lat="40.453539170738004" lng="-80.000575279128412" zone="Zone 1" incidentdate="2014-10-24" incidenttime="19:08:00" incidentnumber="14212343" address="500 block East Ohio St" type="OFFENSE" description="*********************************************** &lt;br/&gt;13(a)(16), Possession of Controlled Substance&lt;br/&gt;13(a)(32), Paraphernalia - Use or Possession&lt;br/&gt;"/><marker lat="40.453539170738004" lng="-80.000575279128412" zone="Zone 1" incidentdate="2014-10-24" incidenttime="19:08:00" incidentnumber="14212343" address="500 block East Ohio St" type="ARREST" description="*********************************************** &lt;br/&gt;13(a)(16), Possession of Controlled Substance&lt;br/&gt;13(a)(32), Paraphernalia - Use or Possession&lt;br/&gt;"/><marker lat="40.468693075773288" lng="-79.961677392158549" zone="Zone 2" incidentdate="2014-10-24" incidenttime="18:40:00" incidentnumber="14212347" address="4000 block Butler St" type="ARREST" description="*********************************************** &lt;br/&gt;9093, Indirect Criminal Contempt&lt;br/&gt;"/><marker lat="40.468693075773288" lng="-79.961677392158549" zone="Zone 2" incidentdate="2014-10-24" incidenttime="18:40:00" incidentnumber="14212347" address="4000 block Butler St" type="OFFENSE" description="*********************************************** &lt;br/&gt;9093, Indirect Criminal Contempt&lt;br/&gt;"/><marker lat="40.427040948223102" lng="-80.009163098121036" zone="Zone 3" incidentdate="2014-10-24" incidenttime="19:15:00" incidentnumber="14212350" address="100 block Southern Ave" type="OFFENSE" description="*********************************************** &lt;br/&gt;3304, Criminal Mischief.&lt;br/&gt;3503, Criminal Trespass&lt;br/&gt;"/><marker lat="40.479352654166718" lng="-79.944040142898416" zone="Zone 5" incidentdate="2014-10-24" incidenttime="19:00:00" incidentnumber="14212377" address="1100 block Woodbine St" type="OFFENSE" description="*********************************************** &lt;br/&gt;3745, Accidents Involving Damage to Unattended Veh.or Prop.&lt;br/&gt;"/><marker lat="40.388733210501954" lng="-79.995146078874541" zone="Zone 3" incidentdate="2014-10-24" incidenttime="19:55:00" incidentnumber="14212378" address="2200 block Fairland St" type="OFFENSE" description="*********************************************** &lt;br/&gt;2701, Simple Assault.&lt;br/&gt;"/><marker lat="40.388733210501954" lng="-79.995146078874541" zone="Zone 3" incidentdate="2014-10-24" incidenttime="20:34:00" incidentnumber="14212378" address="2200 block Fairland St" type="ARREST" description="*********************************************** &lt;br/&gt;2701, Simple Assault.&lt;br/&gt;"/><marker lat="40.443168411657261" lng="-79.980827943344735" zone="Zone 2" incidentdate="2014-10-24" incidenttime="19:40:00" incidentnumber="14212380" address="1900 block Centre Ave" type="OFFENSE" description="*********************************************** &lt;br/&gt;2709(a)(1), Harassment by Physical Contact, or Attempts or Threats&lt;br/&gt;"/><marker lat="40.473349600095005" lng="-80.002822219962013" zone="Zone 1" incidentdate="2014-10-24" incidenttime="20:00:00" incidentnumber="14212384" address="100 block Penfort St" type="OFFENSE" description="*********************************************** &lt;br/&gt;3502, Burglary.&lt;br/&gt;3921(a), Theft by Unlawful Taking or Disposition - Movable item&lt;br/&gt;"/><marker lat="40.40110054033066" lng="-80.031982060325376" zone="Zone 6" incidentdate="2014-10-24" incidenttime="21:00:00" incidentnumber="14212417" address="2300 block Broadway Ave" type="OFFENSE" description="*********************************************** &lt;br/&gt;5505, Public Drunkenness&lt;br/&gt;"/><marker lat="40.443042450061832" lng="-80.025185564447753" zone="Zone 3" incidentdate="2014-10-24" incidenttime="22:00:00" incidentnumber="14212459" address="W Carson St &amp; Musk Way" type="OFFENSE" description="*********************************************** &lt;br/&gt;3743, Accidents Involving Damage to Attended Veh. or Property&lt;br/&gt;"/><marker lat="40.448542345417813" lng="-79.939208155557424" zone="Zone 4" incidentdate="2014-10-24" incidenttime="15:22:00" incidentnumber="14212917" address="5100 block Westminster Pl" type="OFFENSE" description="*********************************************** &lt;br/&gt;9018, Accidental Fire&lt;br/&gt;"/></markers>
