<?xml version="1.0"?>
<markers><marker lat="40.434871188702438" lng="-79.912769842083009" zone="Zone 4" incidentdate="2015-02-13" incidenttime="19:20:00" incidentnumber="15026408" address="2200 block Beechwood Blvd" type="OFFENSE" age="" gender="" description="*********************************************** &lt;br/&gt;3502, Burglary.&lt;br/&gt;"/><marker lat="40.446263051038443" lng="-80.012336576772157" zone="Zone 2" incidentdate="2015-02-13" incidenttime="23:41:00" incidentnumber="15026571" address="400 block North Shore Dr" type="OFFENSE" age="" gender="" description="*********************************************** &lt;br/&gt;2701, Simple Assault.&lt;br/&gt;5104, Resisting Arrest or Other Law Enforcement.&lt;br/&gt;5503(a)(3), DISORDERLY CONDUCT - OBSCENE LANG/GEST&lt;br/&gt;5505, Public Drunkenness&lt;br/&gt;3503(b)(1)(ii), Defiant Trespass Notice Posted by Sign(s)&lt;br/&gt;"/><marker lat="40.472866452963352" lng="-79.930425366944149" zone="Zone 5" incidentdate="2015-02-13" incidenttime="09:57:00" incidentnumber="15026128" address="5400 block Stanton Ave" type="OFFENSE" age="" gender="" description="*********************************************** &lt;br/&gt;4120, Identity Theft&lt;br/&gt;"/><marker lat="40.449656789173943" lng="-79.98568934896069" zone="Zone 2" incidentdate="2015-02-13" incidenttime="16:45:00" incidentnumber="15026316" address="1700 block Penn Ave" type="OFFENSE" age="" gender="" description="*********************************************** &lt;br/&gt;2702, Aggravated Assault.&lt;br/&gt;2701, Simple Assault.&lt;br/&gt;5104, Resisting Arrest or Other Law Enforcement.&lt;br/&gt;3929, Retail Theft.&lt;br/&gt;"/><marker lat="40.441650742650353" lng="-79.999451753561061" zone="Zone 2" incidentdate="2015-02-13" incidenttime="18:16:00" incidentnumber="15026373" address="300 block 6th Ave" type="OFFENSE" age="" gender="" description="*********************************************** &lt;br/&gt;3929, Retail Theft.&lt;br/&gt;"/><marker lat="40.456089680948615" lng="-79.954401920874162" zone="Zone 4" incidentdate="2015-02-13" incidenttime="18:08:00" incidentnumber="15026369" address="500 block N Craig St" type="OFFENSE" age="" gender="" description="*********************************************** &lt;br/&gt;9999, 9999 - (Misc. Incident):&lt;br/&gt;"/><marker lat="40.483041135050279" lng="-80.003896194315018" zone="Zone 1" incidentdate="2015-02-13" incidenttime="09:59:00" incidentnumber="15026129" address="300 block Mt Pleasant Rd" type="OFFENSE" age="" gender="" description="*********************************************** &lt;br/&gt;029, Missing Juvenile&lt;br/&gt;"/><marker lat="40.433891542802876" lng="-79.960377840951992" zone="Zone 4" incidentdate="2015-02-13" incidenttime="02:00:00" incidentnumber="15026173" address="3200 block Niagara St" type="OFFENSE" age="" gender="" description="*********************************************** &lt;br/&gt;3921(a), Theft by Unlawful Taking or Disposition - Movable item&lt;br/&gt;"/><marker lat="40.41136888220619" lng="-79.990299456571108" zone="Zone 3" incidentdate="2015-02-13" incidenttime="16:41:00" incidentnumber="15026315" address="200 block Knox Ave" type="OFFENSE" age="" gender="" description="*********************************************** &lt;br/&gt;2701, Simple Assault.&lt;br/&gt;"/><marker lat="40.482879021356389" lng="-80.04453300763744" zone="Zone 1" incidentdate="2015-02-13" incidenttime="22:40:00" incidentnumber="15026545" address="2000 block Termon Ave" type="OFFENSE" age="" gender="" description="*********************************************** &lt;br/&gt;9490, Missing Persons (18 and Over)&lt;br/&gt;"/><marker lat="40.45235120150376" lng="-79.960240045529005" zone="Zone 2" incidentdate="2015-02-13" incidenttime="00:45:00" incidentnumber="15026008" address="800 block Bryn Mawr Rd" type="OFFENSE" age="" gender="" description="*********************************************** &lt;br/&gt;2707.1, Discharge of a Firearm into Occupied Structure&lt;br/&gt;"/><marker lat="40.455236857362699" lng="-79.88335604597026" zone="Zone 5" incidentdate="2015-02-13" incidenttime="02:45:00" incidentnumber="15026023" address="8100 block frankstown Ave" type="OFFENSE" age="" gender="" description="*********************************************** &lt;br/&gt;3502, Burglary.&lt;br/&gt;2705, Recklessly Endangering Another Person.&lt;br/&gt;2701(a)(1), Simple Assault - Intent., Know., Reckless.Cause Bod. Injury&lt;br/&gt;"/><marker lat="40.454100381964004" lng="-79.890743749001061" zone="Zone 5" incidentdate="2015-02-13" incidenttime="17:45:00" incidentnumber="15026323" address="Kelly St &amp; N Braddock Ave" type="OFFENSE" age="" gender="" description="*********************************************** &lt;br/&gt;3733, Fleeing or Attempting to Elude Police Officer&lt;br/&gt;3323, Stop Signs and Yield Signs.&lt;br/&gt;2705, Recklessly Endangering Another Person.&lt;br/&gt;4303, General Lighting Requirements.&lt;br/&gt;3736, Reckless Driving&lt;br/&gt;3112, Traffic-Control Signals.&lt;br/&gt;"/><marker lat="40.443124638792263" lng="-80.039723473600304" zone="Zone 6" incidentdate="2015-02-13" incidenttime="16:59:00" incidentnumber="15026326" address="Chartiers Ave &amp; Marlow St" type="OFFENSE" age="" gender="" description="*********************************************** &lt;br/&gt;13(a)(31), Marijuana: Possession Small Amount&lt;br/&gt;1543, Driving While Operating Privilege is Suspended or Revoked.&lt;br/&gt;1786, Required Financial Responsibility.&lt;br/&gt;"/><marker lat="40.45150414994125" lng="-79.960905102139975" zone="Zone 2" incidentdate="2015-02-13" incidenttime="00:37:00" incidentnumber="15025970" address="Lyon St &amp; Cherokee St" type="OFFENSE" age="" gender="" description="*********************************************** &lt;br/&gt;3304, Criminal Mischief.&lt;br/&gt;"/><marker lat="40.452042212663898" lng="-80.008738896002342" zone="Zone 1" incidentdate="2015-02-13" incidenttime="20:15:00" incidentnumber="15026452" address="200 block Ridge Ave" type="OFFENSE" age="" gender="" description="*********************************************** &lt;br/&gt;029, Missing Juvenile&lt;br/&gt;"/><marker lat="40.440854398416135" lng="-79.968977705949641" zone="Zone 2" incidentdate="2015-02-13" incidenttime="13:55:00" incidentnumber="15026226" address="3000 block Terrace St" type="OFFENSE" age="" gender="" description="*********************************************** &lt;br/&gt;9488, False  Burglar Alarm&lt;br/&gt;"/><marker lat="40.454629437176571" lng="-79.878965579763133" zone="Zone 5" incidentdate="2015-02-13" incidenttime="01:52:00" incidentnumber="15026004" address="8300 block Bricelyn St" type="OFFENSE" age="" gender="" description="*********************************************** &lt;br/&gt;9018, Accidental Fire&lt;br/&gt;"/><marker lat="40.440372470342737" lng="-79.970606724756124" zone="Zone 2" incidentdate="2015-02-13" incidenttime="15:40:00" incidentnumber="15026325" address="300 block Burrows St" type="OFFENSE" age="" gender="" description="*********************************************** &lt;br/&gt;2701, Simple Assault.&lt;br/&gt;2709(a), Harassment.&lt;br/&gt;"/><marker lat="40.459140651815062" lng="-79.921714693020988" zone="Zone 4" incidentdate="2015-02-13" incidenttime="13:00:00" incidentnumber="15026211" address="6300 block Shakespeare St" type="OFFENSE" age="" gender="" description="*********************************************** &lt;br/&gt;3929, Retail Theft.&lt;br/&gt;"/><marker lat="40.493797408762184" lng="-80.022136820282199" zone="Zone 1" incidentdate="2015-02-13" incidenttime="17:45:00" incidentnumber="15026335" address="1600 block Perrysville Ave" type="OFFENSE" age="" gender="" description="*********************************************** &lt;br/&gt;9999, 9999 - (Misc. Incident):&lt;br/&gt;"/><marker lat="40.440670620036947" lng="-80.000370076304534" zone="Zone 2" incidentdate="2015-02-13" incidenttime="11:12:00" incidentnumber="15026147" address="300 block 5th Ave" type="OFFENSE" age="" gender="" description="*********************************************** &lt;br/&gt;9488, False  Burglar Alarm&lt;br/&gt;"/><marker lat="40.487823540011732" lng="-79.897614208935366" zone="Zone 5" incidentdate="2015-02-13" incidenttime="23:59:00" incidentnumber="15026569" address="800 block Freeport Rd" type="OFFENSE" age="" gender="" description="*********************************************** &lt;br/&gt;9999, 9999 - (Misc. Incident):&lt;br/&gt;"/><marker lat="40.404939361855945" lng="-79.990899233620965" zone="Zone 3" incidentdate="2015-02-13" incidenttime="12:30:00" incidentnumber="15026279" address="1100 block Brownsville Rd" type="OFFENSE" age="" gender="" description="*********************************************** &lt;br/&gt;3929, Retail Theft.&lt;br/&gt;"/><marker lat="40.484550069346753" lng="-80.035692783449747" zone="Zone 1" incidentdate="2015-02-13" incidenttime="11:00:00" incidentnumber="15026143" address="3800 block Brighton Rd" type="OFFENSE" age="" gender="" description="*********************************************** &lt;br/&gt;029, Missing Juvenile&lt;br/&gt;"/><marker lat="40.444440081439133" lng="-79.948654281850196" zone="Zone 4" incidentdate="2015-02-13" incidenttime="13:35:00" incidentnumber="15026277" address="Forbes Ave &amp; S Craig St" type="OFFENSE" age="" gender="" description="*********************************************** &lt;br/&gt;3743, Accidents Involving Damage to Attended Veh. or Property&lt;br/&gt;"/><marker lat="40.458419043971773" lng="-79.901059589332277" zone="Zone 5" incidentdate="2015-02-13" incidenttime="03:12:00" incidentnumber="15026030" address="7000 block Frankstown Ave" type="OFFENSE" age="" gender="" description="*********************************************** &lt;br/&gt;3502, Burglary.&lt;br/&gt;"/><marker lat="40.44409702483955" lng="-80.029427993025735" zone="Zone 6" incidentdate="2015-02-13" incidenttime="23:10:00" incidentnumber="15026557" address="Saw Mill Run Blvd &amp; Steuben St" type="OFFENSE" age="" gender="" description="*********************************************** &lt;br/&gt;9999, 9999 - (Misc. Incident):&lt;br/&gt;"/><marker lat="40.456542939615126" lng="-79.887664136937502" zone="Zone 5" incidentdate="2015-02-13" incidenttime="16:20:00" incidentnumber="15026298" address="1000 block Brushton Ave" type="OFFENSE" age="" gender="" description="*********************************************** &lt;br/&gt;2709(a)(1), Harassment by Physical Contact, or Attempts or Threats&lt;br/&gt;"/><marker lat="40.457344170172668" lng="-80.02945243734797" zone="Zone 1" incidentdate="2015-02-13" incidenttime="02:12:00" incidentnumber="15026017" address="Chateau St &amp; Columbus Ave" type="OFFENSE" age="" gender="" description="*********************************************** &lt;br/&gt;3802(a)(1), DUI - General Impairment&lt;br/&gt;"/><marker lat="40.441327020399804" lng="-79.980484441045974" zone="Zone 2" incidentdate="2015-02-13" incidenttime="11:00:00" incidentnumber="15026159" address="300 block Dinwiddie St" type="OFFENSE" age="" gender="" description="*********************************************** &lt;br/&gt;3921(a), Theft by Unlawful Taking or Disposition - Movable item&lt;br/&gt;"/><marker lat="40.456780573102769" lng="-80.065104471534511" zone="Zone 6" incidentdate="2015-02-13" incidenttime="15:45:00" incidentnumber="15026293" address="1200 block Faust St" type="OFFENSE" age="" gender="" description="*********************************************** &lt;br/&gt;3502, Burglary.&lt;br/&gt;"/><marker lat="40.467803714422857" lng="-79.980057846623524" zone="Zone 1" incidentdate="2015-02-13" incidenttime="09:42:00" incidentnumber="15026117" address="1800 block Niggel St" type="OFFENSE" age="" gender="" description="*********************************************** &lt;br/&gt;9488, False  Burglar Alarm&lt;br/&gt;"/><marker lat="40.429319862415177" lng="-79.981997147629315" zone="Zone 3" incidentdate="2015-02-13" incidenttime="23:40:00" incidentnumber="15026573" address="S 17th St &amp; Wrights Way" type="OFFENSE" age="" gender="" description="*********************************************** &lt;br/&gt;5503(a)(3), DISORDERLY CONDUCT - OBSCENE LANG/GEST&lt;br/&gt;"/><marker lat="40.409605683472357" lng="-80.017598181462446" zone="Zone 6" incidentdate="2015-02-13" incidenttime="08:36:00" incidentnumber="15026107" address="1600 block Suburban Ave" type="OFFENSE" age="" gender="" description="*********************************************** &lt;br/&gt;3745, Accidents Involving Damage to Unattended Veh.or Prop.&lt;br/&gt;"/><marker lat="40.42838021085327" lng="-79.982097222120814" zone="Zone 3" incidentdate="2015-02-13" incidenttime="08:00:00" incidentnumber="15026105" address="Carey Way &amp; S 17th St" type="OFFENSE" age="" gender="" description="*********************************************** &lt;br/&gt;3745, Accidents Involving Damage to Unattended Veh.or Prop.&lt;br/&gt;"/><marker lat="40.419341426285385" lng="-79.994266341009507" zone="Zone 3" incidentdate="2015-02-13" incidenttime="20:20:00" incidentnumber="15026541" address="200 block Helen Way" type="OFFENSE" age="" gender="" description="*********************************************** &lt;br/&gt;3502, Burglary.&lt;br/&gt;3701, Robbery.&lt;br/&gt;"/><marker lat="40.459316941946291" lng="-79.937052134891005" zone="Zone 5" incidentdate="2015-02-13" incidenttime="19:08:00" incidentnumber="15026412" address="400 block N Graham St" type="OFFENSE" age="" gender="" description="*********************************************** &lt;br/&gt;3921(a), Theft by Unlawful Taking or Disposition - Movable item&lt;br/&gt;"/><marker lat="40.434035292875286" lng="-79.965263785241575" zone="Zone 4" incidentdate="2015-02-13" incidenttime="17:45:00" incidentnumber="15026353" address="2nd Ave &amp; Technology Center Dr" type="OFFENSE" age="" gender="" description="*********************************************** &lt;br/&gt;3809(a), Restriction on Alcoholic Beverages in Vehicle&lt;br/&gt;3714, Careless Driving&lt;br/&gt;3802(a)(1), DUI - General Impairment&lt;br/&gt;"/><marker lat="40.471005859059538" lng="-80.008598371720396" zone="Zone 1" incidentdate="2015-02-13" incidenttime="11:46:00" incidentnumber="15026165" address="Perrysville Ave &amp; N Charles St" type="OFFENSE" age="" gender="" description="*********************************************** &lt;br/&gt;029, Missing Juvenile&lt;br/&gt;"/><marker lat="40.455853799535539" lng="-79.922435774531493" zone="Zone 4" incidentdate="2015-02-13" incidenttime="17:22:00" incidentnumber="15026336" address="6300 block Walnut St" type="OFFENSE" age="" gender="" description="*********************************************** &lt;br/&gt;9497, Aided Case&lt;br/&gt;"/><marker lat="40.419755416785335" lng="-80.002263610370221" zone="Zone 3" incidentdate="2015-02-13" incidenttime="22:37:00" incidentnumber="15026542" address="300 block Climax St" type="OFFENSE" age="" gender="" description="*********************************************** &lt;br/&gt;029, Missing Juvenile&lt;br/&gt;3921, Theft by Unlawful Taking or Disposition.&lt;br/&gt;"/><marker lat="40.448413339222157" lng="-80.003960216390709" zone="Zone 1" incidentdate="2015-02-13" incidenttime="09:30:00" incidentnumber="15026120" address="200 block federal St" type="OFFENSE" age="" gender="" description="*********************************************** &lt;br/&gt;3934, Theft from Vehicle&lt;br/&gt;"/><marker lat="40.397237987887664" lng="-79.997807913173872" zone="Zone 3" incidentdate="2015-02-13" incidenttime="02:50:00" incidentnumber="15026028" address="1600 block Nobles Ln" type="OFFENSE" age="" gender="" description="*********************************************** &lt;br/&gt;2701, Simple Assault.&lt;br/&gt;"/><marker lat="40.413448852214024" lng="-79.975246055252796" zone="Zone 3" incidentdate="2015-02-13" incidenttime="15:42:00" incidentnumber="15026272" address="1600 block Sterling St" type="OFFENSE" age="" gender="" description="*********************************************** &lt;br/&gt;3502, Burglary.&lt;br/&gt;"/><marker lat="40.464652769441862" lng="-79.962765629875761" zone="Zone 2" incidentdate="2015-02-13" incidenttime="18:27:00" incidentnumber="15026380" address="3700 block Peoria Way" type="OFFENSE" age="" gender="" description="*********************************************** &lt;br/&gt;2701, Simple Assault.&lt;br/&gt;2707, Propulsion of Missiles&lt;br/&gt;"/><marker lat="40.454884367577023" lng="-79.996541075359488" zone="Zone 1" incidentdate="2015-02-13" incidenttime="11:55:00" incidentnumber="15026171" address="800 block Phineas St" type="OFFENSE" age="" gender="" description="*********************************************** &lt;br/&gt;9489, Found Property&lt;br/&gt;"/><marker lat="40.452042212663898" lng="-80.008738896002342" zone="Zone 1" incidentdate="2015-02-13" incidenttime="20:15:00" incidentnumber="15026464" address="200 block Ridge Ave" type="OFFENSE" age="" gender="" description="*********************************************** &lt;br/&gt;029, Missing Juvenile&lt;br/&gt;"/><marker lat="40.382689605941358" lng="-79.984812458579711" zone="Zone 3" incidentdate="2015-02-13" incidenttime="09:00:00" incidentnumber="15026094" address="300 block Sunnyland Ave" type="OFFENSE" age="" gender="" description="*********************************************** &lt;br/&gt;9018, Accidental Fire&lt;br/&gt;"/><marker lat="40.438721756509537" lng="-79.999466085108594" zone="Zone 2" incidentdate="2015-02-13" incidenttime="07:45:00" incidentnumber="15026070" address="400 block Smithfield St" type="OFFENSE" age="" gender="" description="*********************************************** &lt;br/&gt;3921, Theft by Unlawful Taking or Disposition.&lt;br/&gt;"/><marker lat="40.455526459350949" lng="-79.888093103464158" zone="Zone 5" incidentdate="2015-02-13" incidenttime="01:46:00" incidentnumber="15026042" address="Frankstown Ave &amp; Brushton Ave" type="OFFENSE" age="" gender="" description="*********************************************** &lt;br/&gt;2701, Simple Assault.&lt;br/&gt;"/><marker lat="40.455768150040051" lng="-79.965939874539444" zone="Zone 2" incidentdate="2015-02-13" incidenttime="18:50:00" incidentnumber="15026394" address="Bigelow Blvd &amp; Herron Ave" type="OFFENSE" age="" gender="" description="*********************************************** &lt;br/&gt;13(a)(31), Marijuana: Possession Small Amount&lt;br/&gt;3334, Turning Movements and Required Signals.&lt;br/&gt;"/><marker lat="40.463011931512639" lng="-79.930274906509496" zone="Zone 5" incidentdate="2015-02-13" incidenttime="13:16:00" incidentnumber="15026209" address="5600 block Penn Ave" type="OFFENSE" age="" gender="" description="*********************************************** &lt;br/&gt;2709, Harassment (Non-Specific)&lt;br/&gt;"/><marker lat="40.454837687599735" lng="-79.890318198845179" zone="Zone 5" incidentdate="2015-02-13" incidenttime="09:00:00" incidentnumber="15026360" address="7600 block Bennett St" type="OFFENSE" age="" gender="" description="*********************************************** &lt;br/&gt;3304, Criminal Mischief.&lt;br/&gt;"/><marker lat="40.402714750647654" lng="-79.994018520375135" zone="Zone 3" incidentdate="2015-02-13" incidenttime="15:50:00" incidentnumber="15026281" address="200 block Nobles Ln" type="OFFENSE" age="" gender="" description="*********************************************** &lt;br/&gt;9123, Miscellaneous Fire Other Investigation to Continue&lt;br/&gt;"/><marker lat="40.422435853658691" lng="-79.920374884838978" zone="Zone 4" incidentdate="2015-02-13" incidenttime="14:00:00" incidentnumber="15026275" address="6600 block Rosemoor St" type="OFFENSE" age="" gender="" description="*********************************************** &lt;br/&gt;9999, 9999 - (Misc. Incident):&lt;br/&gt;"/><marker lat="40.447408582510299" lng="-79.938268306884581" zone="Zone 4" incidentdate="2015-02-13" incidenttime="15:25:00" incidentnumber="15026267" address="5100 block 5th Ave" type="OFFENSE" age="" gender="" description="*********************************************** &lt;br/&gt;3921(a), Theft by Unlawful Taking or Disposition - Movable item&lt;br/&gt;"/><marker lat="40.470071982498879" lng="-79.897110271835317" zone="Zone 5" incidentdate="2015-02-13" incidenttime="13:50:00" incidentnumber="15026228" address="Lemington Ave &amp; Paulson Ave" type="OFFENSE" age="" gender="" description="*********************************************** &lt;br/&gt;13(a)(31), Marijuana: Possession Small Amount&lt;br/&gt;3334, Turning Movements and Required Signals.&lt;br/&gt;1543, Driving While Operating Privilege is Suspended or Revoked.&lt;br/&gt;13(a)(16), Possession of Controlled Substance&lt;br/&gt;"/><marker lat="40.459345375905905" lng="-80.077671252148548" zone="Zone 6" incidentdate="2015-02-13" incidenttime="19:59:00" incidentnumber="15026430" address="Wind Gap Ave &amp; Chartiers Ave" type="OFFENSE" age="" gender="" description="*********************************************** &lt;br/&gt;9129, Miscellaneous Investigation&lt;br/&gt;"/><marker lat="40.465855745524813" lng="-79.988386391212202" zone="Zone 1" incidentdate="2015-02-13" incidenttime="23:48:00" incidentnumber="15026556" address="1900 block Bader St" type="OFFENSE" age="" gender="" description="*********************************************** &lt;br/&gt;9498, 302 (Mental)&lt;br/&gt;"/><marker lat="40.468856874332225" lng="-79.96689737042675" zone="Zone 2" incidentdate="2015-02-13" incidenttime="16:37:00" incidentnumber="15026356" address="38th St" type="OFFENSE" age="" gender="" description="*********************************************** &lt;br/&gt;2706, Terroristic Threats.&lt;br/&gt;2709(a)(4), Harassment Communicates Prohibited Acts&lt;br/&gt;"/><marker lat="40.449656789173943" lng="-79.98568934896069" zone="Zone 2" incidentdate="2015-02-13" incidenttime="16:45:00" incidentnumber="15026316" address="1700 block Penn Ave" type="ARREST" age="" gender="M" description="*********************************************** &lt;br/&gt;2702, Aggravated Assault.&lt;br/&gt;2701, Simple Assault.&lt;br/&gt;5104, Resisting Arrest or Other Law Enforcement.&lt;br/&gt;3929, Retail Theft.&lt;br/&gt;"/><marker lat="40.454100381964004" lng="-79.890743749001061" zone="Zone 5" incidentdate="2015-02-13" incidenttime="17:00:00" incidentnumber="15026323" address="Kelly St &amp; N Braddock Ave" type="ARREST" age="19" gender="M" description="*********************************************** &lt;br/&gt;3733, Fleeing or Attempting to Elude Police Officer&lt;br/&gt;3323, Stop Signs and Yield Signs.&lt;br/&gt;2705, Recklessly Endangering Another Person.&lt;br/&gt;4303, General Lighting Requirements.&lt;br/&gt;3736, Reckless Driving&lt;br/&gt;3112, Traffic-Control Signals.&lt;br/&gt;"/><marker lat="40.455768150040051" lng="-79.965939874539444" zone="Zone 2" incidentdate="2015-02-13" incidenttime="18:43:00" incidentnumber="15026394" address="Bigelow Blvd &amp; Herron Ave" type="ARREST" age="27" gender="M" description="*********************************************** &lt;br/&gt;13(a)(31), Marijuana: Possession Small Amount&lt;br/&gt;3334, Turning Movements and Required Signals.&lt;br/&gt;"/><marker lat="40.441650742650353" lng="-79.999451753561061" zone="Zone 2" incidentdate="2015-02-13" incidenttime="18:16:00" incidentnumber="15026373" address="300 block 6th Ave" type="ARREST" age="25" gender="M" description="*********************************************** &lt;br/&gt;3929, Retail Theft.&lt;br/&gt;"/><marker lat="40.447791383449896" lng="-80.003763673123132" zone="Zone 1" incidentdate="2015-02-13" incidenttime="21:50:00" incidentnumber="14165993" address="100 block Federal St S" type="ARREST" age="47" gender="M" description="*********************************************** &lt;br/&gt;3921, Theft by Unlawful Taking or Disposition.&lt;br/&gt;"/><marker lat="40.438091155451616" lng="-80.001853342344887" zone="Zone 2" incidentdate="2015-02-13" incidenttime="16:00:00" incidentnumber="14166985" address="300 block Blvd Of The Allies" type="ARREST" age="23" gender="M" description="*********************************************** &lt;br/&gt;13(a)(16), Possession of Controlled Substance&lt;br/&gt;5123, Contraband.&lt;br/&gt;5121, Escape.&lt;br/&gt;"/><marker lat="40.455994106926163" lng="-79.880705918032348" zone="Zone 5" incidentdate="2015-02-13" incidenttime="01:07:00" incidentnumber="15025955" address="1000 block Silverdale St" type="ARREST" age="15" gender="M" description="*********************************************** &lt;br/&gt;3702, Robbery of Motor Vehicle.&lt;br/&gt;13(a)(31), Marijuana: Possession Small Amount&lt;br/&gt;6106, Firearms not to be Carried without a License.&lt;br/&gt;6110.1, Possesion of Firearm by Minor&lt;br/&gt;"/><marker lat="40.459140651815062" lng="-79.921714693020988" zone="Zone 4" incidentdate="2015-02-13" incidenttime="13:00:00" incidentnumber="15026211" address="6300 block Shakespeare St" type="ARREST" age="23" gender="F" description="*********************************************** &lt;br/&gt;3929, Retail Theft.&lt;br/&gt;"/><marker lat="40.470071982498879" lng="-79.897110271835317" zone="Zone 5" incidentdate="2015-02-13" incidenttime="13:50:00" incidentnumber="15026228" address="Lemington Ave &amp; Paulson Ave" type="ARREST" age="22" gender="M" description="*********************************************** &lt;br/&gt;13(a)(31), Marijuana: Possession Small Amount&lt;br/&gt;3334, Turning Movements and Required Signals.&lt;br/&gt;1543, Driving While Operating Privilege is Suspended or Revoked.&lt;br/&gt;13(a)(16), Possession of Controlled Substance&lt;br/&gt;"/><marker lat="40.446263051038443" lng="-80.012336576772157" zone="Zone 2" incidentdate="2015-02-13" incidenttime="23:41:00" incidentnumber="15026571" address="400 block North Shore Dr" type="ARREST" age="" gender="F" description="*********************************************** &lt;br/&gt;2701, Simple Assault.&lt;br/&gt;5104, Resisting Arrest or Other Law Enforcement.&lt;br/&gt;5503(a)(3), DISORDERLY CONDUCT - OBSCENE LANG/GEST&lt;br/&gt;5505, Public Drunkenness&lt;br/&gt;3503(b)(1)(ii), Defiant Trespass Notice Posted by Sign(s)&lt;br/&gt;"/><marker lat="40.41136888220619" lng="-79.990299456571108" zone="Zone 3" incidentdate="2015-02-13" incidenttime="16:57:00" incidentnumber="15026315" address="200 block Knox Ave" type="ARREST" age="50" gender="F" description="*********************************************** &lt;br/&gt;2701, Simple Assault.&lt;br/&gt;"/><marker lat="40.421601621830511" lng="-79.929998677898183" zone="Zone 4" incidentdate="2015-02-13" incidenttime="12:35:00" incidentnumber="14190691" address="1100 block Greenfield Ave" type="ARREST" age="28" gender="M" description="*********************************************** &lt;br/&gt;5503(a)(4), DISORDERLY CONDUCT - HAZARDOUS/PHYS. OFF&lt;br/&gt;5505, Public Drunkenness&lt;br/&gt;"/><marker lat="40.464652769441862" lng="-79.962765629875761" zone="Zone 2" incidentdate="2015-02-13" incidenttime="18:35:00" incidentnumber="15026380" address="3700 block Peoria Way" type="ARREST" age="29" gender="M" description="*********************************************** &lt;br/&gt;2701, Simple Assault.&lt;br/&gt;2707, Propulsion of Missiles&lt;br/&gt;"/><marker lat="40.434035292875286" lng="-79.965263785241575" zone="Zone 4" incidentdate="2015-02-13" incidenttime="17:41:00" incidentnumber="15026353" address="2nd Ave &amp; Technology Center Dr" type="ARREST" age="39" gender="M" description="*********************************************** &lt;br/&gt;3809(a), Restriction on Alcoholic Beverages in Vehicle&lt;br/&gt;3714, Careless Driving&lt;br/&gt;3802(a)(1), DUI - General Impairment&lt;br/&gt;"/><marker lat="40.465757913835297" lng="-79.929035730197427" zone="Zone 5" incidentdate="2015-02-13" incidenttime="13:00:00" incidentnumber="13008131" address="300 block N Negley Ave" type="ARREST" age="20" gender="M" description="*********************************************** &lt;br/&gt;2501, Criminal Homicide.&lt;br/&gt;"/><marker lat="40.455236857362699" lng="-79.88335604597026" zone="Zone 5" incidentdate="2015-02-13" incidenttime="02:57:00" incidentnumber="15026023" address="8100 block frankstown Ave" type="ARREST" age="49" gender="F" description="*********************************************** &lt;br/&gt;3502, Burglary.&lt;br/&gt;2705, Recklessly Endangering Another Person.&lt;br/&gt;2701(a)(1), Simple Assault - Intent., Know., Reckless.Cause Bod. Injury&lt;br/&gt;"/><marker lat="40.457708930211595" lng="-79.935327377456005" zone="Zone 5" incidentdate="2015-02-13" incidenttime="11:50:00" incidentnumber="15015731" address="5600 block Baum Blvd" type="ARREST" age="26" gender="F" description="*********************************************** &lt;br/&gt;3929, Retail Theft.&lt;br/&gt;"/><marker lat="40.443124638792263" lng="-80.039723473600304" zone="Zone 6" incidentdate="2015-02-13" incidenttime="17:10:00" incidentnumber="15026326" address="Chartiers Ave &amp; Marlow St" type="ARREST" age="35" gender="F" description="*********************************************** &lt;br/&gt;13(a)(31), Marijuana: Possession Small Amount&lt;br/&gt;1543, Driving While Operating Privilege is Suspended or Revoked.&lt;br/&gt;1786, Required Financial Responsibility.&lt;br/&gt;"/><marker lat="40.457344170172668" lng="-80.02945243734797" zone="Zone 1" incidentdate="2015-02-13" incidenttime="02:20:00" incidentnumber="15026017" address="Chateau St &amp; Columbus Ave" type="ARREST" age="25" gender="F" description="*********************************************** &lt;br/&gt;3802(a)(1), DUI - General Impairment&lt;br/&gt;"/></markers>
