<?xml version="1.0"?>
<markers><marker lat="40.42177365594258" lng="-80.002467499703357" zone="Zone 3" incidentdate="2015-04-03" incidenttime="15:13:00" incidentnumber="15057502" address="Kingsboro St &amp; Haberman Ave" type="OFFENSE" age="" gender="" description="*********************************************** &lt;br/&gt;9501, Bench Warrant&lt;br/&gt;13(a)(16), Possession of Controlled Substance&lt;br/&gt;13(a)(32), Paraphernalia - Use or Possession&lt;br/&gt;"/><marker lat="40.429941938849275" lng="-79.977508178280218" zone="Zone 3" incidentdate="2015-04-03" incidenttime="06:30:00" incidentnumber="15057255" address="Fox Way &amp; S 20th St" type="OFFENSE" age="" gender="" description="*********************************************** &lt;br/&gt;9489, Found Property&lt;br/&gt;"/><marker lat="40.398956844246733" lng="-79.834462292848286" zone="Zone 4" incidentdate="2015-04-03" incidenttime="20:54:00" incidentnumber="15057712" address="700 block S Braddock Ave" type="OFFENSE" age="" gender="" description="*********************************************** &lt;br/&gt;9488, False  Burglar Alarm&lt;br/&gt;"/><marker lat="40.440264464999863" lng="-79.957440502627435" zone="Zone 4" incidentdate="2015-04-03" incidenttime="18:03:00" incidentnumber="15057604" address="3600 block Forbes Ave" type="OFFENSE" age="" gender="" description="*********************************************** &lt;br/&gt;3921, Theft by Unlawful Taking or Disposition.&lt;br/&gt;"/><marker lat="40.481450437206419" lng="-79.936807497876515" zone="Zone 5" incidentdate="2015-04-03" incidenttime="18:34:00" incidentnumber="15057602" address="1300 block Hawthorne St" type="OFFENSE" age="" gender="" description="*********************************************** &lt;br/&gt;2709(a)(5), Harassment Communicates Repeatedly in Anonymous Manner&lt;br/&gt;"/><marker lat="40.406816058417306" lng="-80.03436582726296" zone="Zone 6" incidentdate="2015-04-03" incidenttime="18:18:00" incidentnumber="15057611" address="2500 block Banksville Rd" type="OFFENSE" age="" gender="" description="*********************************************** &lt;br/&gt;3929, Retail Theft.&lt;br/&gt;"/><marker lat="40.445899647320729" lng="-80.007014164313887" zone="Zone 1" incidentdate="2015-04-03" incidenttime="18:30:00" incidentnumber="15057581" address="100 block Mazeroski Way" type="OFFENSE" age="" gender="" description="*********************************************** &lt;br/&gt;8104, CLASS 1 - Suspicious Package or Device&lt;br/&gt;"/><marker lat="40.44956618746032" lng="-79.987646691015016" zone="Zone 2" incidentdate="2015-04-03" incidenttime="01:00:00" incidentnumber="15057167" address="1600 block Smallman St" type="OFFENSE" age="" gender="" description="*********************************************** &lt;br/&gt;3503(b)(1)(i), Actual Communication&lt;br/&gt;"/><marker lat="40.453360717234645" lng="-80.003927241484959" zone="Zone 1" incidentdate="2015-04-03" incidenttime="07:30:00" incidentnumber="15057295" address="Allegheny Sq E" type="OFFENSE" age="" gender="" description="*********************************************** &lt;br/&gt;3934, Theft from Vehicle&lt;br/&gt;3304, Criminal Mischief.&lt;br/&gt;"/><marker lat="40.462441300535403" lng="-80.008254903140497" zone="Zone 1" incidentdate="2015-04-03" incidenttime="20:45:00" incidentnumber="15057706" address="Mercy St &amp; Letsche St" type="OFFENSE" age="" gender="" description="*********************************************** &lt;br/&gt;13(a)(31), Marijuana: Possession Small Amount&lt;br/&gt;3334, Turning Movements and Required Signals.&lt;br/&gt;3323, Stop Signs and Yield Signs.&lt;br/&gt;"/><marker lat="40.392151813335147" lng="-80.013062703700243" zone="Zone 6" incidentdate="2015-04-03" incidenttime="06:00:00" incidentnumber="15057594" address="1200 block Bellaire Pl" type="OFFENSE" age="" gender="" description="*********************************************** &lt;br/&gt;3745, Accidents Involving Damage to Unattended Veh.or Prop.&lt;br/&gt;"/><marker lat="40.477787069932234" lng="-80.029068922201432" zone="Zone 1" incidentdate="2015-04-03" incidenttime="16:44:00" incidentnumber="15057548" address="1100 block Woods Run Ave" type="OFFENSE" age="" gender="" description="*********************************************** &lt;br/&gt;2701, Simple Assault.&lt;br/&gt;"/><marker lat="40.45493173032483" lng="-80.010796490212854" zone="Zone 5" incidentdate="2015-04-03" incidenttime="02:49:00" incidentnumber="15057213" address="400 block N Euclid Ave" type="OFFENSE" age="" gender="" description="*********************************************** &lt;br/&gt;13(a)(16), Possession of Controlled Substance&lt;br/&gt;1543, Driving While Operating Privilege is Suspended or Revoked.&lt;br/&gt;3334, Turning Movements and Required Signals.&lt;br/&gt;13(a)(32), Paraphernalia - Use or Possession&lt;br/&gt;"/><marker lat="40.466102480510159" lng="-80.011614114849039" zone="Zone 1" incidentdate="2015-04-03" incidenttime="20:50:00" incidentnumber="15057696" address="Perrysville Ave &amp; Cutler St" type="OFFENSE" age="" gender="" description="*********************************************** &lt;br/&gt;13(a)(31), Marijuana: Possession Small Amount&lt;br/&gt;3323, Stop Signs and Yield Signs.&lt;br/&gt;"/><marker lat="40.417254023346729" lng="-79.971242787779815" zone="Zone 3" incidentdate="2015-04-03" incidenttime="22:59:00" incidentnumber="15057772" address="2500 block Arlington Ave" type="OFFENSE" age="" gender="" description="*********************************************** &lt;br/&gt;2701, Simple Assault.&lt;br/&gt;"/><marker lat="40.445099987229362" lng="-79.999050002208406" zone="Zone 2" incidentdate="2015-04-03" incidenttime="20:30:00" incidentnumber="15057683" address="100 block Ninth St" type="OFFENSE" age="" gender="" description="*********************************************** &lt;br/&gt;9999, 9999 - (Misc. Incident):&lt;br/&gt;"/><marker lat="40.396120546854483" lng="-79.986420691233604" zone="Zone 3" incidentdate="2015-04-03" incidenttime="02:26:00" incidentnumber="15057176" address="100 block Poplargrove St" type="OFFENSE" age="" gender="" description="*********************************************** &lt;br/&gt;9498, 302 (Mental)&lt;br/&gt;"/><marker lat="40.427217307222172" lng="-79.930629967200019" zone="Zone 4" incidentdate="2015-04-03" incidenttime="08:00:00" incidentnumber="15057296" address="1000 block Flemington St" type="OFFENSE" age="" gender="" description="*********************************************** &lt;br/&gt;3921(a), Theft by Unlawful Taking or Disposition - Movable item&lt;br/&gt;"/><marker lat="40.453881093138619" lng="-79.873029877694393" zone="Zone 5" incidentdate="2015-04-03" incidenttime="14:30:00" incidentnumber="15057656" address="2200 block East Hills Dr" type="OFFENSE" age="" gender="" description="*********************************************** &lt;br/&gt;3745, Accidents Involving Damage to Unattended Veh.or Prop.&lt;br/&gt;"/><marker lat="40.383442025938137" lng="-79.97752924291494" zone="Zone 3" incidentdate="2015-04-03" incidenttime="13:20:00" incidentnumber="15057493" address="2800 block Brownsville Rd" type="OFFENSE" age="" gender="" description="*********************************************** &lt;br/&gt;3745, Accidents Involving Damage to Unattended Veh.or Prop.&lt;br/&gt;"/><marker lat="40.41601669526662" lng="-79.97264913314288" zone="Zone 3" incidentdate="2015-04-03" incidenttime="01:41:00" incidentnumber="15057179" address="2400 block Spring St" type="OFFENSE" age="" gender="" description="*********************************************** &lt;br/&gt;2701, Simple Assault.&lt;br/&gt;"/><marker lat="40.450823022455268" lng="-80.023759710456133" zone="Zone 1" incidentdate="2015-04-03" incidenttime="05:04:00" incidentnumber="15057242" address="1300 block Western Ave" type="OFFENSE" age="" gender="" description="*********************************************** &lt;br/&gt;9488, False  Burglar Alarm&lt;br/&gt;"/><marker lat="40.4906627" lng="-80.0322685" zone="Zone 1" incidentdate="2015-04-03" incidenttime="14:48:00" incidentnumber="15057523" address="1000 block Flora St" type="OFFENSE" age="" gender="" description="*********************************************** &lt;br/&gt;9496, Dead on Arrival (DOA)&lt;br/&gt;"/><marker lat="40.4208061" lng="-79.9937105" zone="Zone 3" incidentdate="2015-04-03" incidenttime="21:35:00" incidentnumber="15057730" address="800 block Industry St" type="OFFENSE" age="" gender="" description="*********************************************** &lt;br/&gt;6106, Firearms not to be Carried without a License.&lt;br/&gt;4303, General Lighting Requirements.&lt;br/&gt;1543, Driving While Operating Privilege is Suspended or Revoked.&lt;br/&gt;"/><marker lat="40.438943794278437" lng="-79.956702987700893" zone="Zone 4" incidentdate="2015-04-03" incidenttime="02:05:00" incidentnumber="15057191" address="300 block Meyran Ave" type="OFFENSE" age="" gender="" description="*********************************************** &lt;br/&gt;5506, Loitering and Prowling at Night&lt;br/&gt;5505, Public Drunkenness&lt;br/&gt;"/><marker lat="40.428814179717264" lng="-80.024291780088404" zone="Zone 3" incidentdate="2015-04-03" incidenttime="16:00:00" incidentnumber="15057530" address="800 block Saw Mill Run Blvd" type="OFFENSE" age="" gender="" description="*********************************************** &lt;br/&gt;3934, Theft from Vehicle&lt;br/&gt;"/><marker lat="40.42004424033162" lng="-79.972349587531838" zone="Zone 3" incidentdate="2015-04-03" incidenttime="23:11:00" incidentnumber="15057769" address="2400 block Cobden St" type="OFFENSE" age="" gender="" description="*********************************************** &lt;br/&gt;2701, Simple Assault.&lt;br/&gt;"/><marker lat="40.456633448414188" lng="-79.936435139782176" zone="Zone 4" incidentdate="2015-04-03" incidenttime="19:15:00" incidentnumber="15057641" address="5500 block Centre Ave" type="OFFENSE" age="" gender="" description="*********************************************** &lt;br/&gt;4105(a)(1), Bad Checks&lt;br/&gt;4101, Forgery.&lt;br/&gt;"/><marker lat="40.45688934517613" lng="-79.938486703499024" zone="Zone 5" incidentdate="2015-04-03" incidenttime="01:13:00" incidentnumber="15057159" address="5400 block Baum Blvd" type="OFFENSE" age="" gender="" description="*********************************************** &lt;br/&gt;3114, Flashing Signals.&lt;br/&gt;3921(a), Theft by Unlawful Taking or Disposition - Movable item&lt;br/&gt;3323, Stop Signs and Yield Signs.&lt;br/&gt;1501, Drivers Required to be Licensed.&lt;br/&gt;3736, Reckless Driving&lt;br/&gt;3925, Receiving Stolen Property.&lt;br/&gt;5104, Resisting Arrest or Other Law Enforcement.&lt;br/&gt;3733, Fleeing or Attempting to Elude Police Officer&lt;br/&gt;3745, Accidents Involving Damage to Unattended Veh.or Prop.&lt;br/&gt;"/><marker lat="40.451773255688295" lng="-80.062222156735217" zone="Zone 6" incidentdate="2015-04-03" incidenttime="21:13:00" incidentnumber="15057721" address="Fadette St &amp; Kelvin St" type="OFFENSE" age="" gender="" description="*********************************************** &lt;br/&gt;3334, Turning Movements and Required Signals.&lt;br/&gt;13(a)(16), Possession of Controlled Substance&lt;br/&gt;5503, Disorderly Conduct.&lt;br/&gt;13(a)(32), Paraphernalia - Use or Possession&lt;br/&gt;"/><marker lat="40.368420779755269" lng="-79.91332917029257" zone="Zone 4" incidentdate="2015-04-03" incidenttime="16:50:00" incidentnumber="15057556" address="1400 block Muldowney Ave" type="OFFENSE" age="" gender="" description="*********************************************** &lt;br/&gt;9496, Dead on Arrival (DOA)&lt;br/&gt;"/><marker lat="40.473064336961379" lng="-79.919546436401845" zone="Zone 5" incidentdate="2015-04-03" incidenttime="08:43:00" incidentnumber="15057304" address="100 block N Highland Ave" type="OFFENSE" age="" gender="" description="*********************************************** &lt;br/&gt;3304(a)(4), CRIMINAL MISCHIEF- Intentionally Damage Property (By Graffiti, Aerosol Spray Paint, Broad Tip Marker, or Similar)&lt;br/&gt;"/><marker lat="40.446263051038443" lng="-80.012336576772157" zone="Zone 1" incidentdate="2015-04-03" incidenttime="08:00:00" incidentnumber="15057232" address="400 block North Shore Dr" type="OFFENSE" age="" gender="" description="*********************************************** &lt;br/&gt;9488, False  Burglar Alarm&lt;br/&gt;"/><marker lat="40.456263809253123" lng="-79.904759424811445" zone="Zone 5" incidentdate="2015-04-03" incidenttime="01:38:00" incidentnumber="15057171" address="N Dallas Ave &amp; Hamilton Ave" type="OFFENSE" age="" gender="" description="*********************************************** &lt;br/&gt;13(a)(16), Possession of Controlled Substance&lt;br/&gt;13(a)(30), Possession w/ Intent to Del. Controlled Substance&lt;br/&gt;"/><marker lat="40.453360717234645" lng="-80.003927241484959" zone="Zone 1" incidentdate="2015-04-03" incidenttime="14:00:00" incidentnumber="15057454" address="Allegheny Sq E" type="OFFENSE" age="" gender="" description="*********************************************** &lt;br/&gt;3304, Criminal Mischief.&lt;br/&gt;3934, Theft from Vehicle&lt;br/&gt;"/><marker lat="40.476520801810004" lng="-80.03006073826711" zone="Zone 1" incidentdate="2015-04-03" incidenttime="02:15:00" incidentnumber="15057203" address="1200 block Woods Run Ave" type="OFFENSE" age="" gender="" description="*********************************************** &lt;br/&gt;2701(b)(1), Simple Assault - Fight or Scuffle Entered by Mutual Consent&lt;br/&gt;"/><marker lat="40.476255316755903" lng="-79.961308802311763" zone="Zone 2" incidentdate="2015-04-03" incidenttime="08:00:00" incidentnumber="15057468" address="100 block 47th St" type="OFFENSE" age="" gender="" description="*********************************************** &lt;br/&gt;9999, 9999 - (Misc. Incident):&lt;br/&gt;"/><marker lat="40.45171070392945" lng="-79.904774636141667" zone="Zone 4" incidentdate="2015-04-03" incidenttime="08:07:00" incidentnumber="15057288" address="200 block N Murtland St" type="OFFENSE" age="" gender="" description="*********************************************** &lt;br/&gt;9999, 9999 - (Misc. Incident):&lt;br/&gt;"/><marker lat="40.473002858991329" lng="-80.03533999410692" zone="Zone 1" incidentdate="2015-04-03" incidenttime="12:00:00" incidentnumber="15057841" address="100 block Lecky Ave" type="OFFENSE" age="" gender="" description="*********************************************** &lt;br/&gt;9999, 9999 - (Misc. Incident):&lt;br/&gt;"/><marker lat="40.465977767331793" lng="-79.999746620137401" zone="Zone 1" incidentdate="2015-04-03" incidenttime="18:00:00" incidentnumber="15057597" address="East St &amp; Royal St" type="OFFENSE" age="" gender="" description="*********************************************** &lt;br/&gt;5902(a)(2), Prostitution - Loitering for purpose of&lt;br/&gt;13(a)(32), Paraphernalia - Use or Possession&lt;br/&gt;5902(a)(1), Prostitution&lt;br/&gt;"/><marker lat="40.411124027831086" lng="-79.979471722977692" zone="Zone 3" incidentdate="2015-04-03" incidenttime="07:00:00" incidentnumber="15057262" address="500 block Fisher St" type="OFFENSE" age="" gender="" description="*********************************************** &lt;br/&gt;13(a)(33), Paraphernalia - Delivery or Intent to Deliver&lt;br/&gt;13(a)(16), Possession of Controlled Substance&lt;br/&gt;7512, Criminal Use of Communication&lt;br/&gt;13(a)(30), Possession w/ Intent to Del. Controlled Substance&lt;br/&gt;908, Prohibited Offensive Weapons.&lt;br/&gt;636.04, Permits Required for Possession of Wild  Animals&lt;br/&gt;"/><marker lat="40.434696587775576" lng="-79.996300985228572" zone="Zone 2" incidentdate="2015-04-03" incidenttime="16:40:00" incidentnumber="15057544" address="600 block 1st Ave" type="OFFENSE" age="" gender="" description="*********************************************** &lt;br/&gt;3743, Accidents Involving Damage to Attended Veh. or Property&lt;br/&gt;3310, Following Too Closely.&lt;br/&gt;"/><marker lat="40.438219522469147" lng="-80.034614263575634" zone="Zone 6" incidentdate="2015-04-03" incidenttime="18:20:00" incidentnumber="15057621" address="100 block Wabash St" type="OFFENSE" age="" gender="" description="*********************************************** &lt;br/&gt;5505, Public Drunkenness&lt;br/&gt;"/><marker lat="40.417182592784442" lng="-79.991048921847749" zone="Zone 3" incidentdate="2015-04-03" incidenttime="16:14:00" incidentnumber="15057517" address="200 block Jucunda St" type="OFFENSE" age="" gender="" description="*********************************************** &lt;br/&gt;2709(a)(1), Harassment by Physical Contact, or Attempts or Threats&lt;br/&gt;"/><marker lat="40.391177102725187" lng="-79.986909728912025" zone="Zone 3" incidentdate="2015-04-03" incidenttime="20:17:00" incidentnumber="15057689" address="2200 block Brownsville Rd" type="OFFENSE" age="" gender="" description="*********************************************** &lt;br/&gt;3503, Criminal Trespass&lt;br/&gt;"/><marker lat="40.459190603440391" lng="-79.927408851895919" zone="Zone 4" incidentdate="2015-04-03" incidenttime="20:24:00" incidentnumber="15057695" address="5900 block Centre Ave" type="OFFENSE" age="" gender="" description="*********************************************** &lt;br/&gt;3929, Retail Theft.&lt;br/&gt;"/><marker lat="40.411241279093652" lng="-80.018370919638599" zone="Zone 6" incidentdate="2015-04-03" incidenttime="05:30:00" incidentnumber="15057692" address="1600 block Orangewood Ave" type="OFFENSE" age="" gender="" description="*********************************************** &lt;br/&gt;3921(a), Theft by Unlawful Taking or Disposition - Movable item&lt;br/&gt;"/><marker lat="40.419990300063475" lng="-79.990524910550519" zone="Zone 3" incidentdate="2015-04-03" incidenttime="21:08:00" incidentnumber="15057716" address="1400 block Arlington Ave" type="OFFENSE" age="" gender="" description="*********************************************** &lt;br/&gt;2709(a)(1), Harassment by Physical Contact, or Attempts or Threats&lt;br/&gt;"/><marker lat="40.461263755824248" lng="-79.946362797859464" zone="Zone 5" incidentdate="2015-04-03" incidenttime="00:25:00" incidentnumber="15057151" address="4800 block Friendship Ave" type="OFFENSE" age="" gender="" description="*********************************************** &lt;br/&gt;3304, Criminal Mischief.&lt;br/&gt;2701, Simple Assault.&lt;br/&gt;"/><marker lat="40.468261793901284" lng="-79.964519546996513" zone="Zone 2" incidentdate="2015-04-03" incidenttime="12:05:00" incidentnumber="15057257" address="100 block 39th St" type="OFFENSE" age="" gender="" description="*********************************************** &lt;br/&gt;13(a)(31), Marijuana: Possession Small Amount&lt;br/&gt;13(a)(16), Possession of Controlled Substance&lt;br/&gt;13(a)(30), Possession w/ Intent to Del. Controlled Substance&lt;br/&gt;13(a)(32), Paraphernalia - Use or Possession&lt;br/&gt;"/><marker lat="40.428606966018023" lng="-79.985175111647919" zone="Zone 3" incidentdate="2015-04-03" incidenttime="00:18:00" incidentnumber="15057142" address="1300 block E Carson St" type="OFFENSE" age="" gender="" description="*********************************************** &lt;br/&gt;2701, Simple Assault.&lt;br/&gt;"/><marker lat="40.421694937869319" lng="-79.983004674521865" zone="Zone 3" incidentdate="2015-04-03" incidenttime="22:25:00" incidentnumber="15057751" address="2400 block S 18th St" type="OFFENSE" age="" gender="" description="*********************************************** &lt;br/&gt;029, Missing Juvenile&lt;br/&gt;"/><marker lat="40.46916501641455" lng="-80.014276930308455" zone="Zone 1" incidentdate="2015-04-03" incidenttime="09:33:00" incidentnumber="15057319" address="2700 block North Charles St" type="OFFENSE" age="" gender="" description="*********************************************** &lt;br/&gt;9488, False  Burglar Alarm&lt;br/&gt;"/><marker lat="40.430719146660898" lng="-80.007572238034967" zone="Zone 3" incidentdate="2015-04-03" incidenttime="22:26:00" incidentnumber="15057762" address="200 block Shiloh St" type="OFFENSE" age="" gender="" description="*********************************************** &lt;br/&gt;13(a)(32), Paraphernalia - Use or Possession&lt;br/&gt;"/><marker lat="40.461858084388979" lng="-79.930838035041617" zone="Zone 5" incidentdate="2015-04-03" incidenttime="17:28:00" incidentnumber="15057576" address="200 block Amber St" type="OFFENSE" age="" gender="" description="*********************************************** &lt;br/&gt;9490, Missing Persons (18 and Over)&lt;br/&gt;"/><marker lat="40.44956618746032" lng="-79.987646691015016" zone="Zone 2" incidentdate="2015-04-03" incidenttime="01:00:00" incidentnumber="15057166" address="1600 block Smallman St" type="OFFENSE" age="" gender="" description="*********************************************** &lt;br/&gt;3503(b)(1)(i), Actual Communication&lt;br/&gt;"/><marker lat="40.456579404557218" lng="-79.997624971607749" zone="Zone 1" incidentdate="2015-04-03" incidenttime="08:40:00" incidentnumber="15057279" address="Tripoli St &amp; Madison Ave" type="OFFENSE" age="" gender="" description="*********************************************** &lt;br/&gt;9501, Bench Warrant&lt;br/&gt;"/><marker lat="40.38940338753342" lng="-80.01736541014921" zone="Zone 6" incidentdate="2015-04-03" incidenttime="14:30:00" incidentnumber="15057748" address="1100 block Woodbourne Ave" type="OFFENSE" age="" gender="" description="*********************************************** &lt;br/&gt;3921, Theft by Unlawful Taking or Disposition.&lt;br/&gt;"/><marker lat="40.430022325897767" lng="-79.975395473021607" zone="Zone 3" incidentdate="2015-04-03" incidenttime="17:50:00" incidentnumber="15057592" address="2100 block Wharton St" type="OFFENSE" age="" gender="" description="*********************************************** &lt;br/&gt;9489, Found Property&lt;br/&gt;"/><marker lat="40.496836028697047" lng="-80.012049907436634" zone="Zone 1" incidentdate="2015-04-03" incidenttime="22:06:00" incidentnumber="15057753" address="4400 block Sovereign St" type="OFFENSE" age="" gender="" description="*********************************************** &lt;br/&gt;2701, Simple Assault.&lt;br/&gt;4952, Intimidation of Witnesses or Victims&lt;br/&gt;2705, Recklessly Endangering Another Person.&lt;br/&gt;"/><marker lat="40.455470090179453" lng="-79.897028104534954" zone="Zone 5" incidentdate="2015-04-03" incidenttime="19:00:00" incidentnumber="15057655" address="7200 block Kelly St" type="OFFENSE" age="" gender="" description="*********************************************** &lt;br/&gt;3745, Accidents Involving Damage to Unattended Veh.or Prop.&lt;br/&gt;"/><marker lat="40.456633448414188" lng="-79.936435139782176" zone="Zone 5" incidentdate="2015-04-03" incidenttime="14:30:00" incidentnumber="15057515" address="5500 block Centre Ave" type="OFFENSE" age="" gender="" description="*********************************************** &lt;br/&gt;13(a)(16), Possession of Controlled Substance&lt;br/&gt;3736, Reckless Driving&lt;br/&gt;3802(d)(2), DUI - Drug - Impaired Ability&lt;br/&gt;13(a)(32), Paraphernalia - Use or Possession&lt;br/&gt;"/><marker lat="40.443580942147605" lng="-79.979979097296493" zone="Zone 2" incidentdate="2015-04-03" incidenttime="06:35:00" incidentnumber="15024790" address="2000 block Centre Ave" type="OFFENSE" age="" gender="" description="*********************************************** &lt;br/&gt;9124, Drug Investigation&lt;br/&gt;"/><marker lat="40.441741853914216" lng="-79.958400701561686" zone="Zone 4" incidentdate="2015-04-03" incidenttime="15:55:00" incidentnumber="15057498" address="3700 block 5th Ave" type="OFFENSE" age="" gender="" description="*********************************************** &lt;br/&gt;4101, Forgery.&lt;br/&gt;3922, Theft by Deception.&lt;br/&gt;907, Possessing Instruments of Crime.&lt;br/&gt;903, Criminal Conspiracy.&lt;br/&gt;4106, Access Device Fraud&lt;br/&gt;901, Criminal Attempt&lt;br/&gt;5104, Resisting Arrest or Other Law Enforcement.&lt;br/&gt;5121, Escape.&lt;br/&gt;4120, Identity Theft&lt;br/&gt;"/><marker lat="40.482572938875684" lng="-79.95085263143055" zone="Zone 2" incidentdate="2015-04-03" incidenttime="16:25:00" incidentnumber="15057513" address="54th St &amp; Dresden Way" type="OFFENSE" age="" gender="" description="*********************************************** &lt;br/&gt;5503, Disorderly Conduct.&lt;br/&gt;"/><marker lat="40.466403724290423" lng="-79.942485078602758" zone="Zone 5" incidentdate="2015-04-03" incidenttime="12:30:00" incidentnumber="15057407" address="5100 block Broad St" type="OFFENSE" age="" gender="" description="*********************************************** &lt;br/&gt;9999, 9999 - (Misc. Incident):&lt;br/&gt;"/><marker lat="40.42836267901361" lng="-79.973607738371669" zone="Zone 2" incidentdate="2015-04-03" incidenttime="00:10:00" incidentnumber="15057139" address="Birmingham Brg &amp; E Carson St" type="OFFENSE" age="" gender="" description="*********************************************** &lt;br/&gt;13(a)(31), Marijuana: Possession Small Amount&lt;br/&gt;1786, Required Financial Responsibility.&lt;br/&gt;1311, Registration Card to be Signed and Exhibited on Demand.&lt;br/&gt;"/><marker lat="40.442273086548795" lng="-80.00411265495255" zone="Zone 2" incidentdate="2015-04-03" incidenttime="20:35:00" incidentnumber="15057701" address="500 block Penn Ave" type="OFFENSE" age="" gender="" description="*********************************************** &lt;br/&gt;5503, Disorderly Conduct.&lt;br/&gt;5505, Public Drunkenness&lt;br/&gt;"/><marker lat="40.420731122796447" lng="-80.000074748049201" zone="Zone 3" incidentdate="2015-04-03" incidenttime="07:15:00" incidentnumber="15057514" address="400 block E Warrington Ave" type="OFFENSE" age="" gender="" description="*********************************************** &lt;br/&gt;3304, Criminal Mischief.&lt;br/&gt;3745, Accidents Involving Damage to Unattended Veh.or Prop.&lt;br/&gt;"/><marker lat="40.454614947288412" lng="-80.014854314791251" zone="Zone 1" incidentdate="2015-04-03" incidenttime="12:10:00" incidentnumber="15057405" address="1200 block Brighton Rd" type="OFFENSE" age="" gender="" description="*********************************************** &lt;br/&gt;903, Criminal Conspiracy.&lt;br/&gt;3929, Retail Theft.&lt;br/&gt;"/><marker lat="40.45483303220221" lng="-79.949415444144947" zone="Zone 5" incidentdate="2015-04-03" incidenttime="13:16:00" incidentnumber="15057431" address="Glenn Way &amp; Enfield St" type="OFFENSE" age="" gender="" description="*********************************************** &lt;br/&gt;3714, Careless Driving&lt;br/&gt;13(a)(16), Possession of Controlled Substance&lt;br/&gt;3802(d)(2), DUI - Drug - Impaired Ability&lt;br/&gt;3743, Accidents Involving Damage to Attended Veh. or Property&lt;br/&gt;"/><marker lat="40.470255659305934" lng="-80.028069313050878" zone="Zone 1" incidentdate="2015-04-03" incidenttime="14:00:00" incidentnumber="15057529" address="1200 block Dickson St" type="OFFENSE" age="" gender="" description="*********************************************** &lt;br/&gt;3304, Criminal Mischief.&lt;br/&gt;"/><marker lat="40.450901096519573" lng="-79.930622154707279" zone="Zone 5" incidentdate="2015-04-03" incidenttime="16:50:00" incidentnumber="15057560" address="900 block N Negley Ave" type="OFFENSE" age="" gender="" description="*********************************************** &lt;br/&gt;029, Missing Juvenile&lt;br/&gt;"/><marker lat="40.468544182260878" lng="-79.966498058151487" zone="Zone 2" incidentdate="2015-04-03" incidenttime="15:00:00" incidentnumber="15057470" address="100 block 38th St" type="OFFENSE" age="" gender="" description="*********************************************** &lt;br/&gt;9489, Found Property&lt;br/&gt;"/><marker lat="40.462766370932492" lng="-79.957250054964803" zone="Zone 5" incidentdate="2015-04-03" incidenttime="18:19:00" incidentnumber="15057612" address="4000 block Liberty Ave" type="OFFENSE" age="" gender="" description="*********************************************** &lt;br/&gt;9489, Found Property&lt;br/&gt;"/><marker lat="40.467585274156875" lng="-80.009893156316821" zone="Zone 1" incidentdate="2015-04-03" incidenttime="03:20:00" incidentnumber="15057221" address="E Burgess St &amp; Perrysville Ave" type="OFFENSE" age="" gender="" description="*********************************************** &lt;br/&gt;3921, Theft by Unlawful Taking or Disposition.&lt;br/&gt;"/><marker lat="40.448037060322477" lng="-80.017825828663618" zone="Zone 1" incidentdate="2015-04-03" incidenttime="08:45:00" incidentnumber="15057301" address="Allegheny Ave &amp; Reedsdale St" type="OFFENSE" age="" gender="" description="*********************************************** &lt;br/&gt;9489, Found Property&lt;br/&gt;"/><marker lat="40.439009711292421" lng="-80.003615340621764" zone="Zone 2" incidentdate="2015-04-03" incidenttime="04:28:00" incidentnumber="15057378" address="200 block Blvd Of The Allies" type="OFFENSE" age="" gender="" description="*********************************************** &lt;br/&gt;2709, Harassment (Non-Specific)&lt;br/&gt;"/><marker lat="40.41050800965386" lng="-80.015926045117055" zone="Zone 6" incidentdate="2015-04-03" incidenttime="05:59:00" incidentnumber="15057266" address="1500 block West Liberty Ave" type="OFFENSE" age="" gender="" description="*********************************************** &lt;br/&gt;3745, Accidents Involving Damage to Unattended Veh.or Prop.&lt;br/&gt;"/><marker lat="40.437228155635516" lng="-80.039662605032134" zone="Zone 6" incidentdate="2015-04-03" incidenttime="19:10:00" incidentnumber="15057636" address="600 block Noblestown Rd" type="OFFENSE" age="" gender="" description="*********************************************** &lt;br/&gt;9999, 9999 - (Misc. Incident):&lt;br/&gt;"/><marker lat="40.428758587531433" lng="-79.980561963586084" zone="Zone 3" incidentdate="2015-04-03" incidenttime="11:30:00" incidentnumber="15057377" address="E Carson St &amp; S 18th St" type="OFFENSE" age="" gender="" description="*********************************************** &lt;br/&gt;9501, Bench Warrant&lt;br/&gt;"/><marker lat="40.419469549820441" lng="-80.004315432837743" zone="Zone 3" incidentdate="2015-04-03" incidenttime="16:35:00" incidentnumber="15057593" address="200 block Climax St" type="OFFENSE" age="" gender="" description="*********************************************** &lt;br/&gt;2709, Harassment (Non-Specific)&lt;br/&gt;"/><marker lat="40.430208650087671" lng="-79.974460898016957" zone="Zone 3" incidentdate="2015-04-03" incidenttime="18:47:00" incidentnumber="15057618" address="Wharton St &amp; S 22nd St" type="OFFENSE" age="" gender="" description="*********************************************** &lt;br/&gt;5505, Public Drunkenness&lt;br/&gt;"/><marker lat="40.454016520179565" lng="-79.895644292400064" zone="Zone 5" incidentdate="2015-04-03" incidenttime="21:53:00" incidentnumber="15057744" address="7300 block Hamilton Ave" type="OFFENSE" age="" gender="" description="*********************************************** &lt;br/&gt;2701, Simple Assault.&lt;br/&gt;5503, Disorderly Conduct.&lt;br/&gt;"/><marker lat="40.417254023346729" lng="-79.971242787779815" zone="Zone 3" incidentdate="2015-04-03" incidenttime="23:08:00" incidentnumber="15057772" address="2500 block Arlington Ave" type="ARREST" age="48" gender="M" description="*********************************************** &lt;br/&gt;2701, Simple Assault.&lt;br/&gt;"/><marker lat="40.454016520179565" lng="-79.895644292400064" zone="Zone 5" incidentdate="2015-04-03" incidenttime="22:01:00" incidentnumber="15057744" address="7300 block Hamilton Ave" type="ARREST" age="26" gender="M" description="*********************************************** &lt;br/&gt;2701, Simple Assault.&lt;br/&gt;5503, Disorderly Conduct.&lt;br/&gt;"/><marker lat="40.441228428031053" lng="-80.002073791411135" zone="Zone 2" incidentdate="2015-04-03" incidenttime="16:30:00" incidentnumber="14243201" address="200 block 5th Ave" type="ARREST" age="61" gender="M" description="*********************************************** &lt;br/&gt;9015, Failure To Appear/Arrest on Attachment Order&lt;br/&gt;3929, Retail Theft.&lt;br/&gt;"/><marker lat="40.45493173032483" lng="-80.010796490212854" zone="Zone 5" incidentdate="2015-04-03" incidenttime="02:50:00" incidentnumber="15057213" address="400 block N Euclid Ave" type="ARREST" age="49" gender="F" description="*********************************************** &lt;br/&gt;13(a)(16), Possession of Controlled Substance&lt;br/&gt;1543, Driving While Operating Privilege is Suspended or Revoked.&lt;br/&gt;3334, Turning Movements and Required Signals.&lt;br/&gt;13(a)(32), Paraphernalia - Use or Possession&lt;br/&gt;"/><marker lat="40.496836028697047" lng="-80.012049907436634" zone="Zone 1" incidentdate="2015-04-03" incidenttime="22:30:00" incidentnumber="15057753" address="4400 block Sovereign St" type="ARREST" age="52" gender="M" description="*********************************************** &lt;br/&gt;2701, Simple Assault.&lt;br/&gt;4952, Intimidation of Witnesses or Victims&lt;br/&gt;2705, Recklessly Endangering Another Person.&lt;br/&gt;"/><marker lat="40.456633448414188" lng="-79.936435139782176" zone="Zone 5" incidentdate="2015-04-03" incidenttime="15:00:00" incidentnumber="15057515" address="5500 block Centre Ave" type="ARREST" age="35" gender="M" description="*********************************************** &lt;br/&gt;13(a)(16), Possession of Controlled Substance&lt;br/&gt;3736, Reckless Driving&lt;br/&gt;3802(d)(2), DUI - Drug - Impaired Ability&lt;br/&gt;13(a)(32), Paraphernalia - Use or Possession&lt;br/&gt;"/><marker lat="40.482572938875684" lng="-79.95085263143055" zone="Zone 2" incidentdate="2015-04-03" incidenttime="16:20:00" incidentnumber="15057513" address="54th St &amp; Dresden Way" type="ARREST" age="45" gender="F" description="*********************************************** &lt;br/&gt;5503, Disorderly Conduct.&lt;br/&gt;"/><marker lat="40.477787069932234" lng="-80.029068922201432" zone="Zone 1" incidentdate="2015-04-03" incidenttime="16:44:00" incidentnumber="15057548" address="1100 block Woods Run Ave" type="ARREST" age="22" gender="F" description="*********************************************** &lt;br/&gt;2701, Simple Assault.&lt;br/&gt;"/><marker lat="40.466102480510159" lng="-80.011614114849039" zone="Zone 1" incidentdate="2015-04-03" incidenttime="20:42:00" incidentnumber="15057696" address="Perrysville Ave &amp; Cutler St" type="ARREST" age="24" gender="M" description="*********************************************** &lt;br/&gt;13(a)(31), Marijuana: Possession Small Amount&lt;br/&gt;3323, Stop Signs and Yield Signs.&lt;br/&gt;"/><marker lat="40.428606966018023" lng="-79.985175111647919" zone="Zone 3" incidentdate="2015-04-03" incidenttime="00:40:00" incidentnumber="15057142" address="1300 block E Carson St" type="ARREST" age="30" gender="F" description="*********************************************** &lt;br/&gt;2701, Simple Assault.&lt;br/&gt;"/><marker lat="40.468261793901284" lng="-79.964519546996513" zone="Zone 2" incidentdate="2015-04-03" incidenttime="12:05:00" incidentnumber="15057257" address="100 block 39th St" type="ARREST" age="26" gender="M" description="*********************************************** &lt;br/&gt;13(a)(31), Marijuana: Possession Small Amount&lt;br/&gt;13(a)(16), Possession of Controlled Substance&lt;br/&gt;13(a)(30), Possession w/ Intent to Del. Controlled Substance&lt;br/&gt;13(a)(32), Paraphernalia - Use or Possession&lt;br/&gt;"/><marker lat="40.45483303220221" lng="-79.949415444144947" zone="Zone 5" incidentdate="2015-04-03" incidenttime="13:34:00" incidentnumber="15057431" address="Glenn Way &amp; Enfield St" type="ARREST" age="28" gender="M" description="*********************************************** &lt;br/&gt;3714, Careless Driving&lt;br/&gt;13(a)(16), Possession of Controlled Substance&lt;br/&gt;3802(d)(2), DUI - Drug - Impaired Ability&lt;br/&gt;3743, Accidents Involving Damage to Attended Veh. or Property&lt;br/&gt;"/><marker lat="40.451773255688295" lng="-80.062222156735217" zone="Zone 6" incidentdate="2015-04-03" incidenttime="21:13:00" incidentnumber="15057721" address="Fadette St &amp; Kelvin St" type="ARREST" age="37" gender="F" description="*********************************************** &lt;br/&gt;3334, Turning Movements and Required Signals.&lt;br/&gt;13(a)(16), Possession of Controlled Substance&lt;br/&gt;5503, Disorderly Conduct.&lt;br/&gt;13(a)(32), Paraphernalia - Use or Possession&lt;br/&gt;"/><marker lat="40.456780573102769" lng="-80.065104471534511" zone="Zone 6" incidentdate="2015-04-03" incidenttime="09:00:00" incidentnumber="15037714" address="1200 block Faust St" type="ARREST" age="13" gender="M" description="*********************************************** &lt;br/&gt;903, Criminal Conspiracy.&lt;br/&gt;3925, Receiving Stolen Property.&lt;br/&gt;3502, Burglary.&lt;br/&gt;"/><marker lat="40.42836267901361" lng="-79.973607738371669" zone="Zone 2" incidentdate="2015-04-03" incidenttime="00:10:00" incidentnumber="15057139" address="Birmingham Brg &amp; E Carson St" type="ARREST" age="18" gender="M" description="*********************************************** &lt;br/&gt;13(a)(31), Marijuana: Possession Small Amount&lt;br/&gt;1786, Required Financial Responsibility.&lt;br/&gt;1311, Registration Card to be Signed and Exhibited on Demand.&lt;br/&gt;"/><marker lat="40.451773255688295" lng="-80.062222156735217" zone="Zone 6" incidentdate="2015-04-03" incidenttime="21:13:00" incidentnumber="15057721" address="Fadette St &amp; Kelvin St" type="ARREST" age="30" gender="M" description="*********************************************** &lt;br/&gt;3334, Turning Movements and Required Signals.&lt;br/&gt;13(a)(16), Possession of Controlled Substance&lt;br/&gt;5503, Disorderly Conduct.&lt;br/&gt;13(a)(32), Paraphernalia - Use or Possession&lt;br/&gt;"/><marker lat="40.42177365594258" lng="-80.002467499703357" zone="Zone 3" incidentdate="2015-04-03" incidenttime="15:13:00" incidentnumber="15057502" address="Kingsboro St &amp; Haberman Ave" type="ARREST" age="36" gender="M" description="*********************************************** &lt;br/&gt;9501, Bench Warrant&lt;br/&gt;13(a)(16), Possession of Controlled Substance&lt;br/&gt;13(a)(32), Paraphernalia - Use or Possession&lt;br/&gt;"/><marker lat="40.477787069932234" lng="-80.029068922201432" zone="Zone 1" incidentdate="2015-04-03" incidenttime="16:44:00" incidentnumber="15057548" address="1100 block Woods Run Ave" type="ARREST" age="22" gender="M" description="*********************************************** &lt;br/&gt;2701, Simple Assault.&lt;br/&gt;"/><marker lat="40.434696587775576" lng="-79.996300985228572" zone="Zone 2" incidentdate="2015-04-03" incidenttime="17:20:00" incidentnumber="15057544" address="600 block 1st Ave" type="ARREST" age="22" gender="M" description="*********************************************** &lt;br/&gt;3743, Accidents Involving Damage to Attended Veh. or Property&lt;br/&gt;3310, Following Too Closely.&lt;br/&gt;"/><marker lat="40.444200272919588" lng="-80.040607296470199" zone="Zone 6" incidentdate="2015-04-03" incidenttime="13:26:00" incidentnumber="15035369" address="1000 block Chartiers Ave" type="ARREST" age="26" gender="M" description="*********************************************** &lt;br/&gt;2701(a)(1), Simple Assault - Intent., Know., Reckless.Cause Bod. Injury&lt;br/&gt;3701, Robbery.&lt;br/&gt;"/><marker lat="40.41601669526662" lng="-79.97264913314288" zone="Zone 3" incidentdate="2015-04-03" incidenttime="01:41:00" incidentnumber="15057179" address="2400 block Spring St" type="ARREST" age="21" gender="F" description="*********************************************** &lt;br/&gt;2701, Simple Assault.&lt;br/&gt;"/><marker lat="40.4208061" lng="-79.9937105" zone="Zone 3" incidentdate="2015-04-03" incidenttime="21:35:00" incidentnumber="15057730" address="800 block Industry St" type="ARREST" age="23" gender="M" description="*********************************************** &lt;br/&gt;6106, Firearms not to be Carried without a License.&lt;br/&gt;4303, General Lighting Requirements.&lt;br/&gt;1543, Driving While Operating Privilege is Suspended or Revoked.&lt;br/&gt;"/><marker lat="40.456263809253123" lng="-79.904759424811445" zone="Zone 5" incidentdate="2015-04-03" incidenttime="01:38:00" incidentnumber="15057171" address="N Dallas Ave &amp; Hamilton Ave" type="ARREST" age="43" gender="M" description="*********************************************** &lt;br/&gt;13(a)(16), Possession of Controlled Substance&lt;br/&gt;13(a)(30), Possession w/ Intent to Del. Controlled Substance&lt;br/&gt;"/><marker lat="40.456780573102769" lng="-80.065104471534511" zone="Zone 6" incidentdate="2015-04-03" incidenttime="09:00:00" incidentnumber="15037714" address="1200 block Faust St" type="ARREST" age="14" gender="M" description="*********************************************** &lt;br/&gt;903, Criminal Conspiracy.&lt;br/&gt;3925, Receiving Stolen Property.&lt;br/&gt;3502, Burglary.&lt;br/&gt;"/><marker lat="40.42004424033162" lng="-79.972349587531838" zone="Zone 3" incidentdate="2015-04-03" incidenttime="23:11:00" incidentnumber="15057769" address="2400 block Cobden St" type="ARREST" age="28" gender="M" description="*********************************************** &lt;br/&gt;2701, Simple Assault.&lt;br/&gt;"/><marker lat="40.462441300535403" lng="-80.008254903140497" zone="Zone 1" incidentdate="2015-04-03" incidenttime="20:45:00" incidentnumber="15057706" address="Mercy St &amp; Letsche St" type="ARREST" age="31" gender="M" description="*********************************************** &lt;br/&gt;13(a)(31), Marijuana: Possession Small Amount&lt;br/&gt;3334, Turning Movements and Required Signals.&lt;br/&gt;3323, Stop Signs and Yield Signs.&lt;br/&gt;"/><marker lat="40.411124027831086" lng="-79.979471722977692" zone="Zone 3" incidentdate="2015-04-03" incidenttime="07:00:00" incidentnumber="15057262" address="500 block Fisher St" type="ARREST" age="45" gender="M" description="*********************************************** &lt;br/&gt;13(a)(33), Paraphernalia - Delivery or Intent to Deliver&lt;br/&gt;13(a)(16), Possession of Controlled Substance&lt;br/&gt;7512, Criminal Use of Communication&lt;br/&gt;13(a)(30), Possession w/ Intent to Del. Controlled Substance&lt;br/&gt;908, Prohibited Offensive Weapons.&lt;br/&gt;636.04, Permits Required for Possession of Wild  Animals&lt;br/&gt;"/><marker lat="40.428758587531433" lng="-79.980561963586084" zone="Zone 3" incidentdate="2015-04-03" incidenttime="11:30:00" incidentnumber="15057377" address="E Carson St &amp; S 18th St" type="ARREST" age="56" gender="M" description="*********************************************** &lt;br/&gt;9501, Bench Warrant&lt;br/&gt;"/><marker lat="40.399788878927772" lng="-80.043325511648376" zone="Zone 6" incidentdate="2015-04-03" incidenttime="19:30:00" incidentnumber="15048396" address="3100 block Banksville Rd" type="ARREST" age="62" gender="M" description="*********************************************** &lt;br/&gt;4304(a)(1), Endangering Welfare of Children - Course of Conduct Enhanced&lt;br/&gt;3929, Retail Theft.&lt;br/&gt;"/><marker lat="40.441741853914216" lng="-79.958400701561686" zone="Zone 4" incidentdate="2015-04-03" incidenttime="15:54:00" incidentnumber="15057498" address="3700 block 5th Ave" type="ARREST" age="21" gender="F" description="*********************************************** &lt;br/&gt;4101, Forgery.&lt;br/&gt;3922, Theft by Deception.&lt;br/&gt;907, Possessing Instruments of Crime.&lt;br/&gt;903, Criminal Conspiracy.&lt;br/&gt;4106, Access Device Fraud&lt;br/&gt;901, Criminal Attempt&lt;br/&gt;5104, Resisting Arrest or Other Law Enforcement.&lt;br/&gt;5121, Escape.&lt;br/&gt;4120, Identity Theft&lt;br/&gt;"/><marker lat="40.45688934517613" lng="-79.938486703499024" zone="Zone 5" incidentdate="2015-04-03" incidenttime="01:13:00" incidentnumber="15057159" address="5400 block Baum Blvd" type="ARREST" age="18" gender="M" description="*********************************************** &lt;br/&gt;3114, Flashing Signals.&lt;br/&gt;3921(a), Theft by Unlawful Taking or Disposition - Movable item&lt;br/&gt;3323, Stop Signs and Yield Signs.&lt;br/&gt;1501, Drivers Required to be Licensed.&lt;br/&gt;3736, Reckless Driving&lt;br/&gt;3925, Receiving Stolen Property.&lt;br/&gt;5104, Resisting Arrest or Other Law Enforcement.&lt;br/&gt;3733, Fleeing or Attempting to Elude Police Officer&lt;br/&gt;3745, Accidents Involving Damage to Unattended Veh.or Prop.&lt;br/&gt;"/><marker lat="40.438943794278437" lng="-79.956702987700893" zone="Zone 4" incidentdate="2015-04-03" incidenttime="02:22:00" incidentnumber="15057191" address="300 block Meyran Ave" type="ARREST" age="22" gender="M" description="*********************************************** &lt;br/&gt;5506, Loitering and Prowling at Night&lt;br/&gt;5505, Public Drunkenness&lt;br/&gt;"/><marker lat="40.465977767331793" lng="-79.999746620137401" zone="Zone 1" incidentdate="2015-04-03" incidenttime="18:00:00" incidentnumber="15057597" address="East St &amp; Royal St" type="ARREST" age="25" gender="F" description="*********************************************** &lt;br/&gt;5902(a)(2), Prostitution - Loitering for purpose of&lt;br/&gt;13(a)(32), Paraphernalia - Use or Possession&lt;br/&gt;5902(a)(1), Prostitution&lt;br/&gt;"/><marker lat="40.42004424033162" lng="-79.972349587531838" zone="Zone 3" incidentdate="2015-04-03" incidenttime="23:11:00" incidentnumber="15057769" address="2400 block Cobden St" type="ARREST" age="58" gender="M" description="*********************************************** &lt;br/&gt;2701, Simple Assault.&lt;br/&gt;"/><marker lat="40.430719146660898" lng="-80.007572238034967" zone="Zone 3" incidentdate="2015-04-03" incidenttime="22:20:00" incidentnumber="15057762" address="200 block Shiloh St" type="ARREST" age="27" gender="M" description="*********************************************** &lt;br/&gt;13(a)(32), Paraphernalia - Use or Possession&lt;br/&gt;"/><marker lat="40.42177365594258" lng="-80.002467499703357" zone="Zone 3" incidentdate="2015-04-03" incidenttime="15:13:00" incidentnumber="15057502" address="Kingsboro St &amp; Haberman Ave" type="ARREST" age="37" gender="M" description="*********************************************** &lt;br/&gt;9501, Bench Warrant&lt;br/&gt;13(a)(16), Possession of Controlled Substance&lt;br/&gt;13(a)(32), Paraphernalia - Use or Possession&lt;br/&gt;"/><marker lat="40.456579404557218" lng="-79.997624971607749" zone="Zone 1" incidentdate="2015-04-03" incidenttime="09:00:00" incidentnumber="15057279" address="Tripoli St &amp; Madison Ave" type="ARREST" age="49" gender="M" description="*********************************************** &lt;br/&gt;9501, Bench Warrant&lt;br/&gt;"/></markers>
