<?xml version="1.0"?>
<markers><marker lat="40.402760913726844" lng="-79.989700005832333" zone="Zone 3" incidentdate="2016-08-12" incidenttime="17:20:00" incidentnumber="16150724" address="1300 block Brownsville Rd" type="OFFENSE" age="" gender="" description="*********************************************** &lt;br/&gt;3304, Criminal Mischief.&lt;br/&gt;"/><marker lat="40.434500897717101" lng="-80.016084957179771" zone="Zone 3" incidentdate="2016-08-12" incidenttime="06:30:00" incidentnumber="16150352" address="200 block La Belle St" type="OFFENSE" age="" gender="" description="*********************************************** &lt;br/&gt;3745, Accidents Involving Damage to Unattended Veh.or Prop.&lt;br/&gt;"/><marker lat="40.458074770905156" lng="-80.011690010808138" zone="Zone 1" incidentdate="2016-08-12" incidenttime="08:40:00" incidentnumber="16150343" address="Saturn Way &amp; Alpine Ave" type="OFFENSE" age="" gender="" description="*********************************************** &lt;br/&gt;9489, Found Property&lt;br/&gt;"/><marker lat="40.457627539844381" lng="-79.931466548365393" zone="Zone 4" incidentdate="2016-08-12" incidenttime="16:25:00" incidentnumber="16150611" address="5800 block Centre Ave" type="OFFENSE" age="" gender="" description="*********************************************** &lt;br/&gt;3304, Criminal Mischief.&lt;br/&gt;"/><marker lat="40.475639774908238" lng="-80.030763711820484" zone="Zone 1" incidentdate="2016-08-12" incidenttime="19:00:00" incidentnumber="16150771" address="3200 block brighton Rd" type="OFFENSE" age="" gender="" description="*********************************************** &lt;br/&gt;3921(a), Theft by Unlawful Taking or Disposition - Movable item&lt;br/&gt;"/><marker lat="40.438599583297822" lng="-79.953331991920535" zone="Zone 4" incidentdate="2016-08-12" incidenttime="01:17:00" incidentnumber="16150215" address="400 block Oakland Ave" type="OFFENSE" age="" gender="" description="*********************************************** &lt;br/&gt;3502, Burglary.&lt;br/&gt;"/><marker lat="40.468693075773288" lng="-79.961677392158549" zone="Zone 2" incidentdate="2016-08-12" incidenttime="17:28:00" incidentnumber="16150654" address="4000 block Butler St" type="OFFENSE" age="" gender="" description="*********************************************** &lt;br/&gt;5104, Resisting Arrest or Other Law Enforcement.&lt;br/&gt;3921, Theft by Unlawful Taking or Disposition.&lt;br/&gt;"/><marker lat="40.438091155451616" lng="-80.001853342344887" zone="Zone 2" incidentdate="2016-08-12" incidenttime="20:25:00" incidentnumber="16150775" address="300 block Blvd Of The Allies" type="OFFENSE" age="" gender="" description="*********************************************** &lt;br/&gt;3701, Robbery.&lt;br/&gt;"/><marker lat="40.4580827" lng="-79.9222604" zone="Zone 4" incidentdate="2016-08-12" incidenttime="08:10:00" incidentnumber="16150336" address="6300 block Aurelia St" type="OFFENSE" age="" gender="" description="*********************************************** &lt;br/&gt;3934, Theft from Vehicle&lt;br/&gt;"/><marker lat="40.460302578526942" lng="-80.006980071080037" zone="Zone 1" incidentdate="2016-08-12" incidenttime="16:00:00" incidentnumber="16150610" address="1700 block Belleau Dr" type="OFFENSE" age="" gender="" description="*********************************************** &lt;br/&gt;3502, Burglary.&lt;br/&gt;"/><marker lat="40.461858084388979" lng="-79.930838035041617" zone="Zone 5" incidentdate="2016-08-12" incidenttime="00:32:00" incidentnumber="16150192" address="200 block Amber (The Angelus) St" type="OFFENSE" age="" gender="" description="*********************************************** &lt;br/&gt;9490, Missing Persons (18 and Over)&lt;br/&gt;"/><marker lat="40.3962387" lng="-80.0147263" zone="Zone 6" incidentdate="2016-08-12" incidenttime="10:05:00" incidentnumber="16150398" address="2200 block Starkamp St" type="OFFENSE" age="" gender="" description="*********************************************** &lt;br/&gt;3304, Criminal Mischief.&lt;br/&gt;"/><marker lat="40.444555509808218" lng="-80.000853441112824" zone="Zone 2" incidentdate="2016-08-12" incidenttime="06:00:00" incidentnumber="16150734" address="7th St &amp; Fort Duquesne Blvd" type="OFFENSE" age="" gender="" description="*********************************************** &lt;br/&gt;9504, Lost Property&lt;br/&gt;"/><marker lat="40.403756507065452" lng="-80.041486623224756" zone="Zone 6" incidentdate="2016-08-12" incidenttime="08:00:00" incidentnumber="16150284" address="2200 block Potomac Ave" type="OFFENSE" age="" gender="" description="*********************************************** &lt;br/&gt;9497, Aided Case&lt;br/&gt;"/><marker lat="40.484454877545488" lng="-80.040477404897274" zone="Zone 1" incidentdate="2016-08-12" incidenttime="08:30:00" incidentnumber="16150347" address="3800 block California Ave" type="OFFENSE" age="" gender="" description="*********************************************** &lt;br/&gt;3304(a)(4), CRIMINAL MISCHIEF- Intentionally Damage Property (By Graffiti, Aerosol Spray Paint, Broad Tip Marker, or Similar)&lt;br/&gt;"/><marker lat="40.460302578526942" lng="-80.006980071080037" zone="Zone 1" incidentdate="2016-08-12" incidenttime="16:30:00" incidentnumber="16150632" address="1700 block Belleau Dr" type="OFFENSE" age="" gender="" description="*********************************************** &lt;br/&gt;3304, Criminal Mischief.&lt;br/&gt;"/><marker lat="40.439646251257145" lng="-79.995893890528734" zone="Zone 2" incidentdate="2016-08-12" incidenttime="11:45:00" incidentnumber="16150427" address="500 block Grant St" type="OFFENSE" age="" gender="" description="*********************************************** &lt;br/&gt;2706, Terroristic Threats.&lt;br/&gt;"/><marker lat="40.446314652723053" lng="-80.016316228653437" zone="Zone 1" incidentdate="2016-08-12" incidenttime="18:50:00" incidentnumber="16150744" address="100 block Art Rooney Ave" type="OFFENSE" age="" gender="" description="*********************************************** &lt;br/&gt;13(a)(31), Marijuana: Possession Small Amount&lt;br/&gt;"/><marker lat="40.455109037149178" lng="-80.0010590994724" zone="Zone 1" incidentdate="2016-08-12" incidenttime="01:03:00" incidentnumber="16150209" address="900 block James St" type="OFFENSE" age="" gender="" description="*********************************************** &lt;br/&gt;3802(a)(1), DUI - General Impairment&lt;br/&gt;3802(c), DUI - Highest Rate of Alcohol - BAC &gt;= .16%&lt;br/&gt;"/><marker lat="40.440697119948119" lng="-80.003946068250272" zone="Zone 2" incidentdate="2016-08-12" incidenttime="17:38:00" incidentnumber="16150662" address="100 block Forbes Ave" type="OFFENSE" age="" gender="" description="*********************************************** &lt;br/&gt;3929(a)(1), Retail Theft; takes possession of, carries away, or transfers displayed merchandise&lt;br/&gt;"/><marker lat="40.441529843750516" lng="-80.002493735963029" zone="Zone 2" incidentdate="2016-08-12" incidenttime="19:25:00" incidentnumber="16150751" address="5th Ave &amp; Graeme St" type="OFFENSE" age="" gender="" description="*********************************************** &lt;br/&gt;5503, Disorderly Conduct.&lt;br/&gt;5101, Obstructing Admin. of Law&lt;br/&gt;7513, Restriction on Alcoholic Beverages - Open Container&lt;br/&gt;"/><marker lat="40.430266135946901" lng="-80.000653663493566" zone="Zone 3" incidentdate="2016-08-12" incidenttime="10:30:00" incidentnumber="16150381" address="E Sycamore St" type="OFFENSE" age="" gender="" description="*********************************************** &lt;br/&gt;9489, Found Property&lt;br/&gt;"/><marker lat="40.44511004552583" lng="-80.039246537687731" zone="Zone 6" incidentdate="2016-08-12" incidenttime="17:17:00" incidentnumber="16150649" address="700 block Lorenz Ave" type="OFFENSE" age="" gender="" description="*********************************************** &lt;br/&gt;13(a)(16), Possession of Controlled Substance&lt;br/&gt;13(a)(32), Paraphernalia - Use or Possession&lt;br/&gt;9501, Bench Warrant&lt;br/&gt;4914, False Identification to Law Enforcement Authorities&lt;br/&gt;"/><marker lat="40.397635758486224" lng="-79.987716003914187" zone="Zone 3" incidentdate="2016-08-12" incidenttime="11:15:00" incidentnumber="16150451" address="1700 block Brownsville Rd" type="OFFENSE" age="" gender="" description="*********************************************** &lt;br/&gt;3304, Criminal Mischief.&lt;br/&gt;"/><marker lat="40.399621354242171" lng="-80.044404879543478" zone="Zone 6" incidentdate="2016-08-12" incidenttime="08:34:00" incidentnumber="16150341" address="Banksville Rd &amp; Mc Monagle Ave" type="OFFENSE" age="" gender="" description="*********************************************** &lt;br/&gt;3743, Accidents Involving Damage to Attended Veh. or Property&lt;br/&gt;"/><marker lat="40.424277209227093" lng="-80.009186444274562" zone="Zone 3" incidentdate="2016-08-12" incidenttime="16:51:00" incidentnumber="16150634" address="400 block Boggs Ave" type="OFFENSE" age="" gender="" description="*********************************************** &lt;br/&gt;9999, 9999 - (Misc. Incident):&lt;br/&gt;"/><marker lat="40.477009600273561" lng="-79.956862788365299" zone="Zone 2" incidentdate="2016-08-12" incidenttime="08:00:00" incidentnumber="16150320" address="4900 block Butler St" type="OFFENSE" age="" gender="" description="*********************************************** &lt;br/&gt;3304(a)(4), CRIMINAL MISCHIEF- Intentionally Damage Property (By Graffiti, Aerosol Spray Paint, Broad Tip Marker, or Similar)&lt;br/&gt;"/><marker lat="40.423215801453722" lng="-79.993702358917801" zone="Zone 3" incidentdate="2016-08-12" incidenttime="11:30:00" incidentnumber="16150546" address="800 block Ceres Way" type="OFFENSE" age="" gender="" description="*********************************************** &lt;br/&gt;3745, Accidents Involving Damage to Unattended Veh.or Prop.&lt;br/&gt;"/><marker lat="40.429228381173026" lng="-79.980513714480466" zone="Zone 3" incidentdate="2016-08-12" incidenttime="01:54:00" incidentnumber="16150236" address="Wrights Way &amp; S 18th St" type="OFFENSE" age="" gender="" description="*********************************************** &lt;br/&gt;601.16, Public Urination And Defecation&lt;br/&gt;"/><marker lat="40.404822944398759" lng="-79.934938582152668" zone="Zone 4" incidentdate="2016-08-12" incidenttime="18:31:00" incidentnumber="16150705" address="600 block Johnston Ave" type="OFFENSE" age="" gender="" description="*********************************************** &lt;br/&gt;3304, Criminal Mischief.&lt;br/&gt;2705, Recklessly Endangering Another Person.&lt;br/&gt;607.03, Discharging Firearm or Airgun&lt;br/&gt;"/><marker lat="40.448037060322477" lng="-80.017825828663618" zone="Zone 1" incidentdate="2016-08-12" incidenttime="09:05:00" incidentnumber="16150438" address="Reedsdale St &amp; Allegheny Ave" type="OFFENSE" age="" gender="" description="*********************************************** &lt;br/&gt;9999, 9999 - (Misc. Incident):&lt;br/&gt;"/><marker lat="40.392154392860824" lng="-80.017676067888289" zone="Zone 6" incidentdate="2016-08-12" incidenttime="00:15:00" incidentnumber="16150197" address="1000 block Brookline Blvd" type="OFFENSE" age="" gender="" description="*********************************************** &lt;br/&gt;4101, Forgery.&lt;br/&gt;"/><marker lat="40.451200624160947" lng="-79.9257871886754" zone="Zone 4" incidentdate="2016-08-12" incidenttime="12:50:00" incidentnumber="16150483" address="5th Ave &amp; College Ave" type="OFFENSE" age="" gender="" description="*********************************************** &lt;br/&gt;9999, 9999 - (Misc. Incident):&lt;br/&gt;"/><marker lat="40.454243922656694" lng="-80.017277866678782" zone="Zone 1" incidentdate="2016-08-12" incidenttime="21:40:00" incidentnumber="16150819" address="Galveston Ave &amp; Behan St" type="OFFENSE" age="" gender="" description="*********************************************** &lt;br/&gt;3934, Theft from Vehicle&lt;br/&gt;"/><marker lat="40.443188439829129" lng="-80.000316120604836" zone="Zone 2" incidentdate="2016-08-12" incidenttime="13:15:00" incidentnumber="16150506" address="200 block 7th St" type="OFFENSE" age="" gender="" description="*********************************************** &lt;br/&gt;2709(a)(1), Harassment by Physical Contact, or Attempts or Threats&lt;br/&gt;"/><marker lat="40.437850264562179" lng="-80.004567110517371" zone="Zone 2" incidentdate="2016-08-12" incidenttime="19:35:00" incidentnumber="16150736" address="Market St" type="OFFENSE" age="" gender="" description="*********************************************** &lt;br/&gt;9999, 9999 - (Misc. Incident):&lt;br/&gt;"/><marker lat="40.44907141046464" lng="-79.987794170949698" zone="Zone 1" incidentdate="2016-08-12" incidenttime="16:40:00" incidentnumber="16150637" address="Mulberry Way &amp; 16th St Brg" type="OFFENSE" age="" gender="" description="*********************************************** &lt;br/&gt;2709, Harassment (Non-Specific)&lt;br/&gt;"/><marker lat="40.451601893913271" lng="-80.066357338902122" zone="Zone 6" incidentdate="2016-08-12" incidenttime="20:15:00" incidentnumber="16150776" address="3200 block Faronia St" type="OFFENSE" age="" gender="" description="*********************************************** &lt;br/&gt;13(a)(16), Possession of Controlled Substance&lt;br/&gt;13(a)(30), Possession w/ Intent to Del. Controlled Substance&lt;br/&gt;"/><marker lat="40.424071786287534" lng="-79.962476414404051" zone="Zone 3" incidentdate="2016-08-12" incidenttime="17:00:00" incidentnumber="16150666" address="Sarah St &amp; E Carson St" type="OFFENSE" age="" gender="" description="*********************************************** &lt;br/&gt;3745, Accidents Involving Damage to Unattended Veh.or Prop.&lt;br/&gt;"/><marker lat="40.4471653" lng="-80.0523328" zone="Zone 6" incidentdate="2016-08-12" incidenttime="00:01:00" incidentnumber="16150189" address="1500 block Crucible St" type="OFFENSE" age="" gender="" description="*********************************************** &lt;br/&gt;3502, Burglary.&lt;br/&gt;"/><marker lat="40.393868247768545" lng="-80.005803235629187" zone="Zone 6" incidentdate="2016-08-12" incidenttime="19:45:00" incidentnumber="16150754" address="1500 block Milan Ave" type="OFFENSE" age="" gender="" description="*********************************************** &lt;br/&gt;9501, Bench Warrant&lt;br/&gt;"/><marker lat="40.455081049868049" lng="-80.055586235866031" zone="Zone 6" incidentdate="2016-08-12" incidenttime="17:10:00" incidentnumber="16150629" address="3000 block Ashlyn St" type="OFFENSE" age="" gender="" description="*********************************************** &lt;br/&gt;3304, Criminal Mischief.&lt;br/&gt;"/><marker lat="40.441217775192158" lng="-79.959208522488197" zone="Zone 4" incidentdate="2016-08-12" incidenttime="08:00:00" incidentnumber="16150326" address="100 block Meyran Ave" type="OFFENSE" age="" gender="" description="*********************************************** &lt;br/&gt;3502, Burglary.&lt;br/&gt;"/><marker lat="40.454074811291946" lng="-80.021051277011892" zone="Zone 1" incidentdate="2016-08-12" incidenttime="18:25:00" incidentnumber="16150703" address="100 block Sheffield St" type="OFFENSE" age="" gender="" description="*********************************************** &lt;br/&gt;2701, Simple Assault.&lt;br/&gt;"/><marker lat="40.451313239157173" lng="-79.877209289370413" zone="Zone 5" incidentdate="2016-08-12" incidenttime="12:30:00" incidentnumber="16150476" address="1800 block Calistoga St" type="OFFENSE" age="" gender="" description="*********************************************** &lt;br/&gt;9496, Dead on Arrival (DOA)&lt;br/&gt;"/><marker lat="40.454973750239418" lng="-80.021293357100603" zone="Zone 1" incidentdate="2016-08-12" incidenttime="00:35:00" incidentnumber="16150196" address="Pennsylvania Ave &amp; Bidwell St" type="OFFENSE" age="" gender="" description="*********************************************** &lt;br/&gt;3334, Turning Movements and Required Signals.&lt;br/&gt;"/><marker lat="40.428759030177126" lng="-80.006457494373649" zone="Zone 3" incidentdate="2016-08-12" incidenttime="23:22:00" incidentnumber="16150863" address="Wyoming St" type="OFFENSE" age="" gender="" description="*********************************************** &lt;br/&gt;2701, Simple Assault.&lt;br/&gt;"/><marker lat="40.456844270039149" lng="-79.975221859086446" zone="Zone 2" incidentdate="2016-08-12" incidenttime="11:45:00" incidentnumber="16150452" address="2800 block Penn Ave" type="OFFENSE" age="" gender="" description="*********************************************** &lt;br/&gt;3921, Theft by Unlawful Taking or Disposition.&lt;br/&gt;"/><marker lat="40.460951896902024" lng="-79.93360519125261" zone="Zone 5" incidentdate="2016-08-12" incidenttime="05:10:00" incidentnumber="16150285" address="300 block Stratford Ave" type="OFFENSE" age="" gender="" description="*********************************************** &lt;br/&gt;3502, Burglary.&lt;br/&gt;"/><marker lat="40.451518177722548" lng="-80.013728373555793" zone="Zone 1" incidentdate="2016-08-12" incidenttime="22:30:00" incidentnumber="16150839" address="N Lincoln Ave &amp; Brighton Rd" type="OFFENSE" age="" gender="" description="*********************************************** &lt;br/&gt;3304, Criminal Mischief.&lt;br/&gt;3934, Theft from Vehicle&lt;br/&gt;"/><marker lat="40.440020201820417" lng="-80.000805416778391" zone="Zone 2" incidentdate="2016-08-12" incidenttime="17:00:00" incidentnumber="16150653" address="300 block Forbes Ave" type="OFFENSE" age="" gender="" description="*********************************************** &lt;br/&gt;9999, 9999 - (Misc. Incident):&lt;br/&gt;"/><marker lat="40.445365647853407" lng="-80.039325117610801" zone="Zone 6" incidentdate="2016-08-12" incidenttime="20:59:00" incidentnumber="16150795" address="Lakewood St &amp; Navajo Way" type="OFFENSE" age="" gender="" description="*********************************************** &lt;br/&gt;13(a)(31), Marijuana: Possession Small Amount&lt;br/&gt;1543, Driving While Operating Privilege is Suspended or Revoked.&lt;br/&gt;3334, Turning Movements and Required Signals.&lt;br/&gt;3925, Receiving Stolen Property.&lt;br/&gt;"/><marker lat="40.456645624737135" lng="-80.016779629911412" zone="Zone 1" incidentdate="2016-08-12" incidenttime="06:30:00" incidentnumber="16150310" address="Jacksonia St" type="OFFENSE" age="" gender="" description="*********************************************** &lt;br/&gt;3304, Criminal Mischief.&lt;br/&gt;3745, Accidents Involving Damage to Unattended Veh.or Prop.&lt;br/&gt;"/><marker lat="40.403794999919768" lng="-79.990169155250072" zone="Zone 3" incidentdate="2016-08-12" incidenttime="16:07:00" incidentnumber="16150597" address="1200 block Brownsville Rd" type="OFFENSE" age="" gender="" description="*********************************************** &lt;br/&gt;2705, Recklessly Endangering Another Person.&lt;br/&gt;2701, Simple Assault.&lt;br/&gt;3742, Accidents Involving Death or Personal Injury&lt;br/&gt;2706, Terroristic Threats.&lt;br/&gt;3732.1, Aggravated Assault by Vehicle&lt;br/&gt;"/><marker lat="40.408606557292586" lng="-80.028268479471819" zone="Zone 6" incidentdate="2016-08-12" incidenttime="12:00:00" incidentnumber="16150468" address="800 block Coast Ave" type="OFFENSE" age="" gender="" description="*********************************************** &lt;br/&gt;3921, Theft by Unlawful Taking or Disposition.&lt;br/&gt;"/><marker lat="40.443919803552113" lng="-79.976677867110723" zone="Zone 2" incidentdate="2016-08-12" incidenttime="02:00:00" incidentnumber="16150239" address="2100 block rose St" type="OFFENSE" age="" gender="" description="*********************************************** &lt;br/&gt;2501, Criminal Homicide.&lt;br/&gt;"/><marker lat="40.43278204676664" lng="-80.013780319727047" zone="Zone 3" incidentdate="2016-08-12" incidenttime="12:30:00" incidentnumber="16150470" address="200 block Merrimac St" type="OFFENSE" age="" gender="" description="*********************************************** &lt;br/&gt;029, Missing Juvenile&lt;br/&gt;"/><marker lat="40.421878036011016" lng="-80.010303442495399" zone="Zone 3" incidentdate="2016-08-12" incidenttime="00:50:00" incidentnumber="16150207" address="Boggs Ave &amp; Lelia St" type="OFFENSE" age="" gender="" description="*********************************************** &lt;br/&gt;3701, Robbery.&lt;br/&gt;"/><marker lat="40.412490771668999" lng="-80.040587392325691" zone="Zone 6" incidentdate="2016-08-12" incidenttime="06:20:00" incidentnumber="16150308" address="1300 block Kirsopp Ave" type="OFFENSE" age="" gender="" description="*********************************************** &lt;br/&gt;3745, Accidents Involving Damage to Unattended Veh.or Prop.&lt;br/&gt;"/><marker lat="40.494733901217757" lng="-80.025856049129573" zone="Zone 1" incidentdate="2016-08-12" incidenttime="18:46:00" incidentnumber="16150690" address="200 block Bascom St" type="OFFENSE" age="" gender="" description="*********************************************** &lt;br/&gt;3745, Accidents Involving Damage to Unattended Veh.or Prop.&lt;br/&gt;3714, Careless Driving&lt;br/&gt;3802(d)(2), DUI - Drug - Impaired Ability&lt;br/&gt;3301, Arson&lt;br/&gt;"/><marker lat="40.393823283114443" lng="-80.012109573651102" zone="Zone 6" incidentdate="2016-08-12" incidenttime="11:10:00" incidentnumber="16150429" address="100 block Roswin Dr" type="OFFENSE" age="" gender="" description="*********************************************** &lt;br/&gt;4912, Impersonating a Public Servant.&lt;br/&gt;"/><marker lat="40.467888803519457" lng="-79.980373200922159" zone="Zone 1" incidentdate="2016-08-12" incidenttime="22:18:00" incidentnumber="16150834" address="2000 block Ley St" type="OFFENSE" age="" gender="" description="*********************************************** &lt;br/&gt;029, Missing Juvenile&lt;br/&gt;"/><marker lat="40.452263678882652" lng="-79.982281937374182" zone="Zone 2" incidentdate="2016-08-12" incidenttime="14:05:00" incidentnumber="16150579" address="22nd St &amp; Penn Ave" type="OFFENSE" age="" gender="" description="*********************************************** &lt;br/&gt;3745, Accidents Involving Damage to Unattended Veh.or Prop.&lt;br/&gt;"/><marker lat="40.445640297979047" lng="-79.981797214737767" zone="Zone 2" incidentdate="2016-08-12" incidenttime="23:00:00" incidentnumber="16150850" address="2000 block Webster Ave" type="OFFENSE" age="" gender="" description="*********************************************** &lt;br/&gt;3701, Robbery.&lt;br/&gt;2701(a)(1), Simple Assault - Intent., Know., Reckless.Cause Bod. Injury&lt;br/&gt;2710, Ethnic Intimidation.&lt;br/&gt;"/><marker lat="40.455801927699859" lng="-79.978472251870272" zone="Zone 2" incidentdate="2016-08-12" incidenttime="21:00:00" incidentnumber="16150806" address="2600 block Smallman St" type="OFFENSE" age="" gender="" description="*********************************************** &lt;br/&gt;3304, Criminal Mischief.&lt;br/&gt;3934, Theft from Vehicle&lt;br/&gt;"/><marker lat="40.461996254274133" lng="-79.940666380663913" zone="Zone 5" incidentdate="2016-08-12" incidenttime="16:25:00" incidentnumber="16150616" address="300 block S Pacific Ave" type="OFFENSE" age="" gender="" description="*********************************************** &lt;br/&gt;9999, 9999 - (Misc. Incident):&lt;br/&gt;"/><marker lat="40.456771710139904" lng="-80.048514981602139" zone="Zone 6" incidentdate="2016-08-12" incidenttime="06:04:00" incidentnumber="16150306" address="200 block Hammond St" type="OFFENSE" age="" gender="" description="*********************************************** &lt;br/&gt;13(a)(16), Possession of Controlled Substance&lt;br/&gt;13(a)(30), Possession w/ Intent to Del. Controlled Substance&lt;br/&gt;3925, Receiving Stolen Property.&lt;br/&gt;6105(a)(1), Persons not to possess, use, manufacture, control, sell or transfer firearms: Former convict enumerated in subsection (b)&lt;br/&gt;"/><marker lat="40.474814744271484" lng="-79.922597289648337" zone="Zone 5" incidentdate="2016-08-12" incidenttime="04:19:00" incidentnumber="16150271" address="1100 block Mellon St" type="OFFENSE" age="" gender="" description="*********************************************** &lt;br/&gt;2701, Simple Assault.&lt;br/&gt;"/><marker lat="40.453421528804526" lng="-79.892481935834624" zone="Zone 5" incidentdate="2016-08-12" incidenttime="10:59:00" incidentnumber="16135953" address="7500 block Hamilton Ave" type="OFFENSE" age="" gender="" description="*********************************************** &lt;br/&gt;4915, Failure to Comply with Megans Law&lt;br/&gt;"/><marker lat="40.4519501" lng="-80.0654821" zone="Zone 6" incidentdate="2016-08-12" incidenttime="00:31:00" incidentnumber="16150190" address="3200 block Fadette St" type="OFFENSE" age="" gender="" description="*********************************************** &lt;br/&gt;3921, Theft by Unlawful Taking or Disposition.&lt;br/&gt;"/><marker lat="40.4199199875451" lng="-79.993675059038551" zone="Zone 3" incidentdate="2016-08-12" incidenttime="01:00:00" incidentnumber="16150208" address="800 block Climax St" type="OFFENSE" age="" gender="" description="*********************************************** &lt;br/&gt;2709, Harassment (Non-Specific)&lt;br/&gt;"/><marker lat="40.412857823197776" lng="-80.024176573100917" zone="Zone 6" incidentdate="2016-08-12" incidenttime="11:45:00" incidentnumber="16150461" address="1500 block Fallowfield Ave" type="OFFENSE" age="" gender="" description="*********************************************** &lt;br/&gt;3304, Criminal Mischief.&lt;br/&gt;"/><marker lat="40.454106142366726" lng="-79.950167023630968" zone="Zone 5" incidentdate="2016-08-12" incidenttime="02:48:00" incidentnumber="16150253" address="4700 block Baum Blvd" type="OFFENSE" age="" gender="" description="*********************************************** &lt;br/&gt;9501, Bench Warrant&lt;br/&gt;1543, Driving While Operating Privilege is Suspended or Revoked.&lt;br/&gt;4303, General Lighting Requirements.&lt;br/&gt;"/><marker lat="40.452725352725054" lng="-79.889190459043618" zone="Zone 5" incidentdate="2016-08-12" incidenttime="12:30:00" incidentnumber="16150437" address="Brushton Ave &amp; Hamilton Ave" type="OFFENSE" age="" gender="" description="*********************************************** &lt;br/&gt;13(a)(16), Possession of Controlled Substance&lt;br/&gt;13(a)(30), Possession w/ Intent to Del. Controlled Substance&lt;br/&gt;1543, Driving While Operating Privilege is Suspended or Revoked.&lt;br/&gt;3334, Turning Movements and Required Signals.&lt;br/&gt;"/><marker lat="40.391322204500497" lng="-79.985422157567612" zone="Zone 3" incidentdate="2016-08-12" incidenttime="02:56:00" incidentnumber="16150254" address="2200 block Lutz Ave" type="OFFENSE" age="" gender="" description="*********************************************** &lt;br/&gt;2701, Simple Assault.&lt;br/&gt;"/><marker lat="40.392970289556509" lng="-80.009287779068927" zone="Zone 6" incidentdate="2016-08-12" incidenttime="00:01:00" incidentnumber="16150606" address="1400 block Bellaire Pl" type="OFFENSE" age="" gender="" description="*********************************************** &lt;br/&gt;3922, Theft by Deception.&lt;br/&gt;"/><marker lat="40.472436930785115" lng="-80.015558694685438" zone="Zone 1" incidentdate="2016-08-12" incidenttime="04:40:00" incidentnumber="16150273" address="400 block Hawkins St" type="OFFENSE" age="" gender="" description="*********************************************** &lt;br/&gt;9488, False  Burglar Alarm&lt;br/&gt;"/><marker lat="40.375206573851024" lng="-79.913773202361753" zone="Zone 4" incidentdate="2016-08-12" incidenttime="03:21:00" incidentnumber="16150258" address="4900 block Kinley Ave" type="OFFENSE" age="" gender="" description="*********************************************** &lt;br/&gt;9122, Miscellaneous Fire Vehicle Investigation to Continue&lt;br/&gt;"/><marker lat="40.427541855392327" lng="-79.977596384534849" zone="Zone 3" incidentdate="2016-08-12" incidenttime="17:00:00" incidentnumber="16150712" address="2000 block Sarah St" type="OFFENSE" age="" gender="" description="*********************************************** &lt;br/&gt;3304, Criminal Mischief.&lt;br/&gt;3503, Criminal Trespass&lt;br/&gt;"/><marker lat="40.432449008001775" lng="-79.915428159954956" zone="Zone 4" incidentdate="2016-08-12" incidenttime="08:21:00" incidentnumber="16150334" address="2400 block Beechwood Blvd" type="OFFENSE" age="" gender="" description="*********************************************** &lt;br/&gt;3921(a), Theft by Unlawful Taking or Disposition - Movable item&lt;br/&gt;"/><marker lat="40.446314652723053" lng="-80.016316228653437" zone="Zone 1" incidentdate="2016-08-12" incidenttime="18:50:00" incidentnumber="16150744" address="100 block Art Rooney Ave" type="ARREST" age="24" gender="M" description="*********************************************** &lt;br/&gt;13(a)(31), Marijuana: Possession Small Amount&lt;br/&gt;"/><marker lat="40.425744638749933" lng="-79.967667783552642" zone="Zone 3" incidentdate="2016-08-12" incidenttime="19:40:00" incidentnumber="16119366" address="2700 block Larkins Way" type="ARREST" age="30" gender="M" description="*********************************************** &lt;br/&gt;3921(a), Theft by Unlawful Taking or Disposition - Movable item&lt;br/&gt;"/><marker lat="40.474814744271484" lng="-79.922597289648337" zone="Zone 5" incidentdate="2016-08-12" incidenttime="05:20:00" incidentnumber="16150271" address="1100 block Mellon St" type="ARREST" age="33" gender="F" description="*********************************************** &lt;br/&gt;2701, Simple Assault.&lt;br/&gt;"/><marker lat="40.441529843750516" lng="-80.002493735963029" zone="Zone 2" incidentdate="2016-08-12" incidenttime="19:15:00" incidentnumber="16150751" address="5th Ave &amp; Graeme St" type="ARREST" age="54" gender="F" description="*********************************************** &lt;br/&gt;5503, Disorderly Conduct.&lt;br/&gt;5101, Obstructing Admin. of Law&lt;br/&gt;7513, Restriction on Alcoholic Beverages - Open Container&lt;br/&gt;"/><marker lat="40.487492117031167" lng="-79.92019570326714" zone="Zone 5" incidentdate="2016-08-12" incidenttime="12:30:00" incidentnumber="16087793" address="Baker St &amp; Butler St" type="ARREST" age="24" gender="M" description="*********************************************** &lt;br/&gt;13(a)(16), Possession of Controlled Substance&lt;br/&gt;13(a)(32), Paraphernalia - Use or Possession&lt;br/&gt;"/><marker lat="40.446314652723053" lng="-80.016316228653437" zone="Zone 1" incidentdate="2016-08-12" incidenttime="18:50:00" incidentnumber="16150744" address="100 block Art Rooney Ave" type="ARREST" age="20" gender="M" description="*********************************************** &lt;br/&gt;13(a)(31), Marijuana: Possession Small Amount&lt;br/&gt;"/><marker lat="40.393868247768545" lng="-80.005803235629187" zone="Zone 6" incidentdate="2016-08-12" incidenttime="21:07:00" incidentnumber="16150754" address="1500 block Milan Ave" type="ARREST" age="33" gender="M" description="*********************************************** &lt;br/&gt;9501, Bench Warrant&lt;br/&gt;"/><marker lat="40.455109037149178" lng="-80.0010590994724" zone="Zone 1" incidentdate="2016-08-12" incidenttime="01:11:00" incidentnumber="16150209" address="900 block James St" type="ARREST" age="57" gender="M" description="*********************************************** &lt;br/&gt;3802(a)(1), DUI - General Impairment&lt;br/&gt;3802(c), DUI - Highest Rate of Alcohol - BAC &gt;= .16%&lt;br/&gt;"/><marker lat="40.441650742650353" lng="-79.999451753561061" zone="Zone 2" incidentdate="2016-08-12" incidenttime="16:04:00" incidentnumber="16033299" address="300 block 6th Ave" type="ARREST" age="27" gender="F" description="*********************************************** &lt;br/&gt;3921, Theft by Unlawful Taking or Disposition.&lt;br/&gt;3929, Retail Theft.&lt;br/&gt;903, Criminal Conspiracy.&lt;br/&gt;"/><marker lat="40.454038272737556" lng="-79.867341042290406" zone="Zone 5" incidentdate="2016-08-12" incidenttime="16:42:00" incidentnumber="16001463" address="2200 block Wilner Dr" type="ARREST" age="26" gender="M" description="*********************************************** &lt;br/&gt;9501, Bench Warrant&lt;br/&gt;9015, Failure To Appear/Arrest on Attachment Order&lt;br/&gt;2701, Simple Assault.&lt;br/&gt;"/><marker lat="40.453421528804526" lng="-79.892481935834624" zone="Zone 5" incidentdate="2016-08-12" incidenttime="10:59:00" incidentnumber="16135953" address="7500 block Hamilton Ave" type="ARREST" age="22" gender="M" description="*********************************************** &lt;br/&gt;4915, Failure to Comply with Megans Law&lt;br/&gt;"/><marker lat="40.44511004552583" lng="-80.039246537687731" zone="Zone 6" incidentdate="2016-08-12" incidenttime="17:17:00" incidentnumber="16150649" address="700 block Lorenz Ave" type="ARREST" age="30" gender="M" description="*********************************************** &lt;br/&gt;13(a)(16), Possession of Controlled Substance&lt;br/&gt;13(a)(32), Paraphernalia - Use or Possession&lt;br/&gt;9501, Bench Warrant&lt;br/&gt;4914, False Identification to Law Enforcement Authorities&lt;br/&gt;"/><marker lat="40.428759030177126" lng="-80.006457494373649" zone="Zone 3" incidentdate="2016-08-12" incidenttime="23:43:00" incidentnumber="16150863" address="Wyoming St" type="ARREST" age="38" gender="M" description="*********************************************** &lt;br/&gt;2701, Simple Assault.&lt;br/&gt;"/><marker lat="40.468693075773288" lng="-79.961677392158549" zone="Zone 2" incidentdate="2016-08-12" incidenttime="17:55:00" incidentnumber="16150654" address="4000 block Butler St" type="ARREST" age="37" gender="F" description="*********************************************** &lt;br/&gt;5104, Resisting Arrest or Other Law Enforcement.&lt;br/&gt;3921, Theft by Unlawful Taking or Disposition.&lt;br/&gt;"/><marker lat="40.456771710139904" lng="-80.048514981602139" zone="Zone 6" incidentdate="2016-08-12" incidenttime="06:04:00" incidentnumber="16150306" address="200 block Hammond St" type="ARREST" age="25" gender="M" description="*********************************************** &lt;br/&gt;13(a)(16), Possession of Controlled Substance&lt;br/&gt;13(a)(30), Possession w/ Intent to Del. Controlled Substance&lt;br/&gt;3925, Receiving Stolen Property.&lt;br/&gt;6105(a)(1), Persons not to possess, use, manufacture, control, sell or transfer firearms: Former convict enumerated in subsection (b)&lt;br/&gt;"/><marker lat="40.451601893913271" lng="-80.066357338902122" zone="Zone 6" incidentdate="2016-08-12" incidenttime="20:15:00" incidentnumber="16150776" address="3200 block Faronia St" type="ARREST" age="22" gender="M" description="*********************************************** &lt;br/&gt;13(a)(16), Possession of Controlled Substance&lt;br/&gt;13(a)(30), Possession w/ Intent to Del. Controlled Substance&lt;br/&gt;"/><marker lat="40.452725352725054" lng="-79.889190459043618" zone="Zone 5" incidentdate="2016-08-12" incidenttime="12:05:00" incidentnumber="16150437" address="Brushton Ave &amp; Hamilton Ave" type="ARREST" age="53" gender="M" description="*********************************************** &lt;br/&gt;13(a)(16), Possession of Controlled Substance&lt;br/&gt;13(a)(30), Possession w/ Intent to Del. Controlled Substance&lt;br/&gt;1543, Driving While Operating Privilege is Suspended or Revoked.&lt;br/&gt;3334, Turning Movements and Required Signals.&lt;br/&gt;"/><marker lat="40.445365647853407" lng="-80.039325117610801" zone="Zone 6" incidentdate="2016-08-12" incidenttime="20:59:00" incidentnumber="16150795" address="Lakewood St &amp; Navajo Way" type="ARREST" age="18" gender="M" description="*********************************************** &lt;br/&gt;13(a)(31), Marijuana: Possession Small Amount&lt;br/&gt;1543, Driving While Operating Privilege is Suspended or Revoked.&lt;br/&gt;3334, Turning Movements and Required Signals.&lt;br/&gt;3925, Receiving Stolen Property.&lt;br/&gt;"/><marker lat="40.454106142366726" lng="-79.950167023630968" zone="Zone 5" incidentdate="2016-08-12" incidenttime="02:48:00" incidentnumber="16150253" address="4700 block Baum Blvd" type="ARREST" age="44" gender="M" description="*********************************************** &lt;br/&gt;9501, Bench Warrant&lt;br/&gt;1543, Driving While Operating Privilege is Suspended or Revoked.&lt;br/&gt;4303, General Lighting Requirements.&lt;br/&gt;"/><marker lat="40.494733901217757" lng="-80.025856049129573" zone="Zone 1" incidentdate="2016-08-12" incidenttime="18:46:00" incidentnumber="16150690" address="200 block Bascom St" type="ARREST" age="39" gender="F" description="*********************************************** &lt;br/&gt;3745, Accidents Involving Damage to Unattended Veh.or Prop.&lt;br/&gt;3714, Careless Driving&lt;br/&gt;3802(d)(2), DUI - Drug - Impaired Ability&lt;br/&gt;3301, Arson&lt;br/&gt;"/><marker lat="40.391322204500497" lng="-79.985422157567612" zone="Zone 3" incidentdate="2016-08-12" incidenttime="03:20:00" incidentnumber="16150254" address="2200 block Lutz Ave" type="ARREST" age="39" gender="M" description="*********************************************** &lt;br/&gt;2701, Simple Assault.&lt;br/&gt;"/></markers>
