<?xml version="1.0"?>
<markers><marker lat="40.428814179717264" lng="-80.024291780088404" zone="Zone 3" incidentdate="2016-07-25" incidenttime="18:30:00" incidentnumber="16138097" address="800 block Saw Mill Run Blvd" type="OFFENSE" age="" gender="" description="*********************************************** &lt;br/&gt;13(a)(16), Possession of Controlled Substance&lt;br/&gt;13(a)(32), Paraphernalia - Use or Possession&lt;br/&gt;4304(a)(1), Endangering Welfare of Children - Course of Conduct Enhanced&lt;br/&gt;"/><marker lat="40.38515772475057" lng="-79.995148189584569" zone="Zone 3" incidentdate="2016-07-25" incidenttime="15:00:00" incidentnumber="16138014" address="2400 block Saw Mill Run Blvd" type="OFFENSE" age="" gender="" description="*********************************************** &lt;br/&gt;3921(a), Theft by Unlawful Taking or Disposition - Movable item&lt;br/&gt;"/><marker lat="40.366270505082795" lng="-79.91591363067333" zone="Zone 4" incidentdate="2016-07-25" incidenttime="16:44:00" incidentnumber="16137999" address="1200 block Stock St" type="OFFENSE" age="" gender="" description="*********************************************** &lt;br/&gt;9093, Indirect Criminal Contempt&lt;br/&gt;"/><marker lat="40.467460466862967" lng="-79.932863210288346" zone="Zone 5" incidentdate="2016-07-25" incidenttime="17:01:00" incidentnumber="16138026" address="Hillcrest St &amp; Ardary St" type="OFFENSE" age="" gender="" description="*********************************************** &lt;br/&gt;9094, Recovered Stolen Vehicle (OUTSIDE CITY)&lt;br/&gt;"/><marker lat="40.446166059953725" lng="-80.009888994199073" zone="Zone 1" incidentdate="2016-07-25" incidenttime="09:00:00" incidentnumber="16138207" address="North Shore Dr &amp; Tony Dorsett Dr" type="OFFENSE" age="" gender="" description="*********************************************** &lt;br/&gt;3921, Theft by Unlawful Taking or Disposition.&lt;br/&gt;"/><marker lat="40.41659309478456" lng="-79.988157841615688" zone="Zone 3" incidentdate="2016-07-25" incidenttime="21:20:00" incidentnumber="16138174" address="100 block Charles St" type="OFFENSE" age="" gender="" description="*********************************************** &lt;br/&gt;9123, Miscellaneous Fire Other Investigation to Continue&lt;br/&gt;"/><marker lat="40.488081814906529" lng="-79.894317224387123" zone="Zone OSC" incidentdate="2016-07-25" incidenttime="15:00:00" incidentnumber="15138013" address="900 block Freeport Rd" type="OFFENSE" age="" gender="" description="*********************************************** &lt;br/&gt;3924, Theft of Property Lost, Mislaid or Delivered by Mistake.&lt;br/&gt;"/><marker lat="40.452900575587293" lng="-79.888921041538296" zone="Zone 5" incidentdate="2016-07-25" incidenttime="10:42:00" incidentnumber="16137835" address="600 block Brushton Ave" type="OFFENSE" age="" gender="" description="*********************************************** &lt;br/&gt;2706, Terroristic Threats.&lt;br/&gt;"/><marker lat="40.437850264562179" lng="-80.004567110517371" zone="Zone 2" incidentdate="2016-07-25" incidenttime="13:44:00" incidentnumber="16137917" address="Market St" type="OFFENSE" age="" gender="" description="*********************************************** &lt;br/&gt;3921(a), Theft by Unlawful Taking or Disposition - Movable item&lt;br/&gt;"/><marker lat="40.440824068996903" lng="-80.003015961193057" zone="Zone 2" incidentdate="2016-07-25" incidenttime="21:34:00" incidentnumber="16138158" address="Market Sq" type="OFFENSE" age="" gender="" description="*********************************************** &lt;br/&gt;5505, Public Drunkenness&lt;br/&gt;7513, Restriction on Alcoholic Beverages - Open Container&lt;br/&gt;"/><marker lat="40.456572332747427" lng="-80.001487255429311" zone="Zone 5" incidentdate="2016-07-25" incidenttime="20:15:00" incidentnumber="16138150" address="500 block N Dunfermline St" type="OFFENSE" age="" gender="" description="*********************************************** &lt;br/&gt;3743, Accidents Involving Damage to Attended Veh. or Property&lt;br/&gt;"/><marker lat="40.470459852290823" lng="-80.0111378348073" zone="Zone 1" incidentdate="2016-07-25" incidenttime="08:25:00" incidentnumber="16137802" address="2900 block N Charles St" type="OFFENSE" age="" gender="" description="*********************************************** &lt;br/&gt;9501, Bench Warrant&lt;br/&gt;3503, Criminal Trespass&lt;br/&gt;"/><marker lat="40.4539247715024" lng="-79.997839351546148" zone="Zone 1" incidentdate="2016-07-25" incidenttime="19:57:00" incidentnumber="16138141" address="East St &amp; East Ohio St" type="OFFENSE" age="" gender="" description="*********************************************** &lt;br/&gt;9501, Bench Warrant&lt;br/&gt;5507, Obstructing Highways and Passages.&lt;br/&gt;"/><marker lat="40.444137246162867" lng="-79.980591222940689" zone="Zone 2" incidentdate="2016-07-25" incidenttime="17:09:00" incidentnumber="16138030" address="2000 block Wylie Ave" type="OFFENSE" age="" gender="" description="*********************************************** &lt;br/&gt;9999, 9999 - (Misc. Incident):&lt;br/&gt;"/><marker lat="40.451089310825481" lng="-79.897088463961552" zone="Zone 4" incidentdate="2016-07-25" incidenttime="04:44:00" incidentnumber="16137716" address="400 block N Lexington St" type="OFFENSE" age="" gender="" description="*********************************************** &lt;br/&gt;9999, 9999 - (Misc. Incident):&lt;br/&gt;"/><marker lat="40.426315067503658" lng="-79.969102826391776" zone="Zone 2" incidentdate="2016-07-25" incidenttime="07:00:00" incidentnumber="16137784" address="100 block 26th St" type="OFFENSE" age="" gender="" description="*********************************************** &lt;br/&gt;3921(a), Theft by Unlawful Taking or Disposition - Movable item&lt;br/&gt;"/><marker lat="40.442888113190847" lng="-79.997936520552642" zone="Zone 2" incidentdate="2016-07-25" incidenttime="01:40:00" incidentnumber="16137876" address="900 block Liberty Ave" type="OFFENSE" age="" gender="" description="*********************************************** &lt;br/&gt;3921(a), Theft by Unlawful Taking or Disposition - Movable item&lt;br/&gt;4106, Access Device Fraud&lt;br/&gt;"/><marker lat="40.475149057798099" lng="-79.923337054507257" zone="Zone 5" incidentdate="2016-07-25" incidenttime="06:35:00" incidentnumber="16138120" address="1100 block Portland St" type="OFFENSE" age="" gender="" description="*********************************************** &lt;br/&gt;3921, Theft by Unlawful Taking or Disposition.&lt;br/&gt;"/><marker lat="40.465157804159951" lng="-79.922171643415098" zone="Zone 5" incidentdate="2016-07-25" incidenttime="10:14:00" incidentnumber="16137826" address="400 block N Highland Ave" type="OFFENSE" age="" gender="" description="*********************************************** &lt;br/&gt;13(a)(32), Paraphernalia - Use or Possession&lt;br/&gt;3929(a)(1), Retail Theft; takes possession of, carries away, or transfers displayed merchandise&lt;br/&gt;"/><marker lat="40.459707370251863" lng="-79.945845143011766" zone="Zone 5" incidentdate="2016-07-25" incidenttime="17:30:00" incidentnumber="16138121" address="4900 block Liberty Ave" type="OFFENSE" age="" gender="" description="*********************************************** &lt;br/&gt;3921(a), Theft by Unlawful Taking or Disposition - Movable item&lt;br/&gt;"/><marker lat="40.443580942147605" lng="-79.979979097296493" zone="Zone 2" incidentdate="2016-07-25" incidenttime="18:29:00" incidentnumber="16138099" address="2000 block Centre Ave" type="OFFENSE" age="" gender="" description="*********************************************** &lt;br/&gt;9999, 9999 - (Misc. Incident):&lt;br/&gt;"/><marker lat="40.412165395247094" lng="-79.993066811407445" zone="Zone 3" incidentdate="2016-07-25" incidenttime="15:00:00" incidentnumber="16137984" address="300 block Arabella St" type="OFFENSE" age="" gender="" description="*********************************************** &lt;br/&gt;3502, Burglary.&lt;br/&gt;"/><marker lat="40.42959549760031" lng="-79.923356946569484" zone="Zone 4" incidentdate="2016-07-25" incidenttime="04:30:00" incidentnumber="16137711" address="5800 block Forward Ave" type="OFFENSE" age="" gender="" description="*********************************************** &lt;br/&gt;3745, Accidents Involving Damage to Unattended Veh.or Prop.&lt;br/&gt;"/><marker lat="40.442888113190847" lng="-79.997936520552642" zone="Zone 2" incidentdate="2016-07-25" incidenttime="11:45:00" incidentnumber="16137898" address="900 block Liberty Ave" type="OFFENSE" age="" gender="" description="*********************************************** &lt;br/&gt;3929, Retail Theft.&lt;br/&gt;"/><marker lat="40.447243362594605" lng="-79.944148350838816" zone="Zone 4" incidentdate="2016-07-25" incidenttime="13:35:00" incidentnumber="16137919" address="4900 block 5th Ave" type="OFFENSE" age="" gender="" description="*********************************************** &lt;br/&gt;3921, Theft by Unlawful Taking or Disposition.&lt;br/&gt;3503, Criminal Trespass&lt;br/&gt;"/><marker lat="40.458979294669412" lng="-80.079869432359573" zone="Zone 6" incidentdate="2016-07-25" incidenttime="23:50:00" incidentnumber="16138222" address="3800 block Haven St" type="OFFENSE" age="" gender="" description="*********************************************** &lt;br/&gt;9501, Bench Warrant&lt;br/&gt;"/><marker lat="40.461853624774726" lng="-79.897416070395224" zone="Zone 5" incidentdate="2016-07-25" incidenttime="17:00:00" incidentnumber="16138025" address="7100 block Mt Vernon St" type="OFFENSE" age="" gender="" description="*********************************************** &lt;br/&gt;2701, Simple Assault.&lt;br/&gt;"/><marker lat="40.448474919203605" lng="-79.9718399245683" zone="Zone 2" incidentdate="2016-07-25" incidenttime="11:00:00" incidentnumber="16137838" address="600 block Junilla St" type="OFFENSE" age="" gender="" description="*********************************************** &lt;br/&gt;2701, Simple Assault.&lt;br/&gt;"/><marker lat="40.457213430388613" lng="-79.922385601960997" zone="Zone 4" incidentdate="2016-07-25" incidenttime="05:00:00" incidentnumber="16137945" address="Shady Ave &amp; Marchand St" type="OFFENSE" age="" gender="" description="*********************************************** &lt;br/&gt;3921(a), Theft by Unlawful Taking or Disposition - Movable item&lt;br/&gt;"/><marker lat="40.449197467365785" lng="-79.898742327580223" zone="Zone 4" incidentdate="2016-07-25" incidenttime="02:03:00" incidentnumber="16137732" address="100 block N Lexington St" type="OFFENSE" age="" gender="" description="*********************************************** &lt;br/&gt;3502, Burglary.&lt;br/&gt;"/><marker lat="40.4537643" lng="-79.9991557" zone="Zone 1" incidentdate="2016-07-25" incidenttime="00:54:00" incidentnumber="16137631" address="East Ohio St &amp; Middle St" type="OFFENSE" age="" gender="" description="*********************************************** &lt;br/&gt;13(a)(32), Paraphernalia - Use or Possession&lt;br/&gt;9501, Bench Warrant&lt;br/&gt;"/><marker lat="40.440824068996903" lng="-80.003015961193057" zone="Zone 2" incidentdate="2016-07-25" incidenttime="13:44:00" incidentnumber="16137918" address="Market Sq" type="OFFENSE" age="" gender="" description="*********************************************** &lt;br/&gt;3921(a), Theft by Unlawful Taking or Disposition - Movable item&lt;br/&gt;3925, Receiving Stolen Property.&lt;br/&gt;"/><marker lat="40.462107693863139" lng="-79.998541220902496" zone="Zone 1" incidentdate="2016-07-25" incidenttime="15:10:00" incidentnumber="16137988" address="Rostock St" type="OFFENSE" age="" gender="" description="*********************************************** &lt;br/&gt;9496, Dead on Arrival (DOA)&lt;br/&gt;"/><marker lat="40.458535177571832" lng="-79.966427336461976" zone="Zone 2" incidentdate="2016-07-25" incidenttime="12:55:00" incidentnumber="16137894" address="300 block Hancock St" type="OFFENSE" age="" gender="" description="*********************************************** &lt;br/&gt;2701, Simple Assault.&lt;br/&gt;"/><marker lat="40.455504998738647" lng="-80.007850467221047" zone="Zone 4" incidentdate="2016-07-25" incidenttime="00:46:00" incidentnumber="16137629" address="100 block N Dithridge St" type="OFFENSE" age="" gender="" description="*********************************************** &lt;br/&gt;9129, Miscellaneous Investigation&lt;br/&gt;"/><marker lat="40.468504499287285" lng="-80.033183615986189" zone="Zone 1" incidentdate="2016-07-25" incidenttime="02:33:00" incidentnumber="16137673" address="2700 block Plough St" type="OFFENSE" age="" gender="" description="*********************************************** &lt;br/&gt;9999, 9999 - (Misc. Incident):&lt;br/&gt;"/><marker lat="40.465742686724063" lng="-79.981257181433378" zone="Zone 1" incidentdate="2016-07-25" incidenttime="07:00:00" incidentnumber="16137921" address="1900 block Lowrie St" type="OFFENSE" age="" gender="" description="*********************************************** &lt;br/&gt;3921, Theft by Unlawful Taking or Disposition.&lt;br/&gt;"/><marker lat="40.428744598982668" lng="-79.972930519366869" zone="Zone 3" incidentdate="2016-07-25" incidenttime="09:30:00" incidentnumber="16137807" address="2300 block Wrights Way" type="OFFENSE" age="" gender="" description="*********************************************** &lt;br/&gt;4120, Identity Theft&lt;br/&gt;"/><marker lat="40.417520463417553" lng="-79.925863654314981" zone="Zone 4" incidentdate="2016-07-25" incidenttime="17:20:00" incidentnumber="16138080" address="4500 block Browns Hill Rd" type="OFFENSE" age="" gender="" description="*********************************************** &lt;br/&gt;3934, Theft from Vehicle&lt;br/&gt;"/><marker lat="40.405945869548198" lng="-79.986684747502167" zone="Zone 3" incidentdate="2016-07-25" incidenttime="12:00:00" incidentnumber="16138017" address="1000 block Theona St" type="OFFENSE" age="" gender="" description="*********************************************** &lt;br/&gt;3745, Accidents Involving Damage to Unattended Veh.or Prop.&lt;br/&gt;"/><marker lat="40.430020824945359" lng="-79.976813326700821" zone="Zone 3" incidentdate="2016-07-25" incidenttime="19:00:00" incidentnumber="16138111" address="2000 block Wharton St" type="OFFENSE" age="" gender="" description="*********************************************** &lt;br/&gt;3929(a)(1), Retail Theft; takes possession of, carries away, or transfers displayed merchandise&lt;br/&gt;"/><marker lat="40.468488155231974" lng="-79.981531625123097" zone="Zone 1" incidentdate="2016-07-25" incidenttime="05:00:00" incidentnumber="16137728" address="2000 block Veronica St" type="OFFENSE" age="" gender="" description="*********************************************** &lt;br/&gt;3934, Theft from Vehicle&lt;br/&gt;"/><marker lat="40.444983770185388" lng="-79.985358303330813" zone="Zone 2" incidentdate="2016-07-25" incidenttime="11:50:00" incidentnumber="16137888" address="Roberts St" type="OFFENSE" age="" gender="" description="*********************************************** &lt;br/&gt;3304, Criminal Mischief.&lt;br/&gt;"/><marker lat="40.449482675232765" lng="-79.972250560140296" zone="Zone 2" incidentdate="2016-07-25" incidenttime="13:30:00" incidentnumber="16137934" address="2500 block Webster Ave" type="OFFENSE" age="" gender="" description="*********************************************** &lt;br/&gt;2701, Simple Assault.&lt;br/&gt;"/><marker lat="40.450976359208497" lng="-79.983578246487241" zone="Zone 2" incidentdate="2016-07-25" incidenttime="18:15:00" incidentnumber="16138089" address="2000 block Penn Ave" type="OFFENSE" age="" gender="" description="*********************************************** &lt;br/&gt;3743, Accidents Involving Damage to Attended Veh. or Property&lt;br/&gt;"/><marker lat="40.467361556320839" lng="-80.013426380675483" zone="Zone 1" incidentdate="2016-07-25" incidenttime="01:46:00" incidentnumber="16137655" address="2400 block Wilson Ave" type="OFFENSE" age="" gender="" description="*********************************************** &lt;br/&gt;2701, Simple Assault.&lt;br/&gt;"/><marker lat="40.437002815206711" lng="-79.98162065320075" zone="Zone 2" incidentdate="2016-07-25" incidenttime="17:34:00" incidentnumber="16138047" address="300 block Miltenberger St" type="OFFENSE" age="" gender="" description="*********************************************** &lt;br/&gt;5503(a)(1), DISORDERLY CONDUCT - ENGAGE IN FIGHTING&lt;br/&gt;"/><marker lat="40.482879021356389" lng="-80.04453300763744" zone="Zone 1" incidentdate="2016-07-25" incidenttime="13:00:00" incidentnumber="16137908" address="2000 block Termon Ave" type="OFFENSE" age="" gender="" description="*********************************************** &lt;br/&gt;029, Missing Juvenile&lt;br/&gt;"/><marker lat="40.473481220987026" lng="-79.962813878468651" zone="Zone 3" incidentdate="2016-07-25" incidenttime="15:30:00" incidentnumber="16137983" address="100 block S 4th St" type="OFFENSE" age="" gender="" description="*********************************************** &lt;br/&gt;3304, Criminal Mischief.&lt;br/&gt;"/><marker lat="40.4068262" lng="-80.0334832" zone="Zone 6" incidentdate="2016-07-25" incidenttime="07:30:00" incidentnumber="16137753" address="2200 block Denlin St" type="OFFENSE" age="" gender="" description="*********************************************** &lt;br/&gt;3502, Burglary.&lt;br/&gt;"/><marker lat="40.465157804159951" lng="-79.922171643415098" zone="Zone 5" incidentdate="2016-07-25" incidenttime="15:50:00" incidentnumber="16138020" address="400 block N Highland Ave" type="OFFENSE" age="" gender="" description="*********************************************** &lt;br/&gt;3934, Theft from Vehicle&lt;br/&gt;"/><marker lat="40.439120068050713" lng="-79.961787778830598" zone="Zone 4" incidentdate="2016-07-25" incidenttime="10:35:00" incidentnumber="16137873" address="3400 block 5th Ave" type="OFFENSE" age="" gender="" description="*********************************************** &lt;br/&gt;2709(a), Harassment.&lt;br/&gt;"/><marker lat="40.41910505809637" lng="-79.995820009539997" zone="Zone 3" incidentdate="2016-07-25" incidenttime="12:21:00" incidentnumber="16137883" address="Millbridge St" type="OFFENSE" age="" gender="" description="*********************************************** &lt;br/&gt;3921(a), Theft by Unlawful Taking or Disposition - Movable item&lt;br/&gt;"/><marker lat="40.401511522701405" lng="-79.999210833373127" zone="Zone 3" incidentdate="2016-07-25" incidenttime="18:06:00" incidentnumber="16138069" address="1300 block Denise St" type="OFFENSE" age="" gender="" description="*********************************************** &lt;br/&gt;2709(a)(3), Harassment No Legitimate Purpose&lt;br/&gt;"/><marker lat="40.482879021356389" lng="-80.04453300763744" zone="Zone 1" incidentdate="2016-07-25" incidenttime="08:20:00" incidentnumber="16137772" address="2000 block Termon Ave" type="OFFENSE" age="" gender="" description="*********************************************** &lt;br/&gt;029, Missing Juvenile&lt;br/&gt;"/><marker lat="40.452807014739051" lng="-80.00131231589188" zone="Zone 1" incidentdate="2016-07-25" incidenttime="15:24:00" incidentnumber="16137965" address="400 block Avery St" type="OFFENSE" age="" gender="" description="*********************************************** &lt;br/&gt;13(a)(16), Possession of Controlled Substance&lt;br/&gt;13(a)(30), Possession w/ Intent to Del. Controlled Substance&lt;br/&gt;13(a)(31), Marijuana: Possession Small Amount&lt;br/&gt;9501, Bench Warrant&lt;br/&gt;7512, Criminal Use of Communication&lt;br/&gt;"/><marker lat="40.399719144660658" lng="-80.017878365355813" zone="Zone 6" incidentdate="2016-07-25" incidenttime="17:02:00" incidentnumber="16138016" address="2300 block Birtley Ave" type="OFFENSE" age="" gender="" description="*********************************************** &lt;br/&gt;3745, Accidents Involving Damage to Unattended Veh.or Prop.&lt;br/&gt;"/><marker lat="40.464490361835331" lng="-80.028450594341209" zone="Zone 1" incidentdate="2016-07-25" incidenttime="10:25:00" incidentnumber="16137828" address="2400 block Sorrell St" type="OFFENSE" age="" gender="" description="*********************************************** &lt;br/&gt;9018, Accidental Fire&lt;br/&gt;"/><marker lat="40.417616389118407" lng="-79.986460996481767" zone="Zone 3" incidentdate="2016-07-25" incidenttime="07:17:00" incidentnumber="16137750" address="S 18th St &amp; Arlington Ave" type="OFFENSE" age="" gender="" description="*********************************************** &lt;br/&gt;3924, Theft of Property Lost, Mislaid or Delivered by Mistake.&lt;br/&gt;"/><marker lat="40.427908148048772" lng="-79.970792974138448" zone="Zone 3" incidentdate="2016-07-25" incidenttime="16:20:00" incidentnumber="16138007" address="2400 block E Carson St" type="OFFENSE" age="" gender="" description="*********************************************** &lt;br/&gt;3929(a)(1), Retail Theft; takes possession of, carries away, or transfers displayed merchandise&lt;br/&gt;"/><marker lat="40.45923638107994" lng="-80.021452189269368" zone="Zone 1" incidentdate="2016-07-25" incidenttime="13:55:00" incidentnumber="16137924" address="St Marks Pl &amp; Lysle St" type="OFFENSE" age="" gender="" description="*********************************************** &lt;br/&gt;13(a)(16), Possession of Controlled Substance&lt;br/&gt;13(a)(30), Possession w/ Intent to Del. Controlled Substance&lt;br/&gt;1543, Driving While Operating Privilege is Suspended or Revoked.&lt;br/&gt;3334, Turning Movements and Required Signals.&lt;br/&gt;"/><marker lat="40.4427339" lng="-79.9772635" zone="Zone 2" incidentdate="2016-07-25" incidenttime="21:38:00" incidentnumber="16138180" address="100 block Addison St" type="OFFENSE" age="" gender="" description="*********************************************** &lt;br/&gt;9496, Dead on Arrival (DOA)&lt;br/&gt;"/><marker lat="40.399184649147095" lng="-80.025493435297477" zone="Zone 6" incidentdate="2016-07-25" incidenttime="03:55:00" incidentnumber="16137704" address="2500 block West Liberty Ave" type="OFFENSE" age="" gender="" description="*********************************************** &lt;br/&gt;9488, False  Burglar Alarm&lt;br/&gt;"/><marker lat="40.460302578526942" lng="-80.006980071080037" zone="Zone 1" incidentdate="2016-07-25" incidenttime="18:30:00" incidentnumber="16138151" address="1700 block Belleau Dr" type="OFFENSE" age="" gender="" description="*********************************************** &lt;br/&gt;3921, Theft by Unlawful Taking or Disposition.&lt;br/&gt;"/><marker lat="40.429895528979046" lng="-79.996943371527337" zone="Zone 3" incidentdate="2016-07-25" incidenttime="17:00:00" incidentnumber="16138087" address="Terminal Way" type="OFFENSE" age="" gender="" description="*********************************************** &lt;br/&gt;3934, Theft from Vehicle&lt;br/&gt;"/><marker lat="40.466307997772077" lng="-79.924301930003367" zone="Zone 5" incidentdate="2016-07-25" incidenttime="15:53:00" incidentnumber="16137974" address="5800 block East Liberty Blvd" type="OFFENSE" age="" gender="" description="*********************************************** &lt;br/&gt;3304, Criminal Mischief.&lt;br/&gt;"/><marker lat="40.428991306011113" lng="-80.008728471685288" zone="Zone 3" incidentdate="2016-07-25" incidenttime="19:35:00" incidentnumber="16138124" address="100 block Natchez St" type="OFFENSE" age="" gender="" description="*********************************************** &lt;br/&gt;3745, Accidents Involving Damage to Unattended Veh.or Prop.&lt;br/&gt;"/><marker lat="40.465157804159951" lng="-79.922171643415098" zone="Zone 5" incidentdate="2016-07-25" incidenttime="10:39:00" incidentnumber="16137826" address="400 block N Highland Ave" type="ARREST" age="33" gender="M" description="*********************************************** &lt;br/&gt;13(a)(32), Paraphernalia - Use or Possession&lt;br/&gt;3929(a)(1), Retail Theft; takes possession of, carries away, or transfers displayed merchandise&lt;br/&gt;"/><marker lat="40.428814179717264" lng="-80.024291780088404" zone="Zone 3" incidentdate="2016-07-25" incidenttime="18:30:00" incidentnumber="16138097" address="800 block Saw Mill Run Blvd" type="ARREST" age="32" gender="M" description="*********************************************** &lt;br/&gt;13(a)(16), Possession of Controlled Substance&lt;br/&gt;13(a)(32), Paraphernalia - Use or Possession&lt;br/&gt;4304(a)(1), Endangering Welfare of Children - Course of Conduct Enhanced&lt;br/&gt;"/><marker lat="40.4845255" lng="-79.9081988" zone="Zone 5" incidentdate="2016-07-25" incidenttime="08:50:00" incidentnumber="16104754" address="100 block Washington Blvd &amp; Allegheny River Blvd" type="ARREST" age="23" gender="M" description="*********************************************** &lt;br/&gt;13(a)(16), Possession of Controlled Substance&lt;br/&gt;13(a)(32), Paraphernalia - Use or Possession&lt;br/&gt;9015, Failure To Appear/Arrest on Attachment Order&lt;br/&gt;"/><marker lat="40.388741934386147" lng="-80.009221362059762" zone="Zone 6" incidentdate="2016-07-25" incidenttime="11:44:00" incidentnumber="16131836" address="1600 block Seaton St" type="ARREST" age="31" gender="M" description="*********************************************** &lt;br/&gt;4304(a)(1), Endangering Welfare of Children - Course of Conduct Enhanced&lt;br/&gt;"/><marker lat="40.470459852290823" lng="-80.0111378348073" zone="Zone 1" incidentdate="2016-07-25" incidenttime="08:43:00" incidentnumber="16137802" address="2900 block N Charles St" type="ARREST" age="26" gender="M" description="*********************************************** &lt;br/&gt;9501, Bench Warrant&lt;br/&gt;3503, Criminal Trespass&lt;br/&gt;"/><marker lat="40.4537643" lng="-79.9991557" zone="Zone 1" incidentdate="2016-07-25" incidenttime="00:54:00" incidentnumber="16137631" address="East Ohio St &amp; Middle St" type="ARREST" age="30" gender="M" description="*********************************************** &lt;br/&gt;13(a)(32), Paraphernalia - Use or Possession&lt;br/&gt;9501, Bench Warrant&lt;br/&gt;"/><marker lat="40.455504998738647" lng="-80.007850467221047" zone="Zone 5" incidentdate="2016-07-25" incidenttime="13:30:00" incidentnumber="16113807" address="100 block N Pacific Ave" type="ARREST" age="35" gender="M" description="*********************************************** &lt;br/&gt;5104, Resisting Arrest or Other Law Enforcement.&lt;br/&gt;5503(a)(2), DISORDERLY CONDUCT - UNREASONABLE NOISE&lt;br/&gt;"/><marker lat="40.452807014739051" lng="-80.00131231589188" zone="Zone 1" incidentdate="2016-07-25" incidenttime="15:24:00" incidentnumber="16137965" address="400 block Avery St" type="ARREST" age="27" gender="M" description="*********************************************** &lt;br/&gt;13(a)(16), Possession of Controlled Substance&lt;br/&gt;13(a)(30), Possession w/ Intent to Del. Controlled Substance&lt;br/&gt;13(a)(31), Marijuana: Possession Small Amount&lt;br/&gt;9501, Bench Warrant&lt;br/&gt;7512, Criminal Use of Communication&lt;br/&gt;"/><marker lat="40.428758587531433" lng="-79.980561963586084" zone="Zone 3" incidentdate="2016-07-25" incidenttime="11:55:00" incidentnumber="16102612" address="S 18th St &amp; E Carson St" type="ARREST" age="34" gender="M" description="*********************************************** &lt;br/&gt;13(a)(16), Possession of Controlled Substance&lt;br/&gt;13(a)(32), Paraphernalia - Use or Possession&lt;br/&gt;9015, Failure To Appear/Arrest on Attachment Order&lt;br/&gt;5505, Public Drunkenness&lt;br/&gt;"/><marker lat="40.440824068996903" lng="-80.003015961193057" zone="Zone 2" incidentdate="2016-07-25" incidenttime="13:44:00" incidentnumber="16137918" address="Market Sq" type="ARREST" age="26" gender="F" description="*********************************************** &lt;br/&gt;3921(a), Theft by Unlawful Taking or Disposition - Movable item&lt;br/&gt;3925, Receiving Stolen Property.&lt;br/&gt;"/><marker lat="40.45923638107994" lng="-80.021452189269368" zone="Zone 1" incidentdate="2016-07-25" incidenttime="13:55:00" incidentnumber="16137924" address="St Marks Pl &amp; Lysle St" type="ARREST" age="26" gender="M" description="*********************************************** &lt;br/&gt;13(a)(16), Possession of Controlled Substance&lt;br/&gt;13(a)(30), Possession w/ Intent to Del. Controlled Substance&lt;br/&gt;1543, Driving While Operating Privilege is Suspended or Revoked.&lt;br/&gt;3334, Turning Movements and Required Signals.&lt;br/&gt;"/><marker lat="40.480412767851995" lng="-80.040857362064529" zone="Zone 1" incidentdate="2016-07-25" incidenttime="00:54:00" incidentnumber="16088127" address="3600 block California Ave" type="ARREST" age="30" gender="M" description="*********************************************** &lt;br/&gt;3921(a), Theft by Unlawful Taking or Disposition - Movable item&lt;br/&gt;"/><marker lat="40.470459852290823" lng="-80.0111378348073" zone="Zone 1" incidentdate="2016-07-25" incidenttime="08:43:00" incidentnumber="16137774" address="2900 block N Charles St" type="ARREST" age="26" gender="M" description="*********************************************** &lt;br/&gt;3502, Burglary.&lt;br/&gt;9501, Bench Warrant&lt;br/&gt;3921, Theft by Unlawful Taking or Disposition.&lt;br/&gt;"/><marker lat="40.409479185383915" lng="-79.939207469148968" zone="Zone 4" incidentdate="2016-07-25" incidenttime="10:20:00" incidentnumber="16133212" address="5000 block Orinoco St" type="ARREST" age="52" gender="M" description="*********************************************** &lt;br/&gt;3925, Receiving Stolen Property.&lt;br/&gt;6105(a)(1), Persons not to possess, use, manufacture, control, sell or transfer firearms: Former convict enumerated in subsection (b)&lt;br/&gt;"/><marker lat="40.366270505082795" lng="-79.91591363067333" zone="Zone 4" incidentdate="2016-07-25" incidenttime="16:44:00" incidentnumber="16137999" address="1200 block Stock St" type="ARREST" age="58" gender="M" description="*********************************************** &lt;br/&gt;9093, Indirect Criminal Contempt&lt;br/&gt;"/><marker lat="40.424999704574567" lng="-79.968151226123496" zone="Zone 3" incidentdate="2016-07-25" incidenttime="00:30:00" incidentnumber="16137609" address="S 27th St" type="ARREST" age="52" gender="F" description="*********************************************** &lt;br/&gt;5503, Disorderly Conduct.&lt;br/&gt;5505, Public Drunkenness&lt;br/&gt;"/><marker lat="40.435095503606554" lng="-79.993077686753679" zone="Zone 2" incidentdate="2016-07-25" incidenttime="10:40:00" incidentnumber="16132011" address="900 block 2nd Ave" type="ARREST" age="45" gender="M" description="*********************************************** &lt;br/&gt;4915, Failure to Comply with Megans Law&lt;br/&gt;"/><marker lat="40.428814179717264" lng="-80.024291780088404" zone="Zone 3" incidentdate="2016-07-25" incidenttime="18:30:00" incidentnumber="16138097" address="800 block Saw Mill Run Blvd" type="ARREST" age="26" gender="F" description="*********************************************** &lt;br/&gt;13(a)(16), Possession of Controlled Substance&lt;br/&gt;13(a)(32), Paraphernalia - Use or Possession&lt;br/&gt;4304(a)(1), Endangering Welfare of Children - Course of Conduct Enhanced&lt;br/&gt;"/><marker lat="40.390301010687921" lng="-80.01859620759565" zone="Zone 6" incidentdate="2016-07-25" incidenttime="23:50:00" incidentnumber="16074799" address="1000 block Woodbourne Ave" type="ARREST" age="21" gender="M" description="*********************************************** &lt;br/&gt;13(a)(32), Paraphernalia - Use or Possession&lt;br/&gt;9015, Failure To Appear/Arrest on Attachment Order&lt;br/&gt;"/><marker lat="40.435095503606554" lng="-79.993077686753679" zone="Zone 2" incidentdate="2016-07-25" incidenttime="08:55:00" incidentnumber="16089206" address="900 block Second Ave" type="ARREST" age="35" gender="M" description="*********************************************** &lt;br/&gt;3304, Criminal Mischief.&lt;br/&gt;2707, Propulsion of Missiles&lt;br/&gt;2701, Simple Assault.&lt;br/&gt;"/><marker lat="40.4539247715024" lng="-79.997839351546148" zone="Zone 1" incidentdate="2016-07-25" incidenttime="19:57:00" incidentnumber="16138141" address="East St &amp; East Ohio St" type="ARREST" age="56" gender="M" description="*********************************************** &lt;br/&gt;9501, Bench Warrant&lt;br/&gt;5507, Obstructing Highways and Passages.&lt;br/&gt;"/><marker lat="40.437850264562179" lng="-80.004567110517371" zone="Zone 2" incidentdate="2016-07-25" incidenttime="13:44:00" incidentnumber="16137917" address="Market St" type="ARREST" age="26" gender="F" description="*********************************************** &lt;br/&gt;3921(a), Theft by Unlawful Taking or Disposition - Movable item&lt;br/&gt;"/><marker lat="40.437818600399822" lng="-79.963832573222589" zone="Zone 4" incidentdate="2016-07-25" incidenttime="16:40:00" incidentnumber="15225222" address="3300 block 5th Ave" type="ARREST" age="26" gender="M" description="*********************************************** &lt;br/&gt;3922, Theft by Deception.&lt;br/&gt;4101, Forgery.&lt;br/&gt;"/></markers>
