<?xml version="1.0"?>
<markers><marker lat="40.404939361855945" lng="-79.990899233620965" zone="Zone 3" incidentdate="2016-03-28" incidenttime="16:59:00" incidentnumber="16055548" address="1100 block Brownsville Rd" type="OFFENSE" age="" gender="" description="*********************************************** &lt;br/&gt;9501, Bench Warrant&lt;br/&gt;"/><marker lat="40.486799751510013" lng="-80.033484294561617" zone="Zone 1" incidentdate="2016-03-28" incidenttime="14:44:00" incidentnumber="16055488" address="1100 block Benton Ave" type="OFFENSE" age="" gender="" description="*********************************************** &lt;br/&gt;3921(a), Theft by Unlawful Taking or Disposition - Movable item&lt;br/&gt;"/><marker lat="40.489515452514674" lng="-79.930195069342858" zone="Zone 5" incidentdate="2016-03-28" incidenttime="17:16:00" incidentnumber="16055572" address="6600 block Butler St" type="OFFENSE" age="" gender="" description="*********************************************** &lt;br/&gt;9498, 302 (Mental)&lt;br/&gt;"/><marker lat="40.460268383400177" lng="-79.991521549865112" zone="Zone 1" incidentdate="2016-03-28" incidenttime="10:30:00" incidentnumber="16055370" address="1200 block Spring Garden Ave" type="OFFENSE" age="" gender="" description="*********************************************** &lt;br/&gt;3502, Burglary.&lt;br/&gt;"/><marker lat="40.460706790003542" lng="-79.923780776230444" zone="Zone 5" incidentdate="2016-03-28" incidenttime="15:35:00" incidentnumber="16055511" address="6100 block Penn Ave" type="OFFENSE" age="" gender="" description="*********************************************** &lt;br/&gt;3929, Retail Theft.&lt;br/&gt;"/><marker lat="40.441652930044143" lng="-79.992034174465672" zone="Zone 2" incidentdate="2016-03-28" incidenttime="17:35:00" incidentnumber="16055579" address="Washington Pl &amp; Bedford Ave" type="OFFENSE" age="" gender="" description="*********************************************** &lt;br/&gt;5507, Obstructing Highways and Passages.&lt;br/&gt;602.04(b)(2), Aggressive Panhandling&lt;br/&gt;"/><marker lat="40.464222661803049" lng="-79.939792129159841" zone="Zone 5" incidentdate="2016-03-28" incidenttime="16:02:00" incidentnumber="16055523" address="5200 block Penn Ave" type="OFFENSE" age="" gender="" description="*********************************************** &lt;br/&gt;3701, Robbery.&lt;br/&gt;907, Possessing Instruments of Crime.&lt;br/&gt;"/><marker lat="40.471358115513546" lng="-79.898240002334973" zone="Zone 5" incidentdate="2016-03-28" incidenttime="16:30:00" incidentnumber="16055527" address="7000 block Lemington Ave" type="OFFENSE" age="" gender="" description="*********************************************** &lt;br/&gt;4120, Identity Theft&lt;br/&gt;"/><marker lat="40.405045478340348" lng="-80.031799964863225" zone="Zone 6" incidentdate="2016-03-28" incidenttime="03:30:00" incidentnumber="16055206" address="2200 block Boustead St" type="OFFENSE" age="" gender="" description="*********************************************** &lt;br/&gt;9999, 9999 - (Misc. Incident):&lt;br/&gt;"/><marker lat="40.4440951" lng="-80.0027751" zone="Zone 2" incidentdate="2016-03-28" incidenttime="09:11:00" incidentnumber="16055314" address="Fort Duquesne Blvd &amp; 6th St" type="OFFENSE" age="" gender="" description="*********************************************** &lt;br/&gt;3304, Criminal Mischief.&lt;br/&gt;"/><marker lat="40.469240374879526" lng="-79.961584052690043" zone="Zone 2" incidentdate="2016-03-28" incidenttime="15:39:00" incidentnumber="16055509" address="200 block Fisk St" type="OFFENSE" age="" gender="" description="*********************************************** &lt;br/&gt;9999, 9999 - (Misc. Incident):&lt;br/&gt;"/><marker lat="40.415121074302149" lng="-79.988083685854207" zone="Zone 3" incidentdate="2016-03-28" incidenttime="18:10:00" incidentnumber="16055648" address="100 block Rochelle St" type="OFFENSE" age="" gender="" description="*********************************************** &lt;br/&gt;2709(a)(1), Harassment by Physical Contact, or Attempts or Threats&lt;br/&gt;"/><marker lat="40.464855456074744" lng="-79.945719052452006" zone="Zone 5" incidentdate="2016-03-28" incidenttime="04:05:00" incidentnumber="16055238" address="200 block S Millvale Ave" type="OFFENSE" age="" gender="" description="*********************************************** &lt;br/&gt;2701, Simple Assault.&lt;br/&gt;"/><marker lat="40.462731464776375" lng="-79.891761284663687" zone="Zone 5" incidentdate="2016-03-28" incidenttime="03:45:00" incidentnumber="16055230" address="7300 block Everton St" type="OFFENSE" age="" gender="" description="*********************************************** &lt;br/&gt;3745, Accidents Involving Damage to Unattended Veh.or Prop.&lt;br/&gt;"/><marker lat="40.431135693148185" lng="-79.95920277983889" zone="Zone 4" incidentdate="2016-03-28" incidenttime="07:15:00" incidentnumber="16055291" address="Bates St &amp; 2nd Ave" type="OFFENSE" age="" gender="" description="*********************************************** &lt;br/&gt;9999, 9999 - (Misc. Incident):&lt;br/&gt;"/><marker lat="40.456570540716896" lng="-79.977301697787823" zone="Zone 2" incidentdate="2016-03-28" incidenttime="06:00:00" incidentnumber="16055299" address="2700 block Smallman St" type="OFFENSE" age="" gender="" description="*********************************************** &lt;br/&gt;3745, Accidents Involving Damage to Unattended Veh.or Prop.&lt;br/&gt;"/><marker lat="40.389049309059942" lng="-79.985519858598082" zone="Zone 3" incidentdate="2016-03-28" incidenttime="06:00:00" incidentnumber="16055642" address="2300 block Brownsville Rd" type="OFFENSE" age="" gender="" description="*********************************************** &lt;br/&gt;3745, Accidents Involving Damage to Unattended Veh.or Prop.&lt;br/&gt;"/><marker lat="40.415900617060004" lng="-79.99061174896508" zone="Zone 3" incidentdate="2016-03-28" incidenttime="19:43:00" incidentnumber="16055666" address="200 block Zara St" type="OFFENSE" age="" gender="" description="*********************************************** &lt;br/&gt;3304, Criminal Mischief.&lt;br/&gt;"/><marker lat="40.422460083497661" lng="-80.069420591057252" zone="Zone 6" incidentdate="2016-03-28" incidenttime="12:44:00" incidentnumber="16055430" address="2600 block Morange Rd" type="OFFENSE" age="" gender="" description="*********************************************** &lt;br/&gt;9496, Dead on Arrival (DOA)&lt;br/&gt;"/><marker lat="40.457293694208055" lng="-80.013408896787212" zone="Zone 1" incidentdate="2016-03-28" incidenttime="03:30:00" incidentnumber="16055227" address="1500 block Monterey St" type="OFFENSE" age="" gender="" description="*********************************************** &lt;br/&gt;619.18(a), Refuse Collection Times In Residential Zones Between 10PM and 6AM&lt;br/&gt;"/><marker lat="40.420419003327964" lng="-79.933138591268104" zone="Zone 4" incidentdate="2016-03-28" incidenttime="15:30:00" incidentnumber="16055506" address="700 block Montclair St" type="OFFENSE" age="" gender="" description="*********************************************** &lt;br/&gt;3304, Criminal Mischief.&lt;br/&gt;2709, Harassment (Non-Specific)&lt;br/&gt;"/><marker lat="40.450125157301898" lng="-79.970938592790091" zone="Zone 2" incidentdate="2016-03-28" incidenttime="17:15:00" incidentnumber="16055569" address="2600 block Webster Ave" type="OFFENSE" age="" gender="" description="*********************************************** &lt;br/&gt;3304, Criminal Mischief.&lt;br/&gt;2709(a), Harassment.&lt;br/&gt;"/><marker lat="40.41910505809637" lng="-79.995820009539997" zone="Zone 3" incidentdate="2016-03-28" incidenttime="07:45:00" incidentnumber="16055294" address="Millbridge St" type="OFFENSE" age="" gender="" description="*********************************************** &lt;br/&gt;3701, Robbery.&lt;br/&gt;"/><marker lat="40.451472531815462" lng="-79.949109183851704" zone="Zone 4" incidentdate="2016-03-28" incidenttime="00:01:00" incidentnumber="16055540" address="4700 block Wallingford St" type="OFFENSE" age="" gender="" description="*********************************************** &lt;br/&gt;9999, 9999 - (Misc. Incident):&lt;br/&gt;"/><marker lat="40.44121932934393" lng="-80.040028580561383" zone="Zone 6" incidentdate="2016-03-28" incidenttime="18:02:00" incidentnumber="16055600" address="700 block Steuben St" type="OFFENSE" age="" gender="" description="*********************************************** &lt;br/&gt;9497, Aided Case&lt;br/&gt;"/><marker lat="40.424215578915053" lng="-79.968373885968475" zone="Zone 3" incidentdate="2016-03-28" incidenttime="12:00:00" incidentnumber="16055405" address="2800 block Mary St" type="OFFENSE" age="" gender="" description="*********************************************** &lt;br/&gt;2701, Simple Assault.&lt;br/&gt;"/><marker lat="40.4533706" lng="-80.0541324" zone="Zone 6" incidentdate="2016-03-28" incidenttime="16:10:00" incidentnumber="16055662" address="2900 block Sheraden Blvd" type="OFFENSE" age="" gender="" description="*********************************************** &lt;br/&gt;3924, Theft of Property Lost, Mislaid or Delivered by Mistake.&lt;br/&gt;"/><marker lat="40.455395911806399" lng="-80.010663592117709" zone="Zone 1" incidentdate="2016-03-28" incidenttime="14:00:00" incidentnumber="16055409" address="1200 block Palo Alto St" type="OFFENSE" age="" gender="" description="*********************************************** &lt;br/&gt;9496, Dead on Arrival (DOA)&lt;br/&gt;"/><marker lat="40.437295887843689" lng="-80.000221139810591" zone="Zone 2" incidentdate="2016-03-28" incidenttime="13:20:00" incidentnumber="16055447" address="100 block Smithfield St" type="OFFENSE" age="" gender="" description="*********************************************** &lt;br/&gt;9999, 9999 - (Misc. Incident):&lt;br/&gt;"/><marker lat="40.427793861875017" lng="-79.973041884255039" zone="Zone 3" incidentdate="2016-03-28" incidenttime="16:00:00" incidentnumber="16055535" address="2300 block Carey Way" type="OFFENSE" age="" gender="" description="*********************************************** &lt;br/&gt;3921(a), Theft by Unlawful Taking or Disposition - Movable item&lt;br/&gt;"/><marker lat="40.45785679841795" lng="-79.874355945999625" zone="Zone 5" incidentdate="2016-03-28" incidenttime="03:30:00" incidentnumber="16055205" address="8600 block Bricelyn St" type="OFFENSE" age="" gender="" description="*********************************************** &lt;br/&gt;9497, Aided Case&lt;br/&gt;"/><marker lat="40.480239503397634" lng="-80.040358285830678" zone="Zone 1" incidentdate="2016-03-28" incidenttime="20:31:00" incidentnumber="16055688" address="Massachusetts Ave &amp; Davis Ave" type="OFFENSE" age="" gender="" description="*********************************************** &lt;br/&gt;3701, Robbery.&lt;br/&gt;903, Criminal Conspiracy.&lt;br/&gt;"/><marker lat="40.399798282486785" lng="-79.98914686757854" zone="Zone 3" incidentdate="2016-03-28" incidenttime="17:40:00" incidentnumber="16055588" address="600 block Brownsville Rd" type="OFFENSE" age="" gender="" description="*********************************************** &lt;br/&gt;5503(a)(1), DISORDERLY CONDUCT - ENGAGE IN FIGHTING&lt;br/&gt;"/><marker lat="40.456473594608255" lng="-80.05559691973923" zone="Zone 6" incidentdate="2016-03-28" incidenttime="17:00:00" incidentnumber="16055567" address="3100 block Landis St" type="OFFENSE" age="" gender="" description="*********************************************** &lt;br/&gt;3921, Theft by Unlawful Taking or Disposition.&lt;br/&gt;"/><marker lat="40.487801005676396" lng="-80.019268202166529" zone="Zone 1" incidentdate="2016-03-28" incidenttime="18:00:00" incidentnumber="16055604" address="semicir St" type="OFFENSE" age="" gender="" description="*********************************************** &lt;br/&gt;3921(a), Theft by Unlawful Taking or Disposition - Movable item&lt;br/&gt;"/><marker lat="40.427040948223102" lng="-80.009163098121036" zone="Zone 3" incidentdate="2016-03-28" incidenttime="07:32:00" incidentnumber="16055290" address="100 block Southern Ave" type="OFFENSE" age="" gender="" description="*********************************************** &lt;br/&gt;5505, Public Drunkenness&lt;br/&gt;"/><marker lat="40.380374946509988" lng="-79.992391071457774" zone="Zone 3" incidentdate="2016-03-28" incidenttime="12:00:00" incidentnumber="16055459" address="100 block Odette St" type="OFFENSE" age="" gender="" description="*********************************************** &lt;br/&gt;2709, Harassment (Non-Specific)&lt;br/&gt;"/><marker lat="40.430802070924834" lng="-80.009581175018482" zone="Zone 3" incidentdate="2016-03-28" incidenttime="12:12:00" incidentnumber="16055420" address="200 block Virginia Ave" type="OFFENSE" age="" gender="" description="*********************************************** &lt;br/&gt;3929(a)(1), Retail Theft; takes possession of, carries away, or transfers displayed merchandise&lt;br/&gt;"/><marker lat="40.409441337033925" lng="-79.995486377080653" zone="Zone 3" incidentdate="2016-03-28" incidenttime="19:16:00" incidentnumber="16055650" address="800 block Georgia Ave" type="OFFENSE" age="" gender="" description="*********************************************** &lt;br/&gt;3304, Criminal Mischief.&lt;br/&gt;2705, Recklessly Endangering Another Person.&lt;br/&gt;2702, Aggravated Assault.&lt;br/&gt;2701, Simple Assault.&lt;br/&gt;2701(a)(3), Simple Assault - Attempts by Physical Menace&lt;br/&gt;907, Possessing Instruments of Crime.&lt;br/&gt;5503(a)(1), DISORDERLY CONDUCT - ENGAGE IN FIGHTING&lt;br/&gt;"/><marker lat="40.3959697" lng="-80.0261113" zone="Zone 6" incidentdate="2016-03-28" incidenttime="10:00:00" incidentnumber="16055558" address="1000 block Jillson Ave &amp; Plainview Ave" type="OFFENSE" age="" gender="" description="*********************************************** &lt;br/&gt;3921(a), Theft by Unlawful Taking or Disposition - Movable item&lt;br/&gt;1543, Driving While Operating Privilege is Suspended or Revoked.&lt;br/&gt;4303, General Lighting Requirements.&lt;br/&gt;3925, Receiving Stolen Property.&lt;br/&gt;"/><marker lat="40.478846468228319" lng="-80.043103207786132" zone="Zone 1" incidentdate="2016-03-28" incidenttime="11:07:00" incidentnumber="16055380" address="Mckees Rocks Brg &amp; Ohio River Blvd" type="OFFENSE" age="" gender="" description="*********************************************** &lt;br/&gt;9999, 9999 - (Misc. Incident):&lt;br/&gt;"/><marker lat="40.42021627166433" lng="-80.007197600993706" zone="Zone 3" incidentdate="2016-03-28" incidenttime="08:00:00" incidentnumber="16055619" address="Laverne St" type="OFFENSE" age="" gender="" description="*********************************************** &lt;br/&gt;029, Missing Juvenile&lt;br/&gt;"/><marker lat="40.414205883123259" lng="-80.009519955943716" zone="Zone 3" incidentdate="2016-03-28" incidenttime="17:15:00" incidentnumber="16055645" address="Liberty Tunl" type="OFFENSE" age="" gender="" description="*********************************************** &lt;br/&gt;3743, Accidents Involving Damage to Attended Veh. or Property&lt;br/&gt;"/><marker lat="40.419745084735858" lng="-79.933047930760196" zone="Zone 4" incidentdate="2016-03-28" incidenttime="09:35:00" incidentnumber="16055355" address="700 block Hazelwood Ave" type="OFFENSE" age="" gender="" description="*********************************************** &lt;br/&gt;2709(a), Harassment.&lt;br/&gt;"/><marker lat="40.456635323771728" lng="-79.997629051365578" zone="Zone 1" incidentdate="2016-03-28" incidenttime="15:00:00" incidentnumber="16055556" address="800 block Tripoli St" type="OFFENSE" age="" gender="" description="*********************************************** &lt;br/&gt;3502, Burglary.&lt;br/&gt;"/><marker lat="40.421531877189601" lng="-79.993577564166102" zone="Zone 3" incidentdate="2016-03-28" incidenttime="09:00:00" incidentnumber="16055333" address="800 block E Warrington Ave" type="OFFENSE" age="" gender="" description="*********************************************** &lt;br/&gt;2701, Simple Assault.&lt;br/&gt;3503.B1I, DEF. TRESPASS ACTUAL COMMUNICATION&lt;br/&gt;"/><marker lat="40.451135697101371" lng="-79.885737314364846" zone="Zone 5" incidentdate="2016-03-28" incidenttime="20:50:00" incidentnumber="16042364" address="7900 block Inglenook Pl" type="OFFENSE" age="" gender="" description="*********************************************** &lt;br/&gt;2701, Simple Assault.&lt;br/&gt;"/><marker lat="40.427602405332806" lng="-79.984668132181639" zone="Zone 3" incidentdate="2016-03-28" incidenttime="19:00:00" incidentnumber="16055681" address="Uxor Way" type="OFFENSE" age="" gender="" description="*********************************************** &lt;br/&gt;3304, Criminal Mischief.&lt;br/&gt;901, Criminal Attempt&lt;br/&gt;"/><marker lat="40.41910505809637" lng="-79.995820009539997" zone="Zone 3" incidentdate="2016-03-28" incidenttime="19:35:00" incidentnumber="16055699" address="Millbridge St" type="OFFENSE" age="" gender="" description="*********************************************** &lt;br/&gt;9999, 9999 - (Misc. Incident):&lt;br/&gt;"/><marker lat="40.438212087890953" lng="-79.999888011436155" zone="Zone 2" incidentdate="2016-03-28" incidenttime="01:50:00" incidentnumber="16055159" address="Smithfield St &amp; 3rd Ave" type="OFFENSE" age="" gender="" description="*********************************************** &lt;br/&gt;9501, Bench Warrant&lt;br/&gt;"/><marker lat="40.462835232229764" lng="-79.892199542590049" zone="Zone 5" incidentdate="2016-03-28" incidenttime="09:23:00" incidentnumber="16055327" address="7200 block Everton St" type="OFFENSE" age="" gender="" description="*********************************************** &lt;br/&gt;3745, Accidents Involving Damage to Unattended Veh.or Prop.&lt;br/&gt;"/><marker lat="40.41585770010623" lng="-79.988118814925556" zone="Zone 3" incidentdate="2016-03-28" incidenttime="09:24:00" incidentnumber="16055335" address="100 block Zara St" type="OFFENSE" age="" gender="" description="*********************************************** &lt;br/&gt;3921, Theft by Unlawful Taking or Disposition.&lt;br/&gt;2709, Harassment (Non-Specific)&lt;br/&gt;"/><marker lat="40.454948691850667" lng="-80.009640272832598" zone="Zone 1" incidentdate="2016-03-28" incidenttime="12:00:00" incidentnumber="16055550" address="300 block E North Ave" type="OFFENSE" age="" gender="" description="*********************************************** &lt;br/&gt;3934, Theft from Vehicle&lt;br/&gt;"/><marker lat="40.458277237616748" lng="-79.948147381294973" zone="Zone 5" incidentdate="2016-03-28" incidenttime="18:15:00" incidentnumber="16055626" address="4800 block Yew St" type="OFFENSE" age="" gender="" description="*********************************************** &lt;br/&gt;2701, Simple Assault.&lt;br/&gt;"/><marker lat="40.384413993627369" lng="-79.994277181866664" zone="Zone 3" incidentdate="2016-03-28" incidenttime="12:56:00" incidentnumber="16055437" address="Maytide St" type="OFFENSE" age="" gender="" description="*********************************************** &lt;br/&gt;3921, Theft by Unlawful Taking or Disposition.&lt;br/&gt;"/><marker lat="40.3959697" lng="-80.0261113" zone="Zone 6" incidentdate="2016-03-28" incidenttime="18:44:00" incidentnumber="16055558" address="1000 block Jillson Ave &amp; Plainview Ave" type="OFFENSE" age="" gender="" description="*********************************************** &lt;br/&gt;3921(a), Theft by Unlawful Taking or Disposition - Movable item&lt;br/&gt;1543, Driving While Operating Privilege is Suspended or Revoked.&lt;br/&gt;4303, General Lighting Requirements.&lt;br/&gt;3925, Receiving Stolen Property.&lt;br/&gt;"/><marker lat="40.442103943882657" lng="-79.969666775343896" zone="Zone 2" incidentdate="2016-03-28" incidenttime="12:00:00" incidentnumber="16055399" address="400 block Oak Hill Dr" type="OFFENSE" age="" gender="" description="*********************************************** &lt;br/&gt;3502, Burglary.&lt;br/&gt;"/><marker lat="40.465157804159951" lng="-79.922171643415098" zone="Zone 5" incidentdate="2016-03-28" incidenttime="18:35:00" incidentnumber="16055633" address="400 block N.Highland Ave" type="OFFENSE" age="" gender="" description="*********************************************** &lt;br/&gt;3929, Retail Theft.&lt;br/&gt;"/><marker lat="40.453312242754301" lng="-80.001693845474151" zone="Zone 1" incidentdate="2016-03-28" incidenttime="17:29:00" incidentnumber="16055574" address="Cedar Ave &amp; East Ohio St" type="OFFENSE" age="" gender="" description="*********************************************** &lt;br/&gt;3926.C1, THEFT OF SERVICES&lt;br/&gt;"/><marker lat="40.457746324808426" lng="-79.995403647447674" zone="Zone 1" incidentdate="2016-03-28" incidenttime="18:27:00" incidentnumber="16055615" address="Spring Garden Ave &amp; Chestnut St" type="OFFENSE" age="" gender="" description="*********************************************** &lt;br/&gt;13(a)(16), Possession of Controlled Substance&lt;br/&gt;13(a)(30), Possession w/ Intent to Del. Controlled Substance&lt;br/&gt;"/><marker lat="40.438369941847732" lng="-79.986310041229473" zone="Zone 2" incidentdate="2016-03-28" incidenttime="01:51:00" incidentnumber="16055177" address="1400 block 5th Ave" type="OFFENSE" age="" gender="" description="*********************************************** &lt;br/&gt;2701, Simple Assault.&lt;br/&gt;"/><marker lat="40.422769284976525" lng="-79.99164835964271" zone="Zone 3" incidentdate="2016-03-28" incidenttime="10:00:00" incidentnumber="16055379" address="900 block Excelsior St" type="OFFENSE" age="" gender="" description="*********************************************** &lt;br/&gt;3934, Theft from Vehicle&lt;br/&gt;"/><marker lat="40.441652930044143" lng="-79.992034174465672" zone="Zone 2" incidentdate="2016-03-28" incidenttime="17:34:00" incidentnumber="16055579" address="Washington Pl &amp; Bedford Ave" type="ARREST" age="26" gender="M" description="*********************************************** &lt;br/&gt;5507, Obstructing Highways and Passages.&lt;br/&gt;602.04(b)(2), Aggressive Panhandling&lt;br/&gt;"/><marker lat="40.464855456074744" lng="-79.945719052452006" zone="Zone 5" incidentdate="2016-03-28" incidenttime="04:35:00" incidentnumber="16055238" address="200 block S Millvale Ave" type="ARREST" age="26" gender="M" description="*********************************************** &lt;br/&gt;2701, Simple Assault.&lt;br/&gt;"/><marker lat="40.457746324808426" lng="-79.995403647447674" zone="Zone 1" incidentdate="2016-03-28" incidenttime="18:30:00" incidentnumber="16055615" address="Spring Garden Ave &amp; Chestnut St" type="ARREST" age="18" gender="M" description="*********************************************** &lt;br/&gt;13(a)(16), Possession of Controlled Substance&lt;br/&gt;13(a)(30), Possession w/ Intent to Del. Controlled Substance&lt;br/&gt;"/><marker lat="40.4506264" lng="-79.8681232" zone="Zone 5" incidentdate="2016-03-28" incidenttime="06:50:00" incidentnumber="14222536" address="1900 block Robinson Blvd" type="ARREST" age="45" gender="M" description="*********************************************** &lt;br/&gt;3925, Receiving Stolen Property.&lt;br/&gt;4101, Forgery.&lt;br/&gt;"/><marker lat="40.4406248" lng="-79.9958864" zone="Zone 3" incidentdate="2016-03-28" incidenttime="16:10:00" incidentnumber="15117585" address="W Carson St &amp; West End Cir Ramp" type="ARREST" age="35" gender="M" description="*********************************************** &lt;br/&gt;2701(a)(1), Simple Assault - Intent., Know., Reckless.Cause Bod. Injury&lt;br/&gt;"/><marker lat="40.408831157052688" lng="-80.037888824561506" zone="Zone 6" incidentdate="2016-03-28" incidenttime="14:30:00" incidentnumber="15146056" address="1100 block Carnahan Rd" type="ARREST" age="46" gender="M" description="*********************************************** &lt;br/&gt;2709(a)(4), Harassment Communicates Prohibited Acts&lt;br/&gt;2706, Terroristic Threats.&lt;br/&gt;2709(b), Stalking&lt;br/&gt;4952, Intimidation of Witnesses or Victims&lt;br/&gt;"/><marker lat="40.455504998738647" lng="-80.007850467221047" zone="Zone 5" incidentdate="2016-03-28" incidenttime="08:10:00" incidentnumber="16038348" address="100 block N Millvale Ave" type="ARREST" age="38" gender="F" description="*********************************************** &lt;br/&gt;3502, Burglary.&lt;br/&gt;2701, Simple Assault.&lt;br/&gt;"/><marker lat="40.465157804159951" lng="-79.922171643415098" zone="Zone 5" incidentdate="2016-03-28" incidenttime="19:00:00" incidentnumber="16055633" address="400 block N.Highland Ave" type="ARREST" age="47" gender="M" description="*********************************************** &lt;br/&gt;3929, Retail Theft.&lt;br/&gt;"/><marker lat="40.451209746298005" lng="-80.021965140261187" zone="Zone 1" incidentdate="2016-03-28" incidenttime="13:30:00" incidentnumber="15064663" address="1200 block Western Ave" type="ARREST" age="43" gender="" description="*********************************************** &lt;br/&gt;13(a)(16), Possession of Controlled Substance&lt;br/&gt;3921(a), Theft by Unlawful Taking or Disposition - Movable item&lt;br/&gt;1543, Driving While Operating Privilege is Suspended or Revoked.&lt;br/&gt;3925, Receiving Stolen Property.&lt;br/&gt;3928, Unauthorized Use of Automobile and Other Vehicles.&lt;br/&gt;"/><marker lat="40.404939361855945" lng="-79.990899233620965" zone="Zone 3" incidentdate="2016-03-28" incidenttime="17:06:00" incidentnumber="16055548" address="1100 block Brownsville Rd" type="ARREST" age="26" gender="M" description="*********************************************** &lt;br/&gt;9501, Bench Warrant&lt;br/&gt;"/><marker lat="40.409441337033925" lng="-79.995486377080653" zone="Zone 3" incidentdate="2016-03-28" incidenttime="19:46:00" incidentnumber="16055650" address="800 block Georgia Ave" type="ARREST" age="32" gender="F" description="*********************************************** &lt;br/&gt;3304, Criminal Mischief.&lt;br/&gt;2705, Recklessly Endangering Another Person.&lt;br/&gt;2702, Aggravated Assault.&lt;br/&gt;2701, Simple Assault.&lt;br/&gt;2701(a)(3), Simple Assault - Attempts by Physical Menace&lt;br/&gt;907, Possessing Instruments of Crime.&lt;br/&gt;5503(a)(1), DISORDERLY CONDUCT - ENGAGE IN FIGHTING&lt;br/&gt;"/><marker lat="40.437818600399822" lng="-79.963832573222589" zone="Zone 4" incidentdate="2016-03-28" incidenttime="11:20:00" incidentnumber="15225222" address="3300 block 5th Ave" type="ARREST" age="21" gender="F" description="*********************************************** &lt;br/&gt;3922, Theft by Deception.&lt;br/&gt;4101, Forgery.&lt;br/&gt;"/><marker lat="40.443610698976059" lng="-79.998043561602501" zone="Zone 2" incidentdate="2016-03-28" incidenttime="09:00:00" incidentnumber="16016610" address="900 block Penn Ave" type="ARREST" age="45" gender="F" description="*********************************************** &lt;br/&gt;3921, Theft by Unlawful Taking or Disposition.&lt;br/&gt;"/><marker lat="40.451135697101371" lng="-79.885737314364846" zone="Zone 5" incidentdate="2016-03-28" incidenttime="20:50:00" incidentnumber="16042364" address="7900 block Inglenook Pl" type="ARREST" age="19" gender="F" description="*********************************************** &lt;br/&gt;2701, Simple Assault.&lt;br/&gt;"/><marker lat="40.3959697" lng="-80.0261113" zone="Zone 6" incidentdate="2016-03-28" incidenttime="18:53:00" incidentnumber="16055558" address="1000 block Jillson Ave &amp; Plainview Ave" type="ARREST" age="22" gender="M" description="*********************************************** &lt;br/&gt;3921(a), Theft by Unlawful Taking or Disposition - Movable item&lt;br/&gt;1543, Driving While Operating Privilege is Suspended or Revoked.&lt;br/&gt;4303, General Lighting Requirements.&lt;br/&gt;3925, Receiving Stolen Property.&lt;br/&gt;"/><marker lat="40.438212087890953" lng="-79.999888011436155" zone="Zone 2" incidentdate="2016-03-28" incidenttime="02:20:00" incidentnumber="16055159" address="Smithfield St &amp; 3rd Ave" type="ARREST" age="28" gender="M" description="*********************************************** &lt;br/&gt;9501, Bench Warrant&lt;br/&gt;"/><marker lat="40.393868247768545" lng="-80.005803235629187" zone="Zone 6" incidentdate="2016-03-28" incidenttime="12:00:00" incidentnumber="16008789" address="1500 block Milan Ave" type="ARREST" age="30" gender="M" description="*********************************************** &lt;br/&gt;3921(a), Theft by Unlawful Taking or Disposition - Movable item&lt;br/&gt;903, Criminal Conspiracy.&lt;br/&gt;4106, Access Device Fraud&lt;br/&gt;"/><marker lat="40.441234571705877" lng="-80.003477050749922" zone="Zone 2" incidentdate="2016-03-28" incidenttime="10:00:00" incidentnumber="16023317" address="500 block Liberty Ave" type="ARREST" age="19" gender="F" description="*********************************************** &lt;br/&gt;2701, Simple Assault.&lt;br/&gt;"/><marker lat="40.424215578915053" lng="-79.968373885968475" zone="Zone 3" incidentdate="2016-03-28" incidenttime="14:45:00" incidentnumber="16055405" address="2800 block Mary St" type="ARREST" age="22" gender="M" description="*********************************************** &lt;br/&gt;2701, Simple Assault.&lt;br/&gt;"/><marker lat="40.4346727" lng="-80.0556319" zone="Zone 6" incidentdate="2016-03-28" incidenttime="14:30:00" incidentnumber="16035333" address="100 block Keever Ave" type="ARREST" age="33" gender="M" description="*********************************************** &lt;br/&gt;3921(a), Theft by Unlawful Taking or Disposition - Movable item&lt;br/&gt;1786, Required Financial Responsibility.&lt;br/&gt;3925, Receiving Stolen Property.&lt;br/&gt;"/><marker lat="40.464222661803049" lng="-79.939792129159841" zone="Zone 5" incidentdate="2016-03-28" incidenttime="16:19:00" incidentnumber="16055523" address="5200 block Penn Ave" type="ARREST" age="46" gender="M" description="*********************************************** &lt;br/&gt;3701, Robbery.&lt;br/&gt;907, Possessing Instruments of Crime.&lt;br/&gt;"/></markers>
