<?xml version="1.0"?>
<markers><marker lat="40.439711648090977" lng="-80.023871358922051" zone="Zone 3" incidentdate="2016-05-02" incidenttime="11:00:00" incidentnumber="16080114" address="200 block Shaler St" type="OFFENSE" age="" gender="" description="*********************************************** &lt;br/&gt;3934, Theft from Vehicle&lt;br/&gt;"/><marker lat="40.488209834026463" lng="-80.015158575586483" zone="Zone 1" incidentdate="2016-05-02" incidenttime="14:15:00" incidentnumber="16080029" address="3800 block East St" type="OFFENSE" age="" gender="" description="*********************************************** &lt;br/&gt;3304, Criminal Mischief.&lt;br/&gt;2709(a)(1), Harassment by Physical Contact, or Attempts or Threats&lt;br/&gt;"/><marker lat="40.432040302290311" lng="-79.954566962677859" zone="Zone 4" incidentdate="2016-05-02" incidenttime="07:30:00" incidentnumber="16079821" address="200 block Holmes Pl" type="OFFENSE" age="" gender="" description="*********************************************** &lt;br/&gt;3502, Burglary.&lt;br/&gt;3921, Theft by Unlawful Taking or Disposition.&lt;br/&gt;"/><marker lat="40.454604327318499" lng="-80.032094848862769" zone="Zone 1" incidentdate="2016-05-02" incidenttime="10:00:00" incidentnumber="16079885" address="1500 block Preble Ave" type="OFFENSE" age="" gender="" description="*********************************************** &lt;br/&gt;3304, Criminal Mischief.&lt;br/&gt;607.03, Discharging Firearm or Airgun&lt;br/&gt;"/><marker lat="40.439375459635848" lng="-80.00122331354693" zone="Zone 2" incidentdate="2016-05-02" incidenttime="17:40:00" incidentnumber="16080277" address="400 block WOOD St" type="OFFENSE" age="" gender="" description="*********************************************** &lt;br/&gt;2701(a)(1), Simple Assault - Intent., Know., Reckless.Cause Bod. Injury&lt;br/&gt;"/><marker lat="40.43278204676664" lng="-80.013780319727047" zone="Zone 3" incidentdate="2016-05-02" incidenttime="11:00:00" incidentnumber="16077920" address="200 block Merrimac St" type="OFFENSE" age="" gender="" description="*********************************************** &lt;br/&gt;029, Missing Juvenile&lt;br/&gt;"/><marker lat="40.455880560530979" lng="-79.946666863112242" zone="Zone 5" incidentdate="2016-05-02" incidenttime="12:02:00" incidentnumber="16079953" address="200 block Morewood Ave" type="OFFENSE" age="" gender="" description="*********************************************** &lt;br/&gt;3745, Accidents Involving Damage to Unattended Veh.or Prop.&lt;br/&gt;"/><marker lat="40.388202244054021" lng="-79.976352842141608" zone="Zone 3" incidentdate="2016-05-02" incidenttime="19:19:00" incidentnumber="16080231" address="200 block Spencer Ave" type="OFFENSE" age="" gender="" description="*********************************************** &lt;br/&gt;2709, Harassment (Non-Specific)&lt;br/&gt;"/><marker lat="40.472494079047131" lng="-79.921791179216015" zone="Zone 5" incidentdate="2016-05-02" incidenttime="15:40:00" incidentnumber="16080078" address="N Euclid Ave &amp; Paca Way" type="OFFENSE" age="" gender="" description="*********************************************** &lt;br/&gt;2702, Aggravated Assault.&lt;br/&gt;3701, Robbery.&lt;br/&gt;"/><marker lat="40.399174420498802" lng="-80.025043951588088" zone="Zone 6" incidentdate="2016-05-02" incidenttime="01:42:00" incidentnumber="16079693" address="Saranac Ave &amp; West Liberty Ave" type="OFFENSE" age="" gender="" description="*********************************************** &lt;br/&gt;601.16(b)(1)(a), Any Person who urinates or defecates in, on, or about any public place&lt;br/&gt;"/><marker lat="40.438227598393112" lng="-79.996055817744775" zone="Zone 2" incidentdate="2016-05-02" incidenttime="19:10:00" incidentnumber="16080221" address="Forbes Ave &amp; Ross St" type="OFFENSE" age="" gender="" description="*********************************************** &lt;br/&gt;029, Missing Juvenile&lt;br/&gt;"/><marker lat="40.420494569168568" lng="-79.991155461070917" zone="Zone 3" incidentdate="2016-05-02" incidenttime="10:10:00" incidentnumber="16079879" address="900 block Proctor Way" type="OFFENSE" age="" gender="" description="*********************************************** &lt;br/&gt;2709(a)(1), Harassment by Physical Contact, or Attempts or Threats&lt;br/&gt;"/><marker lat="40.4256533770955" lng="-80.008534564583826" zone="Zone 3" incidentdate="2016-05-02" incidenttime="11:30:00" incidentnumber="16080106" address="300 block Boggs Ave" type="OFFENSE" age="" gender="" description="*********************************************** &lt;br/&gt;3304, Criminal Mischief.&lt;br/&gt;"/><marker lat="40.452019331633622" lng="-79.930925096466027" zone="Zone 4" incidentdate="2016-05-02" incidenttime="09:00:00" incidentnumber="16079997" address="5700 block WALNUT St" type="OFFENSE" age="" gender="" description="*********************************************** &lt;br/&gt;3921, Theft by Unlawful Taking or Disposition.&lt;br/&gt;"/><marker lat="40.470999082785468" lng="-79.89674879734207" zone="Zone 5" incidentdate="2016-05-02" incidenttime="08:05:00" incidentnumber="16079810" address="7100 block Churchland St" type="OFFENSE" age="" gender="" description="*********************************************** &lt;br/&gt;2709(a), Harassment.&lt;br/&gt;"/><marker lat="40.459935996095638" lng="-79.947612973147926" zone="Zone 5" incidentdate="2016-05-02" incidenttime="22:19:00" incidentnumber="16080343" address="500 block S Mathilda St" type="OFFENSE" age="" gender="" description="*********************************************** &lt;br/&gt;3502, Burglary.&lt;br/&gt;3304, Criminal Mischief.&lt;br/&gt;3921(a), Theft by Unlawful Taking or Disposition - Movable item&lt;br/&gt;"/><marker lat="40.445340844716469" lng="-80.044307399173803" zone="Zone 6" incidentdate="2016-05-02" incidenttime="12:55:00" incidentnumber="16079978" address="1200 block Crucible St" type="OFFENSE" age="" gender="" description="*********************************************** &lt;br/&gt;9488, False  Burglar Alarm&lt;br/&gt;"/><marker lat="40.427214666666025" lng="-79.936985368296916" zone="Zone 4" incidentdate="2016-05-02" incidenttime="07:00:00" incidentnumber="16079844" address="4000 block Beechwood Blvd" type="OFFENSE" age="" gender="" description="*********************************************** &lt;br/&gt;3921(a), Theft by Unlawful Taking or Disposition - Movable item&lt;br/&gt;3304(a)(5), CRIMINAL MISCHIEF - Intentionally Damages Real Or Personal Property Of Another&lt;br/&gt;"/><marker lat="40.460133896179386" lng="-80.063321446122828" zone="Zone 6" incidentdate="2016-05-02" incidenttime="18:29:00" incidentnumber="16080207" address="3700 block Allendale Cir" type="OFFENSE" age="" gender="" description="*********************************************** &lt;br/&gt;2705, Recklessly Endangering Another Person.&lt;br/&gt;3701, Robbery.&lt;br/&gt;903, Criminal Conspiracy.&lt;br/&gt;2701(a)(3), Simple Assault - Attempts by Physical Menace&lt;br/&gt;3702, Robbery of Motor Vehicle.&lt;br/&gt;"/><marker lat="40.438228962475506" lng="-79.977544615311203" zone="Zone 2" incidentdate="2016-05-02" incidenttime="02:22:00" incidentnumber="16079713" address="Wyandotte St &amp; 5th Ave" type="OFFENSE" age="" gender="" description="*********************************************** &lt;br/&gt;13(a)(32), Paraphernalia - Use or Possession&lt;br/&gt;1543, Driving While Operating Privilege is Suspended or Revoked.&lt;br/&gt;4303, General Lighting Requirements.&lt;br/&gt;"/><marker lat="40.444154918874105" lng="-80.042742082396941" zone="Zone 6" incidentdate="2016-05-02" incidenttime="10:39:00" incidentnumber="16079896" address="1100 block Crucible St" type="OFFENSE" age="" gender="" description="*********************************************** &lt;br/&gt;029, Missing Juvenile&lt;br/&gt;"/><marker lat="40.454881381029061" lng="-80.002193759671329" zone="Zone 1" incidentdate="2016-05-02" incidenttime="18:04:00" incidentnumber="16080195" address="Cedar Ave &amp; Suismon St" type="OFFENSE" age="" gender="" description="*********************************************** &lt;br/&gt;9999, 9999 - (Misc. Incident):&lt;br/&gt;"/><marker lat="40.419811344308712" lng="-79.99597780387883" zone="Zone 3" incidentdate="2016-05-02" incidenttime="21:00:00" incidentnumber="16080300" address="300 block Millbridge St" type="OFFENSE" age="" gender="" description="*********************************************** &lt;br/&gt;3304, Criminal Mischief.&lt;br/&gt;"/><marker lat="40.420757899180167" lng="-79.904247207316104" zone="Zone 4" incidentdate="2016-05-02" incidenttime="16:25:00" incidentnumber="16080110" address="1200 block Uptegraf St" type="OFFENSE" age="" gender="" description="*********************************************** &lt;br/&gt;9492, Dog Bite&lt;br/&gt;"/><marker lat="40.4374348" lng="-80.0027975" zone="Zone 2" incidentdate="2016-05-02" incidenttime="20:28:00" incidentnumber="16080274" address="200 block Fort Pitt Blvd" type="OFFENSE" age="" gender="" description="*********************************************** &lt;br/&gt;9489, Found Property&lt;br/&gt;"/><marker lat="40.457561568593881" lng="-79.917422514167981" zone="Zone 5" incidentdate="2016-05-02" incidenttime="17:30:00" incidentnumber="16080178" address="6400 block Penn Ave" type="OFFENSE" age="" gender="" description="*********************************************** &lt;br/&gt;3934, Theft from Vehicle&lt;br/&gt;"/><marker lat="40.438005896444679" lng="-80.025269779246813" zone="Zone 3" incidentdate="2016-05-02" incidenttime="07:00:00" incidentnumber="16079819" address="300 block Shaler St" type="OFFENSE" age="" gender="" description="*********************************************** &lt;br/&gt;3934, Theft from Vehicle&lt;br/&gt;"/><marker lat="40.441585644262638" lng="-80.037814826665681" zone="Zone 6" incidentdate="2016-05-02" incidenttime="23:36:00" incidentnumber="16080370" address="700 block Linhart St" type="OFFENSE" age="" gender="" description="*********************************************** &lt;br/&gt;13(a)(32), Paraphernalia - Use or Possession&lt;br/&gt;5506, Loitering and Prowling at Night&lt;br/&gt;"/><marker lat="40.468929851214341" lng="-80.034410511196512" zone="Zone 1" incidentdate="2016-05-02" incidenttime="23:27:00" incidentnumber="16080357" address="2800 block Pitler St" type="OFFENSE" age="" gender="" description="*********************************************** &lt;br/&gt;9497, Aided Case&lt;br/&gt;"/><marker lat="40.426969028595799" lng="-80.005240133206257" zone="Zone 3" incidentdate="2016-05-02" incidenttime="21:30:00" incidentnumber="16080313" address="Ruth St" type="OFFENSE" age="" gender="" description="*********************************************** &lt;br/&gt;2709, Harassment (Non-Specific)&lt;br/&gt;"/><marker lat="40.457979452652395" lng="-80.055018758938502" zone="Zone 6" incidentdate="2016-05-02" incidenttime="02:20:00" incidentnumber="16079701" address="Ashlyn St &amp; Zephyr Ave" type="OFFENSE" age="" gender="" description="*********************************************** &lt;br/&gt;9999, 9999 - (Misc. Incident):&lt;br/&gt;"/><marker lat="40.460302578526942" lng="-80.006980071080037" zone="Zone 1" incidentdate="2016-05-02" incidenttime="15:40:00" incidentnumber="16080072" address="1700 block Belleau Dr" type="OFFENSE" age="" gender="" description="*********************************************** &lt;br/&gt;9488, False  Burglar Alarm&lt;br/&gt;"/><marker lat="40.452807014739051" lng="-80.00131231589188" zone="Zone 1" incidentdate="2016-05-02" incidenttime="15:50:00" incidentnumber="16080105" address="400 block Avery St" type="OFFENSE" age="" gender="" description="*********************************************** &lt;br/&gt;908, Prohibited Offensive Weapons.&lt;br/&gt;7512, Criminal Use of Communication&lt;br/&gt;"/><marker lat="40.44450325293208" lng="-79.987299736405248" zone="Zone 2" incidentdate="2016-05-02" incidenttime="06:30:00" incidentnumber="16080094" address="1600 block Bedford Ave" type="OFFENSE" age="" gender="" description="*********************************************** &lt;br/&gt;2701(a)(3), Simple Assault - Attempts by Physical Menace&lt;br/&gt;"/><marker lat="40.444050132626856" lng="-79.988136153857312" zone="Zone 2" incidentdate="2016-05-02" incidenttime="19:32:00" incidentnumber="16080245" address="Crawford St &amp; Bedford Ave" type="OFFENSE" age="" gender="" description="*********************************************** &lt;br/&gt;9489, Found Property&lt;br/&gt;"/><marker lat="40.4348635" lng="-80.0223728" zone="Zone 3" incidentdate="2016-05-02" incidenttime="08:00:00" incidentnumber="16079831" address="500 block Sweetbriar St" type="OFFENSE" age="" gender="" description="*********************************************** &lt;br/&gt;3934, Theft from Vehicle&lt;br/&gt;"/><marker lat="40.452042212663898" lng="-80.008738896002342" zone="Zone 1" incidentdate="2016-05-02" incidenttime="23:30:00" incidentnumber="16080374" address="200 block Ridge Ave" type="OFFENSE" age="" gender="" description="*********************************************** &lt;br/&gt;029, Missing Juvenile&lt;br/&gt;"/><marker lat="40.460623402161843" lng="-79.932766652756285" zone="Zone 5" incidentdate="2016-05-02" incidenttime="15:00:00" incidentnumber="16080261" address="300 block S Negley Ave" type="OFFENSE" age="" gender="" description="*********************************************** &lt;br/&gt;3934, Theft from Vehicle&lt;br/&gt;"/><marker lat="40.446754611217841" lng="-79.978798970700083" zone="Zone 2" incidentdate="2016-05-02" incidenttime="18:20:00" incidentnumber="16080212" address="Elmore St" type="OFFENSE" age="" gender="" description="*********************************************** &lt;br/&gt;3304, Criminal Mischief.&lt;br/&gt;3921(a), Theft by Unlawful Taking or Disposition - Movable item&lt;br/&gt;"/><marker lat="40.44407370664036" lng="-79.995357300383887" zone="Zone 3" incidentdate="2016-05-02" incidenttime="08:00:00" incidentnumber="16079870" address="10th St" type="OFFENSE" age="" gender="" description="*********************************************** &lt;br/&gt;473.02 (b), Deposit or Dump Trash&lt;br/&gt;"/><marker lat="40.450178046578024" lng="-79.949737536801663" zone="Zone 4" incidentdate="2016-05-02" incidenttime="16:00:00" incidentnumber="16080225" address="200 block Melwood Ave" type="OFFENSE" age="" gender="" description="*********************************************** &lt;br/&gt;3922, Theft by Deception.&lt;br/&gt;"/><marker lat="40.42127287812697" lng="-79.992005012476255" zone="Zone 3" incidentdate="2016-05-02" incidenttime="04:27:00" incidentnumber="16079751" address="900 block Manton Way" type="OFFENSE" age="" gender="" description="*********************************************** &lt;br/&gt;3934, Theft from Vehicle&lt;br/&gt;"/><marker lat="40.438005896444679" lng="-80.025269779246813" zone="Zone 3" incidentdate="2016-05-02" incidenttime="08:00:00" incidentnumber="16079850" address="300 block Shaler St" type="OFFENSE" age="" gender="" description="*********************************************** &lt;br/&gt;3934, Theft from Vehicle&lt;br/&gt;"/><marker lat="40.41991043826863" lng="-80.030268069432026" zone="Zone 6" incidentdate="2016-05-02" incidenttime="00:40:00" incidentnumber="16079710" address="1100 block Banksville Rd" type="OFFENSE" age="" gender="" description="*********************************************** &lt;br/&gt;3934, Theft from Vehicle&lt;br/&gt;"/><marker lat="40.452966162510073" lng="-79.891011747036316" zone="Zone 5" incidentdate="2016-05-02" incidenttime="18:05:00" incidentnumber="16080191" address="7600 block Hamilton Ave" type="OFFENSE" age="" gender="" description="*********************************************** &lt;br/&gt;4303, General Lighting Requirements.&lt;br/&gt;13(a)(31)(i), Marijuana - Possess Small Amt for Personal Use&lt;br/&gt;"/><marker lat="40.478655848187707" lng="-79.900606800476623" zone="Zone 5" incidentdate="2016-05-02" incidenttime="19:44:00" incidentnumber="16080246" address="7100 block Highland Dr" type="OFFENSE" age="" gender="" description="*********************************************** &lt;br/&gt;2709(a), Harassment.&lt;br/&gt;"/><marker lat="40.454136833164974" lng="-80.001939797868459" zone="Zone 1" incidentdate="2016-05-02" incidenttime="12:45:00" incidentnumber="16079971" address="400 block Foreland St" type="OFFENSE" age="" gender="" description="*********************************************** &lt;br/&gt;9501, Bench Warrant&lt;br/&gt;"/><marker lat="40.439134875179292" lng="-79.980460317668332" zone="Zone 2" incidentdate="2016-05-02" incidenttime="12:28:00" incidentnumber="16079959" address="200 block Dinwiddie St" type="OFFENSE" age="" gender="" description="*********************************************** &lt;br/&gt;13(a)(16), Possession of Controlled Substance&lt;br/&gt;4910, Tampering with or Fabricating Physical Evidence.&lt;br/&gt;1543, Driving While Operating Privilege is Suspended or Revoked.&lt;br/&gt;"/><marker lat="40.452931212106165" lng="-79.901362272561926" zone="Zone 4" incidentdate="2016-05-02" incidenttime="03:14:00" incidentnumber="16079725" address="N Lang Ave &amp; Jonathan St" type="OFFENSE" age="" gender="" description="*********************************************** &lt;br/&gt;13(a)(31), Marijuana: Possession Small Amount&lt;br/&gt;13(a)(32), Paraphernalia - Use or Possession&lt;br/&gt;3354, Additional Parking Regulations.&lt;br/&gt;"/><marker lat="40.456107235126581" lng="-80.014188093760751" zone="Zone 1" incidentdate="2016-05-02" incidenttime="12:00:00" incidentnumber="16080206" address="1300 block Buena Vista St" type="OFFENSE" age="" gender="" description="*********************************************** &lt;br/&gt;3745, Accidents Involving Damage to Unattended Veh.or Prop.&lt;br/&gt;"/><marker lat="40.451596698259479" lng="-80.023856600561061" zone="Zone 1" incidentdate="2016-05-02" incidenttime="17:47:00" incidentnumber="16080184" address="Page St &amp; Fulton St" type="OFFENSE" age="" gender="" description="*********************************************** &lt;br/&gt;3745, Accidents Involving Damage to Unattended Veh.or Prop.&lt;br/&gt;"/><marker lat="40.379368360696326" lng="-79.994009640047764" zone="Zone 3" incidentdate="2016-05-02" incidenttime="10:50:00" incidentnumber="16079907" address="100 block Provost Rd" type="OFFENSE" age="" gender="" description="*********************************************** &lt;br/&gt;2709(a), Harassment.&lt;br/&gt;"/><marker lat="40.458738637360717" lng="-80.01489172934707" zone="Zone 1" incidentdate="2016-05-02" incidenttime="10:30:00" incidentnumber="16080154" address="1700 block buena vista St" type="OFFENSE" age="" gender="" description="*********************************************** &lt;br/&gt;3921(a), Theft by Unlawful Taking or Disposition - Movable item&lt;br/&gt;"/><marker lat="40.405973387835978" lng="-80.016950565947951" zone="Zone 6" incidentdate="2016-05-02" incidenttime="05:30:00" incidentnumber="16079771" address="1800 block Woodward Ave" type="OFFENSE" age="" gender="" description="*********************************************** &lt;br/&gt;3304, Criminal Mischief.&lt;br/&gt;"/><marker lat="40.452958865182815" lng="-80.051332243986664" zone="Zone 6" incidentdate="2016-05-02" incidenttime="21:00:00" incidentnumber="16080298" address="2700 block Bergman St" type="OFFENSE" age="" gender="" description="*********************************************** &lt;br/&gt;9093, Indirect Criminal Contempt&lt;br/&gt;"/><marker lat="40.470999082785468" lng="-79.89674879734207" zone="Zone 5" incidentdate="2016-05-02" incidenttime="10:00:00" incidentnumber="16079852" address="7100 block Churchland St" type="OFFENSE" age="" gender="" description="*********************************************** &lt;br/&gt;029, Missing Juvenile&lt;br/&gt;"/><marker lat="40.484360562326486" lng="-79.947991867765452" zone="Zone 2" incidentdate="2016-05-02" incidenttime="13:00:00" incidentnumber="16080047" address="5600 block Butler St" type="OFFENSE" age="" gender="" description="*********************************************** &lt;br/&gt;3921, Theft by Unlawful Taking or Disposition.&lt;br/&gt;"/><marker lat="40.441406159731216" lng="-80.002873255548053" zone="Zone 2" incidentdate="2016-05-02" incidenttime="19:05:00" incidentnumber="16080242" address="100 block 5th Ave" type="OFFENSE" age="" gender="" description="*********************************************** &lt;br/&gt;9504, Lost Property&lt;br/&gt;"/><marker lat="40.44046800326111" lng="-79.991530255174666" zone="Zone 2" incidentdate="2016-05-02" incidenttime="21:45:00" incidentnumber="16080319" address="Centre Ave &amp; Washington Pl" type="OFFENSE" age="" gender="" description="*********************************************** &lt;br/&gt;13(a)(31), Marijuana: Possession Small Amount&lt;br/&gt;"/><marker lat="40.435593779855118" lng="-80.046705288909678" zone="Zone 6" incidentdate="2016-05-02" incidenttime="21:50:00" incidentnumber="16080331" address="1200 block Denisonview St" type="OFFENSE" age="" gender="" description="*********************************************** &lt;br/&gt;9490, Missing Persons (18 and Over)&lt;br/&gt;"/><marker lat="40.428815176198341" lng="-79.983424931589681" zone="Zone 3" incidentdate="2016-05-02" incidenttime="02:00:00" incidentnumber="16079705" address="S 15th St &amp; E Carson St" type="OFFENSE" age="" gender="" description="*********************************************** &lt;br/&gt;5503, Disorderly Conduct.&lt;br/&gt;"/><marker lat="40.454027990542492" lng="-79.990365791785777" zone="Zone 1" incidentdate="2016-05-02" incidenttime="08:00:00" incidentnumber="16079833" address="1000 block River Ave" type="OFFENSE" age="" gender="" description="*********************************************** &lt;br/&gt;3304, Criminal Mischief.&lt;br/&gt;"/><marker lat="40.439357443553178" lng="-79.999121070597084" zone="Zone 2" incidentdate="2016-05-02" incidenttime="17:00:00" incidentnumber="16080122" address="400 block Forbes Ave" type="OFFENSE" age="" gender="" description="*********************************************** &lt;br/&gt;3921, Theft by Unlawful Taking or Disposition.&lt;br/&gt;4106, Access Device Fraud&lt;br/&gt;4101, Forgery.&lt;br/&gt;"/><marker lat="40.441228428031053" lng="-80.002073791411135" zone="Zone 2" incidentdate="2016-05-02" incidenttime="19:27:00" incidentnumber="16080211" address="200 block 5th Ave" type="OFFENSE" age="" gender="" description="*********************************************** &lt;br/&gt;3701, Robbery.&lt;br/&gt;2701(a)(1), Simple Assault - Intent., Know., Reckless.Cause Bod. Injury&lt;br/&gt;"/><marker lat="40.407183657938951" lng="-79.941364731105793" zone="Zone 4" incidentdate="2016-05-02" incidenttime="21:22:00" incidentnumber="16080307" address="200 block E Elizabeth St" type="OFFENSE" age="" gender="" description="*********************************************** &lt;br/&gt;2705, Recklessly Endangering Another Person.&lt;br/&gt;2706, Terroristic Threats.&lt;br/&gt;2701(a)(3), Simple Assault - Attempts by Physical Menace&lt;br/&gt;"/><marker lat="40.453881093138619" lng="-79.873029877694393" zone="Zone 5" incidentdate="2016-05-02" incidenttime="11:34:00" incidentnumber="16079938" address="2200 block East Hills Dr" type="OFFENSE" age="" gender="" description="*********************************************** &lt;br/&gt;2701(b)(1), Simple Assault - Fight or Scuffle Entered by Mutual Consent&lt;br/&gt;"/><marker lat="40.457329336513929" lng="-79.896253743327946" zone="Zone 5" incidentdate="2016-05-02" incidenttime="12:45:00" incidentnumber="16079974" address="7200 block Frankstown Ave" type="OFFENSE" age="" gender="" description="*********************************************** &lt;br/&gt;9497, Aided Case&lt;br/&gt;"/><marker lat="40.460302578526942" lng="-80.006980071080037" zone="Zone 1" incidentdate="2016-05-02" incidenttime="18:09:00" incidentnumber="16080197" address="1700 block Belleau Dr" type="OFFENSE" age="" gender="" description="*********************************************** &lt;br/&gt;2701, Simple Assault.&lt;br/&gt;"/><marker lat="40.451596698259479" lng="-80.023856600561061" zone="Zone 1" incidentdate="2016-05-02" incidenttime="17:48:00" incidentnumber="16080248" address="Page St &amp; Fulton St" type="OFFENSE" age="" gender="" description="*********************************************** &lt;br/&gt;13(a)(32), Paraphernalia - Use or Possession&lt;br/&gt;9501, Bench Warrant&lt;br/&gt;1543, Driving While Operating Privilege is Suspended or Revoked.&lt;br/&gt;4914, False Identification to Law Enforcement Authorities&lt;br/&gt;1301, Registration and Certificate of Title Required.&lt;br/&gt;"/><marker lat="40.435806970741275" lng="-79.972632180663282" zone="Zone 2" incidentdate="2016-05-02" incidenttime="16:31:00" incidentnumber="16080124" address="2nd Ave &amp; Brady St" type="OFFENSE" age="" gender="" description="*********************************************** &lt;br/&gt;3743, Accidents Involving Damage to Attended Veh. or Property&lt;br/&gt;"/><marker lat="40.465687173209062" lng="-79.948109454264625" zone="Zone 5" incidentdate="2016-05-02" incidenttime="15:11:00" incidentnumber="16080049" address="100 block Pearl St" type="OFFENSE" age="" gender="" description="*********************************************** &lt;br/&gt;9496, Dead on Arrival (DOA)&lt;br/&gt;"/><marker lat="40.451987340067703" lng="-80.008730717465113" zone="Zone 1" incidentdate="2016-05-02" incidenttime="22:50:00" incidentnumber="16080373" address="Arch St &amp; Ridge Ave" type="OFFENSE" age="" gender="" description="*********************************************** &lt;br/&gt;3304, Criminal Mischief.&lt;br/&gt;3934, Theft from Vehicle&lt;br/&gt;"/><marker lat="40.4139649" lng="-79.9970224" zone="Zone 3" incidentdate="2016-05-02" incidenttime="12:30:00" incidentnumber="16079975" address="600 block Bausman St" type="OFFENSE" age="" gender="" description="*********************************************** &lt;br/&gt;9999, 9999 - (Misc. Incident):&lt;br/&gt;"/><marker lat="40.420155419740766" lng="-79.924124964414403" zone="Zone 4" incidentdate="2016-05-02" incidenttime="11:30:00" incidentnumber="16079934" address="3200 block Shady Ave" type="OFFENSE" age="" gender="" description="*********************************************** &lt;br/&gt;3304, Criminal Mischief.&lt;br/&gt;"/><marker lat="40.473064336961379" lng="-79.919546436401845" zone="Zone 5" incidentdate="2016-05-02" incidenttime="19:21:00" incidentnumber="16080240" address="100 block N Highland Ave" type="OFFENSE" age="" gender="" description="*********************************************** &lt;br/&gt;3304, Criminal Mischief.&lt;br/&gt;2709(a)(5), Harassment Communicates Repeatedly in Anonymous Manner&lt;br/&gt;"/><marker lat="40.44195623594829" lng="-79.996776558378357" zone="Zone 2" incidentdate="2016-05-02" incidenttime="00:19:00" incidentnumber="16079660" address="Strawberry Way &amp; Montour Way" type="OFFENSE" age="" gender="" description="*********************************************** &lt;br/&gt;9999, 9999 - (Misc. Incident):&lt;br/&gt;"/><marker lat="40.434500897717101" lng="-80.016084957179771" zone="Zone 3" incidentdate="2016-05-02" incidenttime="07:00:00" incidentnumber="16079825" address="200 block La Belle St" type="OFFENSE" age="" gender="" description="*********************************************** &lt;br/&gt;3934, Theft from Vehicle&lt;br/&gt;"/><marker lat="40.4224488" lng="-80.0100816" zone="Zone 3" incidentdate="2016-05-02" incidenttime="12:00:00" incidentnumber="16080168" address="200 block Paul St" type="OFFENSE" age="" gender="" description="*********************************************** &lt;br/&gt;3745, Accidents Involving Damage to Unattended Veh.or Prop.&lt;br/&gt;"/><marker lat="40.453969822993002" lng="-79.998974758094874" zone="Zone 1" incidentdate="2016-05-02" incidenttime="17:23:00" incidentnumber="16080169" address="600 block East Ohio St" type="OFFENSE" age="" gender="" description="*********************************************** &lt;br/&gt;3929, Retail Theft.&lt;br/&gt;"/><marker lat="40.44608960903679" lng="-79.893619929343828" zone="Zone 4" incidentdate="2016-05-02" incidenttime="07:22:00" incidentnumber="16079805" address="7700 block Penn Ave" type="OFFENSE" age="" gender="" description="*********************************************** &lt;br/&gt;2709, Harassment (Non-Specific)&lt;br/&gt;"/><marker lat="40.45584959643125" lng="-79.930434547158555" zone="Zone 4" incidentdate="2016-05-02" incidenttime="15:10:00" incidentnumber="16080055" address="5800 block Ellsworth Ave" type="OFFENSE" age="" gender="" description="*********************************************** &lt;br/&gt;3701, Robbery.&lt;br/&gt;"/><marker lat="40.455654425400731" lng="-79.888671391800671" zone="Zone 5" incidentdate="2016-05-02" incidenttime="00:26:00" incidentnumber="16079667" address="Frankstown Ave &amp; Durango Way" type="OFFENSE" age="" gender="" description="*********************************************** &lt;br/&gt;13(a)(32), Paraphernalia - Use or Possession&lt;br/&gt;3334, Turning Movements and Required Signals.&lt;br/&gt;"/><marker lat="40.483416247525859" lng="-80.034305411191099" zone="Zone 1" incidentdate="2016-05-02" incidenttime="10:00:00" incidentnumber="16080077" address="3700 block Parviss St" type="OFFENSE" age="" gender="" description="*********************************************** &lt;br/&gt;3304, Criminal Mischief.&lt;br/&gt;"/><marker lat="40.459190603440391" lng="-79.927408851895919" zone="Zone 4" incidentdate="2016-05-02" incidenttime="18:26:00" incidentnumber="16080210" address="5900 block Centre Ave" type="OFFENSE" age="" gender="" description="*********************************************** &lt;br/&gt;3929(a)(1), Retail Theft; takes possession of, carries away, or transfers displayed merchandise&lt;br/&gt;"/><marker lat="40.46967960794337" lng="-80.03188665644052" zone="Zone 1" incidentdate="2016-05-02" incidenttime="21:32:00" incidentnumber="16080308" address="1400 block Dickson St" type="OFFENSE" age="" gender="" description="*********************************************** &lt;br/&gt;9488, False  Burglar Alarm&lt;br/&gt;"/><marker lat="40.4051468" lng="-80.0028195" zone="Zone 3" incidentdate="2016-05-02" incidenttime="09:00:00" incidentnumber="16079843" address="700 block Ensign Ave" type="OFFENSE" age="" gender="" description="*********************************************** &lt;br/&gt;3921, Theft by Unlawful Taking or Disposition.&lt;br/&gt;"/><marker lat="40.439375459635848" lng="-80.00122331354693" zone="Zone 2" incidentdate="2016-05-02" incidenttime="17:40:00" incidentnumber="16080187" address="400 block Wood St" type="OFFENSE" age="" gender="" description="*********************************************** &lt;br/&gt;3921(a), Theft by Unlawful Taking or Disposition - Movable item&lt;br/&gt;"/><marker lat="40.403794999919768" lng="-79.990169155250072" zone="Zone 3" incidentdate="2016-05-02" incidenttime="11:31:00" incidentnumber="16079949" address="1200 block Brownsville Rd" type="OFFENSE" age="" gender="" description="*********************************************** &lt;br/&gt;901, Criminal Attempt&lt;br/&gt;"/><marker lat="40.449656789173943" lng="-79.98568934896069" zone="Zone 2" incidentdate="2016-05-02" incidenttime="11:15:00" incidentnumber="15117424" address="1700 block Penn Ave" type="ARREST" age="52" gender="F" description="*********************************************** &lt;br/&gt;3922, Theft by Deception.&lt;br/&gt;5503, Disorderly Conduct.&lt;br/&gt;3929, Retail Theft.&lt;br/&gt;903, Criminal Conspiracy.&lt;br/&gt;6301, Corruption of Minors.&lt;br/&gt;"/><marker lat="40.460133896179386" lng="-80.063321446122828" zone="Zone 6" incidentdate="2016-05-02" incidenttime="18:30:00" incidentnumber="16080207" address="3700 block Allendale Cir" type="ARREST" age="15" gender="M" description="*********************************************** &lt;br/&gt;2705, Recklessly Endangering Another Person.&lt;br/&gt;3701, Robbery.&lt;br/&gt;903, Criminal Conspiracy.&lt;br/&gt;2701(a)(3), Simple Assault - Attempts by Physical Menace&lt;br/&gt;3702, Robbery of Motor Vehicle.&lt;br/&gt;"/><marker lat="40.455654425400731" lng="-79.888671391800671" zone="Zone 5" incidentdate="2016-05-02" incidenttime="01:12:00" incidentnumber="16079667" address="Frankstown Ave &amp; Durango Way" type="ARREST" age="47" gender="M" description="*********************************************** &lt;br/&gt;13(a)(32), Paraphernalia - Use or Possession&lt;br/&gt;3334, Turning Movements and Required Signals.&lt;br/&gt;"/><marker lat="40.439134875179292" lng="-79.980460317668332" zone="Zone 2" incidentdate="2016-05-02" incidenttime="12:15:00" incidentnumber="16079959" address="200 block Dinwiddie St" type="ARREST" age="25" gender="F" description="*********************************************** &lt;br/&gt;13(a)(16), Possession of Controlled Substance&lt;br/&gt;4910, Tampering with or Fabricating Physical Evidence.&lt;br/&gt;1543, Driving While Operating Privilege is Suspended or Revoked.&lt;br/&gt;"/><marker lat="40.452807014739051" lng="-80.00131231589188" zone="Zone 1" incidentdate="2016-05-02" incidenttime="15:50:00" incidentnumber="16080105" address="400 block Avery St" type="ARREST" age="28" gender="M" description="*********************************************** &lt;br/&gt;908, Prohibited Offensive Weapons.&lt;br/&gt;7512, Criminal Use of Communication&lt;br/&gt;"/><marker lat="40.475068872094958" lng="-80.013705358576715" zone="Zone 1" incidentdate="2016-05-02" incidenttime="15:20:00" incidentnumber="16073379" address="200 block Marshall Ave" type="ARREST" age="38" gender="M" description="*********************************************** &lt;br/&gt;3736, Reckless Driving&lt;br/&gt;3745, Accidents Involving Damage to Unattended Veh.or Prop.&lt;br/&gt;1543, Driving While Operating Privilege is Suspended or Revoked.&lt;br/&gt;3746, Immediate Notice of Accident to Police Department&lt;br/&gt;"/><marker lat="40.473481220987026" lng="-79.962813878468651" zone="Zone 2" incidentdate="2016-05-02" incidenttime="08:30:00" incidentnumber="16016800" address="100 block 44th St" type="ARREST" age="52" gender="M" description="*********************************************** &lt;br/&gt;2709(a), Harassment.&lt;br/&gt;"/><marker lat="40.44046800326111" lng="-79.991530255174666" zone="Zone 2" incidentdate="2016-05-02" incidenttime="21:45:00" incidentnumber="16080319" address="Centre Ave &amp; Washington Pl" type="ARREST" age="28" gender="M" description="*********************************************** &lt;br/&gt;13(a)(31), Marijuana: Possession Small Amount&lt;br/&gt;"/><marker lat="40.434696587775576" lng="-79.996300985228572" zone="Zone 2" incidentdate="2016-05-02" incidenttime="10:40:00" incidentnumber="16021387" address="600 block 1st Ave" type="ARREST" age="22" gender="F" description="*********************************************** &lt;br/&gt;9124, Drug Investigation&lt;br/&gt;13(a)(16), Possession of Controlled Substance&lt;br/&gt;9015, Failure To Appear/Arrest on Attachment Order&lt;br/&gt;"/><marker lat="40.452958865182815" lng="-80.051332243986664" zone="Zone 6" incidentdate="2016-05-02" incidenttime="21:50:00" incidentnumber="16080298" address="2700 block Bergman St" type="ARREST" age="60" gender="F" description="*********************************************** &lt;br/&gt;9093, Indirect Criminal Contempt&lt;br/&gt;"/><marker lat="40.435095503606554" lng="-79.993077686753679" zone="Zone 2" incidentdate="2016-05-02" incidenttime="14:10:00" incidentnumber="16073934" address="900 block 2nd Ave" type="ARREST" age="52" gender="M" description="*********************************************** &lt;br/&gt;3929(a)(1), Retail Theft; takes possession of, carries away, or transfers displayed merchandise&lt;br/&gt;"/><marker lat="40.452761376796843" lng="-79.887331337814331" zone="Zone 5" incidentdate="2016-05-02" incidenttime="06:15:00" incidentnumber="16079478" address="7800 block Formosa Way" type="ARREST" age="54" gender="M" description="*********************************************** &lt;br/&gt;2701, Simple Assault.&lt;br/&gt;"/><marker lat="40.451596698259479" lng="-80.023856600561061" zone="Zone 1" incidentdate="2016-05-02" incidenttime="17:47:00" incidentnumber="16080248" address="Page St &amp; Fulton St" type="ARREST" age="31" gender="M" description="*********************************************** &lt;br/&gt;13(a)(32), Paraphernalia - Use or Possession&lt;br/&gt;9501, Bench Warrant&lt;br/&gt;1543, Driving While Operating Privilege is Suspended or Revoked.&lt;br/&gt;4914, False Identification to Law Enforcement Authorities&lt;br/&gt;1301, Registration and Certificate of Title Required.&lt;br/&gt;"/><marker lat="40.441228428031053" lng="-80.002073791411135" zone="Zone 2" incidentdate="2016-05-02" incidenttime="19:00:00" incidentnumber="16080211" address="200 block 5th Ave" type="ARREST" age="" gender="M" description="*********************************************** &lt;br/&gt;3701, Robbery.&lt;br/&gt;2701(a)(1), Simple Assault - Intent., Know., Reckless.Cause Bod. Injury&lt;br/&gt;"/><marker lat="40.452966162510073" lng="-79.891011747036316" zone="Zone 5" incidentdate="2016-05-02" incidenttime="18:05:00" incidentnumber="16080191" address="7600 block Hamilton Ave" type="ARREST" age="20" gender="M" description="*********************************************** &lt;br/&gt;4303, General Lighting Requirements.&lt;br/&gt;13(a)(31)(i), Marijuana - Possess Small Amt for Personal Use&lt;br/&gt;"/><marker lat="40.456369305783525" lng="-80.053424121419937" zone="Zone 6" incidentdate="2016-05-02" incidenttime="15:50:00" incidentnumber="16073400" address="3000 block Zephyr Ave" type="ARREST" age="28" gender="M" description="*********************************************** &lt;br/&gt;2702, Aggravated Assault.&lt;br/&gt;"/><marker lat="40.438228962475506" lng="-79.977544615311203" zone="Zone 2" incidentdate="2016-05-02" incidenttime="02:32:00" incidentnumber="16079713" address="Wyandotte St &amp; 5th Ave" type="ARREST" age="48" gender="M" description="*********************************************** &lt;br/&gt;13(a)(32), Paraphernalia - Use or Possession&lt;br/&gt;1543, Driving While Operating Privilege is Suspended or Revoked.&lt;br/&gt;4303, General Lighting Requirements.&lt;br/&gt;"/><marker lat="40.407183657938951" lng="-79.941364731105793" zone="Zone 4" incidentdate="2016-05-02" incidenttime="21:45:00" incidentnumber="16080307" address="200 block E Elizabeth St" type="ARREST" age="40" gender="M" description="*********************************************** &lt;br/&gt;2705, Recklessly Endangering Another Person.&lt;br/&gt;2706, Terroristic Threats.&lt;br/&gt;2701(a)(3), Simple Assault - Attempts by Physical Menace&lt;br/&gt;"/><marker lat="40.441585644262638" lng="-80.037814826665681" zone="Zone 6" incidentdate="2016-05-02" incidenttime="23:40:00" incidentnumber="16080370" address="700 block Linhart St" type="ARREST" age="29" gender="M" description="*********************************************** &lt;br/&gt;13(a)(32), Paraphernalia - Use or Possession&lt;br/&gt;5506, Loitering and Prowling at Night&lt;br/&gt;"/><marker lat="40.454136833164974" lng="-80.001939797868459" zone="Zone 1" incidentdate="2016-05-02" incidenttime="12:45:00" incidentnumber="16079971" address="400 block Foreland St" type="ARREST" age="43" gender="M" description="*********************************************** &lt;br/&gt;9501, Bench Warrant&lt;br/&gt;"/><marker lat="40.452931212106165" lng="-79.901362272561926" zone="Zone 4" incidentdate="2016-05-02" incidenttime="03:21:00" incidentnumber="16079725" address="N Lang Ave &amp; Jonathan St" type="ARREST" age="24" gender="M" description="*********************************************** &lt;br/&gt;13(a)(31), Marijuana: Possession Small Amount&lt;br/&gt;13(a)(32), Paraphernalia - Use or Possession&lt;br/&gt;3354, Additional Parking Regulations.&lt;br/&gt;"/><marker lat="40.460133896179386" lng="-80.063321446122828" zone="Zone 6" incidentdate="2016-05-02" incidenttime="18:30:00" incidentnumber="16080207" address="3700 block Allendale Cir" type="ARREST" age="16" gender="M" description="*********************************************** &lt;br/&gt;2705, Recklessly Endangering Another Person.&lt;br/&gt;3701, Robbery.&lt;br/&gt;903, Criminal Conspiracy.&lt;br/&gt;2701(a)(3), Simple Assault - Attempts by Physical Menace&lt;br/&gt;3702, Robbery of Motor Vehicle.&lt;br/&gt;"/><marker lat="40.452931212106165" lng="-79.901362272561926" zone="Zone 4" incidentdate="2016-05-02" incidenttime="03:21:00" incidentnumber="16079725" address="N Lang Ave &amp; Jonathan St" type="ARREST" age="18" gender="M" description="*********************************************** &lt;br/&gt;13(a)(31), Marijuana: Possession Small Amount&lt;br/&gt;13(a)(32), Paraphernalia - Use or Possession&lt;br/&gt;3354, Additional Parking Regulations.&lt;br/&gt;"/><marker lat="40.459935996095638" lng="-79.947612973147926" zone="Zone 5" incidentdate="2016-05-02" incidenttime="22:33:00" incidentnumber="16080343" address="500 block S Mathilda St" type="ARREST" age="23" gender="M" description="*********************************************** &lt;br/&gt;3502, Burglary.&lt;br/&gt;3304, Criminal Mischief.&lt;br/&gt;3921(a), Theft by Unlawful Taking or Disposition - Movable item&lt;br/&gt;"/><marker lat="40.443315554772433" lng="-79.959560343748407" zone="Zone 4" incidentdate="2016-05-02" incidenttime="11:56:00" incidentnumber="16072439" address="3800 block O Hara St" type="ARREST" age="28" gender="F" description="*********************************************** &lt;br/&gt;2702, Aggravated Assault.&lt;br/&gt;"/></markers>
