<?xml version="1.0"?>
<markers><marker lat="40.399798282486785" lng="-79.98914686757854" zone="Zone 3" incidentdate="2016-04-04" incidenttime="19:20:00" incidentnumber="16060546" address="600 block Brownsville Rd" type="OFFENSE" age="" gender="" description="*********************************************** &lt;br/&gt;3921(a), Theft by Unlawful Taking or Disposition - Movable item&lt;br/&gt;"/><marker lat="40.428815176198341" lng="-79.983424931589681" zone="Zone 3" incidentdate="2016-04-04" incidenttime="00:45:00" incidentnumber="16060056" address="S 15th St &amp; E Carson St" type="OFFENSE" age="" gender="" description="*********************************************** &lt;br/&gt;5104, Resisting Arrest or Other Law Enforcement.&lt;br/&gt;2702, Aggravated Assault.&lt;br/&gt;5503(a)(4), DISORDERLY CONDUCT - HAZARDOUS/PHYS. OFF&lt;br/&gt;5505, Public Drunkenness&lt;br/&gt;3503.B1I, DEF. TRESPASS ACTUAL COMMUNICATION&lt;br/&gt;2706, Terroristic Threats.&lt;br/&gt;"/><marker lat="40.422589889159525" lng="-80.006887216616249" zone="Zone 3" incidentdate="2016-04-04" incidenttime="09:30:00" incidentnumber="16060248" address="300 block Albert St" type="OFFENSE" age="" gender="" description="*********************************************** &lt;br/&gt;9999, 9999 - (Misc. Incident):&lt;br/&gt;"/><marker lat="40.460378497799489" lng="-80.021848946412661" zone="Zone 1" incidentdate="2016-04-04" incidenttime="16:49:00" incidentnumber="16060441" address="1000 block Morrison St" type="OFFENSE" age="" gender="" description="*********************************************** &lt;br/&gt;2701, Simple Assault.&lt;br/&gt;"/><marker lat="40.449606365527259" lng="-79.974270684591801" zone="Zone 2" incidentdate="2016-04-04" incidenttime="10:34:00" incidentnumber="16060276" address="2400 block Bedford Ave" type="OFFENSE" age="" gender="" description="*********************************************** &lt;br/&gt;3304, Criminal Mischief.&lt;br/&gt;"/><marker lat="40.394984174127856" lng="-79.982827770012307" zone="Zone 3" incidentdate="2016-04-04" incidenttime="09:30:00" incidentnumber="16060275" address="2000 block Rehman St" type="OFFENSE" age="" gender="" description="*********************************************** &lt;br/&gt;3304, Criminal Mischief.&lt;br/&gt;3934, Theft from Vehicle&lt;br/&gt;"/><marker lat="40.470800237125033" lng="-79.956106836569901" zone="Zone 2" incidentdate="2016-04-04" incidenttime="08:00:00" incidentnumber="16060238" address="200 block 46th St" type="OFFENSE" age="" gender="" description="*********************************************** &lt;br/&gt;3304, Criminal Mischief.&lt;br/&gt;3934, Theft from Vehicle&lt;br/&gt;"/><marker lat="40.3297823" lng="-80.0336670" zone="Zone 1" incidentdate="2016-04-04" incidenttime="06:10:00" incidentnumber="16060156" address="East Ohio St &amp; East St" type="OFFENSE" age="" gender="" description="*********************************************** &lt;br/&gt;2701, Simple Assault.&lt;br/&gt;"/><marker lat="40.420968523288465" lng="-79.926233469221785" zone="Zone 4" incidentdate="2016-04-04" incidenttime="08:30:00" incidentnumber="16060468" address="4300 block Saline St" type="OFFENSE" age="" gender="" description="*********************************************** &lt;br/&gt;3304(a)(5), CRIMINAL MISCHIEF - Intentionally Damages Real Or Personal Property Of Another&lt;br/&gt;"/><marker lat="40.450901096519573" lng="-79.930622154707279" zone="Zone 5" incidentdate="2016-04-04" incidenttime="00:01:00" incidentnumber="16060033" address="900 block N Negley Ave" type="OFFENSE" age="" gender="" description="*********************************************** &lt;br/&gt;029, Missing Juvenile&lt;br/&gt;"/><marker lat="40.43007247445037" lng="-80.053908499092216" zone="Zone 6" incidentdate="2016-04-04" incidenttime="15:34:00" incidentnumber="16060390" address="2200 block Noblestown Rd" type="OFFENSE" age="" gender="" description="*********************************************** &lt;br/&gt;9123, Miscellaneous Fire Other Investigation to Continue&lt;br/&gt;"/><marker lat="40.457582467396335" lng="-80.006210651513641" zone="Zone 1" incidentdate="2016-04-04" incidenttime="20:00:00" incidentnumber="16060565" address="1400 block Boyle St" type="OFFENSE" age="" gender="" description="*********************************************** &lt;br/&gt;3304, Criminal Mischief.&lt;br/&gt;"/><marker lat="40.438169441142144" lng="-79.996063267425882" zone="Zone 2" incidentdate="2016-04-04" incidenttime="11:05:00" incidentnumber="16060292" address="500 block FORBES Ave" type="OFFENSE" age="" gender="" description="*********************************************** &lt;br/&gt;2709, Harassment (Non-Specific)&lt;br/&gt;"/><marker lat="40.407448554705063" lng="-80.02376225838978" zone="Zone 6" incidentdate="2016-04-04" incidenttime="18:35:00" incidentnumber="16060525" address="1800 block Fallowfield Ave" type="OFFENSE" age="" gender="" description="*********************************************** &lt;br/&gt;2709, Harassment (Non-Specific)&lt;br/&gt;4912, Impersonating a Public Servant.&lt;br/&gt;"/><marker lat="40.437766403617019" lng="-80.055858172320853" zone="Zone 6" incidentdate="2016-04-04" incidenttime="16:00:00" incidentnumber="16060415" address="Crafton Blvd &amp; Stratmore St" type="OFFENSE" age="" gender="" description="*********************************************** &lt;br/&gt;3743, Accidents Involving Damage to Attended Veh. or Property&lt;br/&gt;"/><marker lat="40.431452440345801" lng="-80.05354381600165" zone="Zone 6" incidentdate="2016-04-04" incidenttime="17:10:00" incidentnumber="16060438" address="2100 block Noblestown Rd" type="OFFENSE" age="" gender="" description="*********************************************** &lt;br/&gt;3929(a)(4), Theft; under-rings merchandise&lt;br/&gt;"/><marker lat="40.415706804658406" lng="-79.970452890638995" zone="Zone 3" incidentdate="2016-04-04" incidenttime="12:30:00" incidentnumber="16060289" address="2600 block Spring St" type="OFFENSE" age="" gender="" description="*********************************************** &lt;br/&gt;9490, Missing Persons (18 and Over)&lt;br/&gt;"/><marker lat="40.4591323" lng="-79.9232504" zone="Zone 4" incidentdate="2016-04-04" incidenttime="09:30:00" incidentnumber="16060241" address="200 block Emerson St" type="OFFENSE" age="" gender="" description="*********************************************** &lt;br/&gt;3304, Criminal Mischief.&lt;br/&gt;3921, Theft by Unlawful Taking or Disposition.&lt;br/&gt;3934, Theft from Vehicle&lt;br/&gt;"/><marker lat="40.454614947288412" lng="-80.014854314791251" zone="Zone 1" incidentdate="2016-04-04" incidenttime="02:07:00" incidentnumber="16060087" address="1200 block Brighton Rd" type="OFFENSE" age="" gender="" description="*********************************************** &lt;br/&gt;9488, False  Burglar Alarm&lt;br/&gt;"/><marker lat="40.478253493338741" lng="-80.040270139012904" zone="Zone 1" incidentdate="2016-04-04" incidenttime="11:17:00" incidentnumber="16060268" address="3500 block California Ave" type="OFFENSE" age="" gender="" description="*********************************************** &lt;br/&gt;9496, Dead on Arrival (DOA)&lt;br/&gt;"/><marker lat="40.441650742650353" lng="-79.999451753561061" zone="Zone 2" incidentdate="2016-04-04" incidenttime="15:20:00" incidentnumber="16060371" address="300 block 6th Ave" type="OFFENSE" age="" gender="" description="*********************************************** &lt;br/&gt;9501, Bench Warrant&lt;br/&gt;"/><marker lat="40.423307201998043" lng="-79.961250980900815" zone="Zone 3" incidentdate="2016-04-04" incidenttime="16:40:00" incidentnumber="16060488" address="3200 block E Carson St" type="OFFENSE" age="" gender="" description="*********************************************** &lt;br/&gt;9489, Found Property&lt;br/&gt;"/><marker lat="40.427536457091669" lng="-79.922521703324065" zone="Zone 4" incidentdate="2016-04-04" incidenttime="09:45:00" incidentnumber="16060206" address="6300 block MORROWFIELD Ave" type="OFFENSE" age="" gender="" description="*********************************************** &lt;br/&gt;3921(a), Theft by Unlawful Taking or Disposition - Movable item&lt;br/&gt;"/><marker lat="40.452195894385376" lng="-79.981967335080668" zone="Zone 2" incidentdate="2016-04-04" incidenttime="05:00:00" incidentnumber="16060143" address="2200 block Penn Ave" type="OFFENSE" age="" gender="" description="*********************************************** &lt;br/&gt;3502, Burglary.&lt;br/&gt;"/><marker lat="40.46576196782835" lng="-79.995186532688805" zone="Zone 1" incidentdate="2016-04-04" incidenttime="11:30:00" incidentnumber="16060324" address="Woessner Ave" type="OFFENSE" age="" gender="" description="*********************************************** &lt;br/&gt;4912, Impersonating a Public Servant.&lt;br/&gt;"/><marker lat="40.456572332747427" lng="-80.001487255429311" zone="Zone 5" incidentdate="2016-04-04" incidenttime="15:15:00" incidentnumber="16060461" address="500 block N Homewood Ave" type="OFFENSE" age="" gender="" description="*********************************************** &lt;br/&gt;3304, Criminal Mischief.&lt;br/&gt;"/><marker lat="40.436952885544414" lng="-79.952472859277847" zone="Zone 4" incidentdate="2016-04-04" incidenttime="09:18:00" incidentnumber="16060230" address="Dawson St &amp; Atwood St" type="OFFENSE" age="" gender="" description="*********************************************** &lt;br/&gt;3934, Theft from Vehicle&lt;br/&gt;"/><marker lat="40.476702373093623" lng="-80.028063810047044" zone="Zone 1" incidentdate="2016-04-04" incidenttime="16:30:00" incidentnumber="16060527" address="3200 block Shelby St" type="OFFENSE" age="" gender="" description="*********************************************** &lt;br/&gt;3921, Theft by Unlawful Taking or Disposition.&lt;br/&gt;"/><marker lat="40.424916530524058" lng="-79.9520359740022" zone="Zone 4" incidentdate="2016-04-04" incidenttime="15:30:00" incidentnumber="16060396" address="Irvine St &amp; Greenfield Ave" type="OFFENSE" age="" gender="" description="*********************************************** &lt;br/&gt;3743, Accidents Involving Damage to Attended Veh. or Property&lt;br/&gt;"/><marker lat="40.453261190708076" lng="-79.910881882879011" zone="Zone 4" incidentdate="2016-04-04" incidenttime="11:15:00" incidentnumber="16060311" address="100 block Point Breeze Pl" type="OFFENSE" age="" gender="" description="*********************************************** &lt;br/&gt;4912, Impersonating a Public Servant.&lt;br/&gt;"/><marker lat="40.415830105146881" lng="-80.012979208323102" zone="Zone 3" incidentdate="2016-04-04" incidenttime="15:23:00" incidentnumber="16060376" address="Boggs Ave" type="OFFENSE" age="" gender="" description="*********************************************** &lt;br/&gt;5503(a)(1), DISORDERLY CONDUCT - ENGAGE IN FIGHTING&lt;br/&gt;"/><marker lat="40.467140524117198" lng="-79.89009354398631" zone="Zone 5" incidentdate="2016-04-04" incidenttime="17:40:00" incidentnumber="16060509" address="Lemington Ave &amp; Oberlin St" type="OFFENSE" age="" gender="" description="*********************************************** &lt;br/&gt;13(a)(16), Possession of Controlled Substance&lt;br/&gt;13(a)(31), Marijuana: Possession Small Amount&lt;br/&gt;1786, Required Financial Responsibility.&lt;br/&gt;1501, Drivers Required to be Licensed.&lt;br/&gt;4703, Operation of Vehicle without Official Certif. of Inspection&lt;br/&gt;1371, Operation Following Suspension of Registration.&lt;br/&gt;"/><marker lat="40.458778859290838" lng="-79.970703399584181" zone="Zone 2" incidentdate="2016-04-04" incidenttime="01:28:00" incidentnumber="16060071" address="3100 block Liberty Ave" type="OFFENSE" age="" gender="" description="*********************************************** &lt;br/&gt;2701, Simple Assault.&lt;br/&gt;"/><marker lat="40.4358565" lng="-79.9583229" zone="Zone 4" incidentdate="2016-04-04" incidenttime="03:39:00" incidentnumber="16060127" address="3400 block Blvd Of The Allies" type="OFFENSE" age="" gender="" description="*********************************************** &lt;br/&gt;9496, Dead on Arrival (DOA)&lt;br/&gt;"/><marker lat="40.446533001729442" lng="-79.968416866216259" zone="Zone 2" incidentdate="2016-04-04" incidenttime="12:10:00" incidentnumber="16060287" address="2600 block Centre Ave" type="OFFENSE" age="" gender="" description="*********************************************** &lt;br/&gt;3304, Criminal Mischief.&lt;br/&gt;2707.1, Discharge of a Firearm into Occupied Structure&lt;br/&gt;8106, Shots Fired&lt;br/&gt;"/><marker lat="40.421531877189601" lng="-79.993577564166102" zone="Zone 3" incidentdate="2016-04-04" incidenttime="07:30:00" incidentnumber="16060176" address="800 block E Warrington Ave" type="OFFENSE" age="" gender="" description="*********************************************** &lt;br/&gt;9501, Bench Warrant&lt;br/&gt;"/><marker lat="40.408593098502109" lng="-80.024778506352533" zone="Zone 6" incidentdate="2016-04-04" incidenttime="17:29:00" incidentnumber="16060465" address="1700 block Realty Ave" type="OFFENSE" age="" gender="" description="*********************************************** &lt;br/&gt;9488, False  Burglar Alarm&lt;br/&gt;"/><marker lat="40.453955490857957" lng="-79.959985641310823" zone="Zone 2" incidentdate="2016-04-04" incidenttime="08:15:00" incidentnumber="16060184" address="800 block Adelaide St" type="OFFENSE" age="" gender="" description="*********************************************** &lt;br/&gt;2701, Simple Assault.&lt;br/&gt;"/><marker lat="40.4569651" lng="-80.0317501" zone="Zone 1" incidentdate="2016-04-04" incidenttime="03:15:00" incidentnumber="16060112" address="1800 block Metropolitan St" type="OFFENSE" age="" gender="" description="*********************************************** &lt;br/&gt;9488, False  Burglar Alarm&lt;br/&gt;"/><marker lat="40.462342577271848" lng="-79.943218192536818" zone="Zone 5" incidentdate="2016-04-04" incidenttime="14:00:00" incidentnumber="16060360" address="Friendship Ave &amp; S Winebiddle St" type="OFFENSE" age="" gender="" description="*********************************************** &lt;br/&gt;3924, Theft of Property Lost, Mislaid or Delivered by Mistake.&lt;br/&gt;"/><marker lat="40.45214861508245" lng="-80.052719374965619" zone="Zone 6" incidentdate="2016-04-04" incidenttime="10:30:00" incidentnumber="16060290" address="700 block Municipal St" type="OFFENSE" age="" gender="" description="*********************************************** &lt;br/&gt;4912, Impersonating a Public Servant.&lt;br/&gt;"/><marker lat="40.45283452139217" lng="-79.964512094176754" zone="Zone 2" incidentdate="2016-04-04" incidenttime="09:15:00" incidentnumber="16060211" address="3300 block Webster Ave" type="OFFENSE" age="" gender="" description="*********************************************** &lt;br/&gt;3745, Accidents Involving Damage to Unattended Veh.or Prop.&lt;br/&gt;"/><marker lat="40.446647452630145" lng="-79.893677195645495" zone="Zone 4" incidentdate="2016-04-04" incidenttime="12:22:00" incidentnumber="16060297" address="Penn Ave &amp; Brushton Ave" type="OFFENSE" age="" gender="" description="*********************************************** &lt;br/&gt;9498, 302 (Mental)&lt;br/&gt;"/><marker lat="40.466882278815696" lng="-79.933782124356327" zone="Zone 5" incidentdate="2016-04-04" incidenttime="13:43:00" incidentnumber="16060330" address="300 block S Graham St" type="OFFENSE" age="" gender="" description="*********************************************** &lt;br/&gt;2709, Harassment (Non-Specific)&lt;br/&gt;4912, Impersonating a Public Servant.&lt;br/&gt;"/><marker lat="40.399568008438834" lng="-79.985619672650458" zone="Zone 3" incidentdate="2016-04-04" incidenttime="00:14:00" incidentnumber="16060038" address="200 block Alries St" type="OFFENSE" age="" gender="" description="*********************************************** &lt;br/&gt;2701, Simple Assault.&lt;br/&gt;"/><marker lat="40.462184881409343" lng="-79.910994180283993" zone="Zone 5" incidentdate="2016-04-04" incidenttime="21:30:00" incidentnumber="16060611" address="500 block Lowell St" type="OFFENSE" age="" gender="" description="*********************************************** &lt;br/&gt;2701, Simple Assault.&lt;br/&gt;"/><marker lat="40.457862660516923" lng="-80.010657848879106" zone="Zone 1" incidentdate="2016-04-04" incidenttime="16:00:00" incidentnumber="16060462" address="300 block Jacksonia St" type="OFFENSE" age="" gender="" description="*********************************************** &lt;br/&gt;9999, 9999 - (Misc. Incident):&lt;br/&gt;"/><marker lat="40.480794877876129" lng="-80.030297658793771" zone="Zone 6" incidentdate="2016-04-04" incidenttime="12:45:00" incidentnumber="16060344" address="200 block Stafford St" type="OFFENSE" age="" gender="" description="*********************************************** &lt;br/&gt;4912, Impersonating a Public Servant.&lt;br/&gt;"/><marker lat="40.421773212267283" lng="-79.994851626969449" zone="Zone 3" incidentdate="2016-04-04" incidenttime="19:58:00" incidentnumber="16060560" address="100 block Walter St" type="OFFENSE" age="" gender="" description="*********************************************** &lt;br/&gt;029, Missing Juvenile&lt;br/&gt;"/><marker lat="40.390554852074288" lng="-80.022112220573177" zone="Zone 6" incidentdate="2016-04-04" incidenttime="00:51:00" incidentnumber="16060045" address="900 block Fordham St" type="OFFENSE" age="" gender="" description="*********************************************** &lt;br/&gt;2709(a)(5), Harassment Communicates Repeatedly in Anonymous Manner&lt;br/&gt;"/><marker lat="40.436036005233959" lng="-79.985455385193148" zone="Zone 2" incidentdate="2016-04-04" incidenttime="19:34:00" incidentnumber="16060559" address="1400 block Locust St" type="OFFENSE" age="" gender="" description="*********************************************** &lt;br/&gt;2709, Harassment (Non-Specific)&lt;br/&gt;"/><marker lat="40.425607377091104" lng="-80.013256475065745" zone="Zone 3" incidentdate="2016-04-04" incidenttime="16:05:00" incidentnumber="16060517" address="200 block Dilworth St" type="OFFENSE" age="" gender="" description="*********************************************** &lt;br/&gt;9999, 9999 - (Misc. Incident):&lt;br/&gt;"/><marker lat="40.450901096519573" lng="-79.930622154707279" zone="Zone 5" incidentdate="2016-04-04" incidenttime="02:50:00" incidentnumber="16060385" address="900 block North Negley Ave" type="OFFENSE" age="" gender="" description="*********************************************** &lt;br/&gt;029, Missing Juvenile&lt;br/&gt;"/><marker lat="40.488081814906529" lng="-79.894317224387123" zone="Zone 5" incidentdate="2016-04-04" incidenttime="16:30:00" incidentnumber="16060463" address="900 block Freeport Rd" type="OFFENSE" age="" gender="" description="*********************************************** &lt;br/&gt;3745, Accidents Involving Damage to Unattended Veh.or Prop.&lt;br/&gt;"/><marker lat="40.449646657025653" lng="-79.892798110797884" zone="Zone 4" incidentdate="2016-04-04" incidenttime="09:46:00" incidentnumber="16060235" address="300 block N Braddock Ave" type="OFFENSE" age="" gender="" description="*********************************************** &lt;br/&gt;9498, 302 (Mental)&lt;br/&gt;"/><marker lat="40.397544772089951" lng="-80.006707649439633" zone="Zone 6" incidentdate="2016-04-04" incidenttime="13:30:00" incidentnumber="16060331" address="2200 block Lynnbrook Ave" type="OFFENSE" age="" gender="" description="*********************************************** &lt;br/&gt;9488, False  Burglar Alarm&lt;br/&gt;"/><marker lat="40.445590651116305" lng="-79.949387243364313" zone="Zone 4" incidentdate="2016-04-04" incidenttime="09:00:00" incidentnumber="16060319" address="300 block N Craig St" type="OFFENSE" age="" gender="" description="*********************************************** &lt;br/&gt;4912, Impersonating a Public Servant.&lt;br/&gt;"/><marker lat="40.442954594058811" lng="-79.896231115130817" zone="Zone 4" incidentdate="2016-04-04" incidenttime="15:00:00" incidentnumber="16060429" address="7600 block Edgerton Ave" type="OFFENSE" age="" gender="" description="*********************************************** &lt;br/&gt;2709, Harassment (Non-Specific)&lt;br/&gt;2706, Terroristic Threats.&lt;br/&gt;"/><marker lat="40.456633448414188" lng="-79.936435139782176" zone="Zone 4" incidentdate="2016-04-04" incidenttime="20:40:00" incidentnumber="16060588" address="5500 block Centre Ave" type="OFFENSE" age="" gender="" description="*********************************************** &lt;br/&gt;5503, Disorderly Conduct.&lt;br/&gt;2702, Aggravated Assault.&lt;br/&gt;5505, Public Drunkenness&lt;br/&gt;3503(b)(1)(ii), Defiant Trespass Notice Posted by Sign(s)&lt;br/&gt;5503(a)(2), DISORDERLY CONDUCT - UNREASONABLE NOISE&lt;br/&gt;"/><marker lat="40.438917876440819" lng="-80.001250590800993" zone="Zone 2" incidentdate="2016-04-04" incidenttime="19:00:00" incidentnumber="16060614" address="300 block Wood St" type="OFFENSE" age="" gender="" description="*********************************************** &lt;br/&gt;3921, Theft by Unlawful Taking or Disposition.&lt;br/&gt;"/><marker lat="40.460378497799489" lng="-80.021848946412661" zone="Zone 1" incidentdate="2016-04-04" incidenttime="17:13:00" incidentnumber="16060441" address="1000 block Morrison St" type="ARREST" age="28" gender="F" description="*********************************************** &lt;br/&gt;2701, Simple Assault.&lt;br/&gt;"/><marker lat="40.444841234451061" lng="-79.894944176779006" zone="Zone 4" incidentdate="2016-04-04" incidenttime="15:45:00" incidentnumber="16055810" address="300 block East End Ave" type="ARREST" age="22" gender="M" description="*********************************************** &lt;br/&gt;3502, Burglary.&lt;br/&gt;3304, Criminal Mischief.&lt;br/&gt;2701, Simple Assault.&lt;br/&gt;3701, Robbery.&lt;br/&gt;"/><marker lat="40.423181653741167" lng="-79.928733488981621" zone="Zone 4" incidentdate="2016-04-04" incidenttime="15:05:00" incidentnumber="16057129" address="4200 block Murray Ave" type="ARREST" age="35" gender="M" description="*********************************************** &lt;br/&gt;2709(a)(1), Harassment by Physical Contact, or Attempts or Threats&lt;br/&gt;2701(a)(1), Simple Assault - Intent., Know., Reckless.Cause Bod. Injury&lt;br/&gt;5503(a)(1), DISORDERLY CONDUCT - ENGAGE IN FIGHTING&lt;br/&gt;"/><marker lat="40.462184881409343" lng="-79.910994180283993" zone="Zone 5" incidentdate="2016-04-04" incidenttime="21:57:00" incidentnumber="16060611" address="500 block Lowell St" type="ARREST" age="54" gender="M" description="*********************************************** &lt;br/&gt;2701, Simple Assault.&lt;br/&gt;"/><marker lat="40.4471653" lng="-80.0523328" zone="Zone 6" incidentdate="2016-04-04" incidenttime="12:34:00" incidentnumber="16031412" address="1500 block Crucible St" type="ARREST" age="22" gender="F" description="*********************************************** &lt;br/&gt;13(a)(16), Possession of Controlled Substance&lt;br/&gt;13(a)(30), Possession w/ Intent to Del. Controlled Substance&lt;br/&gt;13(a)(31), Marijuana: Possession Small Amount&lt;br/&gt;9501, Bench Warrant&lt;br/&gt;4914, False Identification to Law Enforcement Authorities&lt;br/&gt;3925, Receiving Stolen Property.&lt;br/&gt;903, Criminal Conspiracy.&lt;br/&gt;6110.2, Possesion of Firearm with Altered Mfg. Number&lt;br/&gt;9092, Bond Forfeiture Warrant&lt;br/&gt;6105(a)(1), Persons not to possess, use, manufacture, control, sell or transfer firearms: Former convict enumerated in subsection (b)&lt;br/&gt;"/><marker lat="40.460378497799489" lng="-80.021848946412661" zone="Zone 1" incidentdate="2016-04-04" incidenttime="17:13:00" incidentnumber="16060441" address="1000 block Morrison St" type="ARREST" age="40" gender="M" description="*********************************************** &lt;br/&gt;2701, Simple Assault.&lt;br/&gt;"/><marker lat="40.496463618714827" lng="-80.009016207117426" zone="Zone 1" incidentdate="2016-04-04" incidenttime="08:39:00" incidentnumber="16054708" address="Cherryland St &amp; Ivory Ave" type="ARREST" age="26" gender="M" description="*********************************************** &lt;br/&gt;2701, Simple Assault.&lt;br/&gt;1543, Driving While Operating Privilege is Suspended or Revoked.&lt;br/&gt;3743, Accidents Involving Damage to Attended Veh. or Property&lt;br/&gt;"/><marker lat="40.462184881409343" lng="-79.910994180283993" zone="Zone 5" incidentdate="2016-04-04" incidenttime="21:57:00" incidentnumber="16060611" address="500 block Lowell St" type="ARREST" age="45" gender="F" description="*********************************************** &lt;br/&gt;2701, Simple Assault.&lt;br/&gt;"/><marker lat="40.454334045799939" lng="-80.012608802549352" zone="Zone 1" incidentdate="2016-04-04" incidenttime="09:00:00" incidentnumber="15236255" address="W North Ave &amp; Monterey St" type="ARREST" age="47" gender="M" description="*********************************************** &lt;br/&gt;13(a)(16), Possession of Controlled Substance&lt;br/&gt;4910, Tampering with or Fabricating Physical Evidence.&lt;br/&gt;1543, Driving While Operating Privilege is Suspended or Revoked.&lt;br/&gt;4703, Operation of Vehicle without Official Certif. of Inspection&lt;br/&gt;1310, Temporary Registration Cards.&lt;br/&gt;"/><marker lat="40.456633448414188" lng="-79.936435139782176" zone="Zone 4" incidentdate="2016-04-04" incidenttime="21:30:00" incidentnumber="16060588" address="5500 block Centre Ave" type="ARREST" age="35" gender="M" description="*********************************************** &lt;br/&gt;5503, Disorderly Conduct.&lt;br/&gt;2702, Aggravated Assault.&lt;br/&gt;5505, Public Drunkenness&lt;br/&gt;3503(b)(1)(ii), Defiant Trespass Notice Posted by Sign(s)&lt;br/&gt;5503(a)(2), DISORDERLY CONDUCT - UNREASONABLE NOISE&lt;br/&gt;"/><marker lat="40.437818600399822" lng="-79.963832573222589" zone="Zone 4" incidentdate="2016-04-04" incidenttime="09:50:00" incidentnumber="15225222" address="3300 block 5th Ave" type="ARREST" age="21" gender="M" description="*********************************************** &lt;br/&gt;3922, Theft by Deception.&lt;br/&gt;4101, Forgery.&lt;br/&gt;"/><marker lat="40.441650742650353" lng="-79.999451753561061" zone="Zone 2" incidentdate="2016-04-04" incidenttime="15:30:00" incidentnumber="16060371" address="300 block 6th Ave" type="ARREST" age="19" gender="M" description="*********************************************** &lt;br/&gt;9501, Bench Warrant&lt;br/&gt;"/><marker lat="40.428815176198341" lng="-79.983424931589681" zone="Zone 3" incidentdate="2016-04-04" incidenttime="00:45:00" incidentnumber="16060056" address="S 15th St &amp; E Carson St" type="ARREST" age="22" gender="M" description="*********************************************** &lt;br/&gt;5104, Resisting Arrest or Other Law Enforcement.&lt;br/&gt;2702, Aggravated Assault.&lt;br/&gt;5503(a)(4), DISORDERLY CONDUCT - HAZARDOUS/PHYS. OFF&lt;br/&gt;5505, Public Drunkenness&lt;br/&gt;3503.B1I, DEF. TRESPASS ACTUAL COMMUNICATION&lt;br/&gt;2706, Terroristic Threats.&lt;br/&gt;"/><marker lat="40.467140524117198" lng="-79.89009354398631" zone="Zone 5" incidentdate="2016-04-04" incidenttime="17:40:00" incidentnumber="16060509" address="Lemington Ave &amp; Oberlin St" type="ARREST" age="18" gender="M" description="*********************************************** &lt;br/&gt;13(a)(16), Possession of Controlled Substance&lt;br/&gt;13(a)(31), Marijuana: Possession Small Amount&lt;br/&gt;1786, Required Financial Responsibility.&lt;br/&gt;1501, Drivers Required to be Licensed.&lt;br/&gt;4703, Operation of Vehicle without Official Certif. of Inspection&lt;br/&gt;1371, Operation Following Suspension of Registration.&lt;br/&gt;"/><marker lat="40.467140524117198" lng="-79.89009354398631" zone="Zone 5" incidentdate="2016-04-04" incidenttime="17:35:00" incidentnumber="16060509" address="Lemington Ave &amp; Oberlin St" type="ARREST" age="18" gender="M" description="*********************************************** &lt;br/&gt;13(a)(16), Possession of Controlled Substance&lt;br/&gt;13(a)(31), Marijuana: Possession Small Amount&lt;br/&gt;1786, Required Financial Responsibility.&lt;br/&gt;1501, Drivers Required to be Licensed.&lt;br/&gt;4703, Operation of Vehicle without Official Certif. of Inspection&lt;br/&gt;1371, Operation Following Suspension of Registration.&lt;br/&gt;"/><marker lat="40.453539170738004" lng="-80.000575279128412" zone="Zone 1" incidentdate="2016-04-04" incidenttime="21:50:00" incidentnumber="16046078" address="500 block East Ohio St" type="ARREST" age="33" gender="M" description="*********************************************** &lt;br/&gt;3921(a), Theft by Unlawful Taking or Disposition - Movable item&lt;br/&gt;"/><marker lat="40.421531877189601" lng="-79.993577564166102" zone="Zone 3" incidentdate="2016-04-04" incidenttime="07:30:00" incidentnumber="16060176" address="800 block E Warrington Ave" type="ARREST" age="34" gender="M" description="*********************************************** &lt;br/&gt;9501, Bench Warrant&lt;br/&gt;"/></markers>
