<?xml version="1.0"?>
<markers><marker lat="40.4564388" lng="-80.0015582" zone="Zone 1" incidentdate="2014-09-08" incidenttime="22:05:00" incidentnumber="14180187" address="1100 James Street, Pittsburgh, PA 15212, USA" type="OFFENSE" description="*********************************************** &lt;br/&gt;2709(a), Harassment.&lt;br/&gt;5505, Public Drunkenness&lt;br/&gt;"/><marker lat="40.4284164" lng="-79.9863943" zone="Zone 3" incidentdate="2014-09-08" incidenttime="00:01:00" incidentnumber="14179583" address="South 12th Street &amp; Roland Way, Pittsburgh, PA 15203, USA" type="OFFENSE" description="*********************************************** &lt;br/&gt;3304, Criminal Mischief.&lt;br/&gt;3934, Theft from Vehicle&lt;br/&gt;"/><marker lat="40.3751866" lng="-79.9137061" zone="Zone 4" incidentdate="2014-09-08" incidenttime="00:01:00" incidentnumber="14180031" address="4900 Kinley Avenue, Pittsburgh, PA 15207, USA" type="OFFENSE" description="*********************************************** &lt;br/&gt;2709(a)(5), Harassment Communicates Repeatedly in Anonymous Manner&lt;br/&gt;"/><marker lat="40.4665831" lng="-79.9956227" zone="Zone 1" incidentdate="2014-09-08" incidenttime="00:10:00" incidentnumber="14179551" address="1100 Buente Street, Pittsburgh, PA 15212, USA" type="OFFENSE" description="*********************************************** &lt;br/&gt;2701, Simple Assault.&lt;br/&gt;"/><marker lat="40.4688072" lng="-79.9177977" zone="Zone 5" incidentdate="2014-09-08" incidenttime="00:15:00" incidentnumber="14179550" address="800 Collins Street, Pittsburgh, PA 15206, USA" type="OFFENSE" description="*********************************************** &lt;br/&gt;9132, Noise Complaint - Citation&lt;br/&gt;"/><marker lat="40.4638448" lng="-79.8990143" zone="Zone 5" incidentdate="2014-09-08" incidenttime="00:45:00" incidentnumber="14179571" address="7000 Chaucer Street, Pittsburgh, PA 15208, USA" type="OFFENSE" description="*********************************************** &lt;br/&gt;3701, Robbery.&lt;br/&gt;"/><marker lat="40.4400608" lng="-80.0246657" zone="Zone 3" incidentdate="2014-09-08" incidenttime="15:10:00" incidentnumber="14180022" address="200 Seward Street, Pittsburgh, PA 15211, USA" type="OFFENSE" description="*********************************************** &lt;br/&gt;9093, Indirect Criminal Contempt&lt;br/&gt;"/><marker lat="40.4533782" lng="-80.0011095" zone="Zone 1" incidentdate="2014-09-08" incidenttime="15:27:00" incidentnumber="14179938" address="East Ohio Street &amp; Moravian Way, Pittsburgh, PA 15212, USA" type="OFFENSE" description="*********************************************** &lt;br/&gt;2707, Propulsion of Missiles&lt;br/&gt;3304, Criminal Mischief.&lt;br/&gt;"/><marker lat="40.4733589" lng="-80.0314323" zone="Zone 1" incidentdate="2014-09-08" incidenttime="15:30:00" incidentnumber="14179959" address="3100 Shadeland Avenue, Pittsburgh, PA 15212, USA" type="OFFENSE" description="*********************************************** &lt;br/&gt;2709, Harassment (Non-Specific)&lt;br/&gt;3921, Theft by Unlawful Taking or Disposition.&lt;br/&gt;"/><marker lat="40.408457" lng="-80.0252749" zone="Zone 6" incidentdate="2014-09-08" incidenttime="15:37:00" incidentnumber="14179942" address="1700 Broadway Avenue, Pittsburgh, PA 15216, USA" type="OFFENSE" description="*********************************************** &lt;br/&gt;3304, Criminal Mischief.&lt;br/&gt;"/><marker lat="40.4370647" lng="-79.9814686" zone="Zone 2" incidentdate="2014-09-08" incidenttime="15:45:00" incidentnumber="14180054" address="Miltenberger Street, Pittsburgh, PA 15219, USA" type="OFFENSE" description="*********************************************** &lt;br/&gt;3745, Accidents Involving Damage to Unattended Veh.or Prop.&lt;br/&gt;"/><marker lat="40.4477936" lng="-80.0037296" zone="Zone 1" incidentdate="2014-09-08" incidenttime="16:00:00" incidentnumber="14180019" address="100 Federal Street, Pittsburgh, PA 15212, USA" type="OFFENSE" description="*********************************************** &lt;br/&gt;3921, Theft by Unlawful Taking or Disposition.&lt;br/&gt;"/><marker lat="40.449642" lng="-79.974306" zone="Zone 2" incidentdate="2014-09-08" incidenttime="16:21:00" incidentnumber="14179966" address="2400 Bedford Avenue, Pittsburgh, PA 15219, USA" type="OFFENSE" description="*********************************************** &lt;br/&gt;2701, Simple Assault.&lt;br/&gt;3502, Burglary.&lt;br/&gt;Convict, enumerated in subsection (b)&lt;br/&gt;6105(a)(1), Persons not to possess, use, manufacture, control, sell or transfer firearms: Former&lt;br/&gt;"/><marker lat="40.4624671" lng="-79.9593495" zone="Zone 2" incidentdate="2014-09-08" incidenttime="16:24:00" incidentnumber="14179963" address="Liberty Avenue &amp; 39th Street, Pittsburgh, PA 15224, USA" type="OFFENSE" description="*********************************************** &lt;br/&gt;2706, Terroristic Threats.&lt;br/&gt;2709(a), Harassment.&lt;br/&gt;"/><marker lat="40.4715149" lng="-80.032448" zone="Zone 1" incidentdate="2014-09-08" incidenttime="16:30:00" incidentnumber="14179978" address="1400 Eckert Street, Pittsburgh, PA 15212, USA" type="OFFENSE" description="*********************************************** &lt;br/&gt;9496, Dead on Arrival (DOA)&lt;br/&gt;"/><marker lat="40.409674" lng="-79.943451" zone="Zone 4" incidentdate="2014-09-08" incidenttime="16:30:00" incidentnumber="14179972" address="Osprey Way &amp; Dolphin Way, Pittsburgh, PA 15207, USA" type="OFFENSE" description="*********************************************** &lt;br/&gt;3701, Robbery.&lt;br/&gt;"/><marker lat="40.4142931" lng="-80.0267359" zone="Zone 6" incidentdate="2014-09-08" incidenttime="16:55:00" incidentnumber="14179982" address="Rutherford Avenue &amp; Bayonne Avenue, Pittsburgh, PA 15216, USA" type="OFFENSE" description="*********************************************** &lt;br/&gt;13(a)(16), Possession of Controlled Substance&lt;br/&gt;3334, Turning Movements and Required Signals.&lt;br/&gt;13(a)(32), Paraphernalia - Use or Possession&lt;br/&gt;5507, Obstructing Highways and Passages.&lt;br/&gt;"/><marker lat="40.441132" lng="-80.001989" zone="Zone 2" incidentdate="2014-09-08" incidenttime="17:00:00" incidentnumber="14179985" address="200 Fifth Avenue, Pittsburgh, PA 15222, USA" type="OFFENSE" description="*********************************************** &lt;br/&gt;9501, Bench Warrant&lt;br/&gt;3929, Retail Theft.&lt;br/&gt;3503.B1I, DEF. TRESPASS ACTUAL COMMUNICATION&lt;br/&gt;"/><marker lat="40.486877" lng="-79.894016" zone="Zone 5" incidentdate="2014-09-08" incidenttime="17:08:00" incidentnumber="14179991" address="900 Freeport Road, Pittsburgh, PA 15238, USA" type="OFFENSE" description="*********************************************** &lt;br/&gt;3929, Retail Theft.&lt;br/&gt;"/><marker lat="40.453034" lng="-80.0493628" zone="Zone 6" incidentdate="2014-09-08" incidenttime="17:30:00" incidentnumber="14180032" address="2700 Zephyr Avenue, Pittsburgh, PA 15204, USA" type="OFFENSE" description="*********************************************** &lt;br/&gt;3502, Burglary.&lt;br/&gt;"/><marker lat="40.4547629" lng="-80.0519804" zone="Zone 6" incidentdate="2014-09-08" incidenttime="17:30:00" incidentnumber="14180011" address="2900 Zephyr Avenue, Pittsburgh, PA 15204, USA" type="OFFENSE" description="*********************************************** &lt;br/&gt;5901, Open Lewdness.&lt;br/&gt;"/><marker lat="40.4414548" lng="-80.0038305" zone="Zone 2" incidentdate="2014-09-08" incidenttime="17:35:00" incidentnumber="14180103" address="Liberty Avenue &amp; Stanwix Street, Pittsburgh, PA 15222, USA" type="OFFENSE" description="*********************************************** &lt;br/&gt;9999, 9999 - (Misc. Incident):&lt;br/&gt;"/><marker lat="40.401081" lng="-80.043448" zone="Zone 6" incidentdate="2014-09-08" incidenttime="17:40:00" incidentnumber="14180017" address="3100 Banksville Road, Pittsburgh, PA 15216, USA" type="OFFENSE" description="*********************************************** &lt;br/&gt;3743, Accidents Involving Damage to Attended Veh. or Property&lt;br/&gt;"/><marker lat="40.407885" lng="-79.946151" zone="Zone 4" incidentdate="2014-09-08" incidenttime="17:41:00" incidentnumber="14180029" address="5000 Lytle Street, Pittsburgh, PA 15207, USA" type="OFFENSE" description="*********************************************** &lt;br/&gt;13(a)(16), Possession of Controlled Substance&lt;br/&gt;13(a)(30), Possession w/ Intent to Del. Controlled Substance&lt;br/&gt;"/><marker lat="40.441132" lng="-80.001989" zone="Zone 2" incidentdate="2014-09-08" incidenttime="17:50:00" incidentnumber="14180025" address="200 Fifth Avenue, Pittsburgh, PA 15222, USA" type="OFFENSE" description="*********************************************** &lt;br/&gt;3929, Retail Theft.&lt;br/&gt;"/><marker lat="40.457644" lng="-79.935299" zone="Zone 5" incidentdate="2014-09-08" incidenttime="17:57:00" incidentnumber="14161136" address="5600 Baum Boulevard, Pittsburgh, PA 15206, USA" type="OFFENSE" description="*********************************************** &lt;br/&gt;9501, Bench Warrant&lt;br/&gt;903, Criminal Conspiracy.&lt;br/&gt;3929, Retail Theft.&lt;br/&gt;"/><marker lat="40.457644" lng="-79.935299" zone="Zone 5" incidentdate="2014-09-08" incidenttime="17:57:00" incidentnumber="14180027" address="5600 Baum Boulevard, Pittsburgh, PA 15206, USA" type="OFFENSE" description="*********************************************** &lt;br/&gt;3929, Retail Theft.&lt;br/&gt;903, Criminal Conspiracy.&lt;br/&gt;"/><marker lat="40.4327364" lng="-80.0208106" zone="Zone 3" incidentdate="2014-09-08" incidenttime="18:00:00" incidentnumber="14180056" address="400 Oneida Street, Pittsburgh, PA 15211, USA" type="OFFENSE" description="*********************************************** &lt;br/&gt;2709(a), Harassment.&lt;br/&gt;"/><marker lat="40.4275995" lng="-79.9955291" zone="Zone 3" incidentdate="2014-09-08" incidenttime="18:00:00" incidentnumber="14180041" address="500 Arlington Avenue, Pittsburgh, PA 15203, USA" type="OFFENSE" description="*********************************************** &lt;br/&gt;3304, Criminal Mischief.&lt;br/&gt;"/><marker lat="40.4275995" lng="-79.9955291" zone="Zone 3" incidentdate="2014-09-08" incidenttime="18:00:00" incidentnumber="14180039" address="500 Arlington Avenue, Pittsburgh, PA 15203, USA" type="OFFENSE" description="*********************************************** &lt;br/&gt;3304, Criminal Mischief.&lt;br/&gt;"/><marker lat="40.4275995" lng="-79.9955291" zone="Zone 3" incidentdate="2014-09-08" incidenttime="18:00:00" incidentnumber="14180035" address="500 Arlington Avenue, Pittsburgh, PA 15203, USA" type="OFFENSE" description="*********************************************** &lt;br/&gt;3304, Criminal Mischief.&lt;br/&gt;"/><marker lat="40.4742075" lng="-80.0104234" zone="Zone 1" incidentdate="2014-09-08" incidenttime="18:04:00" incidentnumber="14180020" address="200 Kennedy Avenue, Pittsburgh, PA 15214, USA" type="OFFENSE" description="*********************************************** &lt;br/&gt;2701(a)(3), Simple Assault - Attempts by Physical Menace&lt;br/&gt;2706, Terroristic Threats.&lt;br/&gt;5101, Obstructing Admin. of Law&lt;br/&gt;5503, Disorderly Conduct.&lt;br/&gt;"/><marker lat="40.4719975" lng="-79.9373626" zone="Zone 5" incidentdate="2014-09-08" incidenttime="18:10:00" incidentnumber="14180033" address="Fern Circle, Pittsburgh, PA 15224, USA" type="OFFENSE" description="*********************************************** &lt;br/&gt;029, Missing Juvenile&lt;br/&gt;"/><marker lat="40.4396598" lng="-79.9435529" zone="Zone 4" incidentdate="2014-09-08" incidenttime="18:30:00" incidentnumber="14180106" address="Schenley Drive &amp; West Circuit Road, Pittsburgh, PA 15213, USA" type="OFFENSE" description="*********************************************** &lt;br/&gt;3304, Criminal Mischief.&lt;br/&gt;3934, Theft from Vehicle&lt;br/&gt;"/><marker lat="40.4050031" lng="-80.0321465" zone="Zone 6" incidentdate="2014-09-08" incidenttime="18:32:00" incidentnumber="14180047" address="2200 Boustead Street, Pittsburgh, PA 15216, USA" type="OFFENSE" description="*********************************************** &lt;br/&gt;2709, Harassment (Non-Specific)&lt;br/&gt;"/><marker lat="40.4669273" lng="-80.0249946" zone="Zone 1" incidentdate="2014-09-08" incidenttime="18:36:00" incidentnumber="14180048" address="Marshall Avenue &amp; Brighton Road, Pittsburgh, PA 15214, USA" type="OFFENSE" description="*********************************************** &lt;br/&gt;9999, 9999 - (Misc. Incident):&lt;br/&gt;"/><marker lat="40.4405128" lng="-80.0002793" zone="Zone 2" incidentdate="2014-09-08" incidenttime="19:00:00" incidentnumber="14180093" address="300 Fifth Avenue, Pittsburgh, PA 15222, USA" type="OFFENSE" description="*********************************************** &lt;br/&gt;3745, Accidents Involving Damage to Unattended Veh.or Prop.&lt;br/&gt;"/><marker lat="40.4402985" lng="-80.025242" zone="Zone 3" incidentdate="2014-09-08" incidenttime="19:10:00" incidentnumber="14180075" address="200 Republic Street, Pittsburgh, PA 15211, USA" type="OFFENSE" description="*********************************************** &lt;br/&gt;4120, Identity Theft&lt;br/&gt;"/><marker lat="40.443458" lng="-80.039667" zone="Zone 6" incidentdate="2014-09-08" incidenttime="19:10:00" incidentnumber="14180072" address="900 Chartiers Avenue, Pittsburgh, PA 15220, USA" type="OFFENSE" description="*********************************************** &lt;br/&gt;9999, 9999 - (Misc. Incident):&lt;br/&gt;"/><marker lat="40.4329498" lng="-80.0036748" zone="Zone 3" incidentdate="2014-09-08" incidenttime="19:50:00" incidentnumber="14180105" address="200 E Station Square Dr, Pittsburgh, PA 15219, USA" type="OFFENSE" description="*********************************************** &lt;br/&gt;13(a)(16), Possession of Controlled Substance&lt;br/&gt;903, Criminal Conspiracy.&lt;br/&gt;907, Possessing Instruments of Crime.&lt;br/&gt;13(a)(32), Paraphernalia - Use or Possession&lt;br/&gt;5902(a)(1), Prostitution&lt;br/&gt;5902(b), Promoting Prostitution&lt;br/&gt;"/><marker lat="40.471388" lng="-79.8981619" zone="Zone 5" incidentdate="2014-09-08" incidenttime="19:54:00" incidentnumber="14180110" address="1500 Wardsons Street, Pittsburgh, PA 15206, USA" type="OFFENSE" description="*********************************************** &lt;br/&gt;13(a)(31), Marijuana: Possession Small Amount&lt;br/&gt;13(a)(16), Possession of Controlled Substance&lt;br/&gt;4910, Tampering with or Fabricating Physical Evidence.&lt;br/&gt;13(a)(30), Possession w/ Intent to Del. Controlled Substance&lt;br/&gt;907, Possessing Instruments of Crime.&lt;br/&gt;13(a)(32), Paraphernalia - Use or Possession&lt;br/&gt;3323, Stop Signs and Yield Signs.&lt;br/&gt;"/><marker lat="40.4520989" lng="-80.016762" zone="Zone 1" incidentdate="2014-09-08" incidenttime="20:21:00" incidentnumber="14180126" address="900 Western Avenue, Pittsburgh, PA 15233, USA" type="OFFENSE" description="*********************************************** &lt;br/&gt;3921, Theft by Unlawful Taking or Disposition.&lt;br/&gt;"/><marker lat="40.400221" lng="-79.985812" zone="Zone 3" incidentdate="2014-09-08" incidenttime="20:25:00" incidentnumber="14180081" address="200 East Meyers Street, Pittsburgh, PA 15210, USA" type="OFFENSE" description="*********************************************** &lt;br/&gt;2702, Aggravated Assault.&lt;br/&gt;3701, Robbery.&lt;br/&gt;4952, Intimidation of Witnesses or Victims&lt;br/&gt;5104, Resisting Arrest or Other Law Enforcement.&lt;br/&gt;5121, Escape.&lt;br/&gt;"/><marker lat="40.4519534" lng="-80.0165025" zone="Zone 1" incidentdate="2014-09-08" incidenttime="00:01:00" incidentnumber="14179936" address="900 Galveston Avenue, Pittsburgh, PA 15233, USA" type="OFFENSE" description="*********************************************** &lt;br/&gt;9999, 9999 - (Misc. Incident):&lt;br/&gt;"/><marker lat="40.423774" lng="-80.005291" zone="Zone 3" incidentdate="2014-09-08" incidenttime="01:00:00" incidentnumber="14179983" address="100 Ruth Street, Pittsburgh, PA 15211, USA" type="OFFENSE" description="*********************************************** &lt;br/&gt;2709, Harassment (Non-Specific)&lt;br/&gt;"/><marker lat="40.4203912" lng="-79.9936966" zone="Zone 3" incidentdate="2014-09-08" incidenttime="01:10:00" incidentnumber="14179582" address="800 Proctor Way, Pittsburgh, PA 15210, USA" type="OFFENSE" description="*********************************************** &lt;br/&gt;2702, Aggravated Assault.&lt;br/&gt;2706, Terroristic Threats.&lt;br/&gt;5104, Resisting Arrest or Other Law Enforcement.&lt;br/&gt;5505, Public Drunkenness&lt;br/&gt;5503(a)(2), DISORDERLY CONDUCT - UNREASONABLE NOISE&lt;br/&gt;"/><marker lat="40.428441" lng="-79.978966" zone="Zone 3" incidentdate="2014-09-08" incidenttime="01:15:00" incidentnumber="14179587" address="1900 East Carson Street, Pittsburgh, PA 15203, USA" type="OFFENSE" description="*********************************************** &lt;br/&gt;2702, Aggravated Assault.&lt;br/&gt;"/><marker lat="40.4286145" lng="-79.985176" zone="Zone 3" incidentdate="2014-09-08" incidenttime="01:35:00" incidentnumber="14178851" address="1300 East Carson Street, Pittsburgh, PA 15203, USA" type="OFFENSE" description="*********************************************** &lt;br/&gt;5503(a)(1), DISORDERLY CONDUCT - ENGAGE IN FIGHTING&lt;br/&gt;"/><marker lat="40.454003" lng="-79.895663" zone="Zone 5" incidentdate="2014-09-08" incidenttime="01:52:00" incidentnumber="14179598" address="7300 Hamilton Avenue, Pittsburgh, PA 15208, USA" type="OFFENSE" description="*********************************************** &lt;br/&gt;2701, Simple Assault.&lt;br/&gt;"/><marker lat="40.4688072" lng="-79.9177977" zone="Zone 5" incidentdate="2014-09-08" incidenttime="02:18:00" incidentnumber="14179603" address="800 Collins Street, Pittsburgh, PA 15206, USA" type="OFFENSE" description="*********************************************** &lt;br/&gt;5503(a)(2), DISORDERLY CONDUCT - UNREASONABLE NOISE&lt;br/&gt;"/><marker lat="40.4288385" lng="-79.9827049" zone="Zone 3" incidentdate="2014-09-08" incidenttime="02:35:00" incidentnumber="14173580" address="East Carson Street &amp; South 16th Street, Pittsburgh, PA 15203, USA" type="OFFENSE" description="*********************************************** &lt;br/&gt;5505, Public Drunkenness&lt;br/&gt;"/><marker lat="40.4534317" lng="-79.9801358" zone="Zone 2" incidentdate="2014-09-08" incidenttime="03:53:00" incidentnumber="14179650" address="2400 Penn Avenue, Pittsburgh, PA 15222, USA" type="OFFENSE" description="*********************************************** &lt;br/&gt;9488, False  Burglar Alarm&lt;br/&gt;"/><marker lat="40.4631197" lng="-79.9367479" zone="Zone 5" incidentdate="2014-09-08" incidenttime="04:21:00" incidentnumber="14179660" address="5400 Coral Street, Pittsburgh, PA 15206, USA" type="OFFENSE" description="*********************************************** &lt;br/&gt;5506, Loitering and Prowling at Night&lt;br/&gt;3503, Criminal Trespass&lt;br/&gt;"/><marker lat="40.4282915" lng="-79.9874907" zone="Zone 3" incidentdate="2014-09-08" incidenttime="06:00:00" incidentnumber="14179765" address="South 11th Street, Pittsburgh, PA 15203, USA" type="OFFENSE" description="*********************************************** &lt;br/&gt;3304, Criminal Mischief.&lt;br/&gt;3934, Theft from Vehicle&lt;br/&gt;"/><marker lat="40.4358908" lng="-79.9553238" zone="Zone 4" incidentdate="2014-09-08" incidenttime="06:30:00" incidentnumber="14179716" address="Welsford Street, Pittsburgh, PA 15213, USA" type="OFFENSE" description="*********************************************** &lt;br/&gt;3921, Theft by Unlawful Taking or Disposition.&lt;br/&gt;"/><marker lat="40.4527418" lng="-79.8891837" zone="Zone 5" incidentdate="2014-09-08" incidenttime="06:39:00" incidentnumber="14179686" address="Hamilton Avenue &amp; Brushton Avenue, Pittsburgh, PA 15208, USA" type="OFFENSE" description="*********************************************** &lt;br/&gt;5902(a)(2), Prostitution - Loitering for purpose of&lt;br/&gt;5902(a)(1), Prostitution&lt;br/&gt;"/><marker lat="40.434609" lng="-79.954583" zone="Zone 4" incidentdate="2014-09-08" incidenttime="07:00:00" incidentnumber="14179870" address="3400 Ward Street, Pittsburgh, PA 15213, USA" type="OFFENSE" description="*********************************************** &lt;br/&gt;3745, Accidents Involving Damage to Unattended Veh.or Prop.&lt;br/&gt;"/><marker lat="40.4560808" lng="-79.9154088" zone="Zone 5" incidentdate="2014-09-08" incidenttime="07:00:00" incidentnumber="14179699" address="6500 Penn Avenue, Bakery Square, Pittsburgh, PA 15206, USA" type="OFFENSE" description="*********************************************** &lt;br/&gt;3921, Theft by Unlawful Taking or Disposition.&lt;br/&gt;"/><marker lat="40.4285403" lng="-79.9834456" zone="Zone 3" incidentdate="2014-09-08" incidenttime="08:00:00" incidentnumber="14179723" address="100 South 15th Street, Pittsburgh, PA 15203, USA" type="OFFENSE" description="*********************************************** &lt;br/&gt;3304, Criminal Mischief.&lt;br/&gt;3934, Theft from Vehicle&lt;br/&gt;"/><marker lat="40.4415049" lng="-79.9972876" zone="Zone 2" incidentdate="2014-09-08" incidenttime="08:30:00" incidentnumber="14179803" address="600 Smithfield Street, Pittsburgh, PA 15222, USA" type="OFFENSE" description="*********************************************** &lt;br/&gt;3921, Theft by Unlawful Taking or Disposition.&lt;br/&gt;"/><marker lat="40.4625399" lng="-79.9241869" zone="Zone 5" incidentdate="2014-09-08" incidenttime="08:33:00" incidentnumber="14179713" address="200 North Highland Avenue, Pittsburgh, PA 15206, USA" type="OFFENSE" description="*********************************************** &lt;br/&gt;3304, Criminal Mischief.&lt;br/&gt;"/><marker lat="40.4051434" lng="-79.9364904" zone="Zone 4" incidentdate="2014-09-08" incidenttime="09:10:00" incidentnumber="14179734" address="600 Johnston Avenue, Pittsburgh, PA 15207, USA" type="OFFENSE" description="*********************************************** &lt;br/&gt;3502, Burglary.&lt;br/&gt;"/><marker lat="40.4266762" lng="-79.991188" zone="Zone 3" incidentdate="2014-09-08" incidenttime="09:30:00" incidentnumber="14180004" address="800 Windom Street, Pittsburgh, PA 15203, USA" type="OFFENSE" description="*********************************************** &lt;br/&gt;3304, Criminal Mischief.&lt;br/&gt;3934, Theft from Vehicle&lt;br/&gt;"/><marker lat="40.4717587" lng="-79.8999713" zone="Zone 5" incidentdate="2014-09-08" incidenttime="09:30:00" incidentnumber="14179745" address="1300 Schwerner Court, Pittsburgh, PA 15206, USA" type="OFFENSE" description="*********************************************** &lt;br/&gt;3934, Theft from Vehicle&lt;br/&gt;"/><marker lat="40.4549411" lng="-80.058416" zone="Zone 6" incidentdate="2014-09-08" incidenttime="09:35:00" incidentnumber="14179752" address="800 Citadel Street, Pittsburgh, PA 15204, USA" type="OFFENSE" description="*********************************************** &lt;br/&gt;3502, Burglary.&lt;br/&gt;"/><marker lat="40.4603989" lng="-79.9870162" zone="Zone 1" incidentdate="2014-09-08" incidenttime="09:56:00" incidentnumber="14179753" address="1300 Herman Street, Pittsburgh, PA 15212, USA" type="OFFENSE" description="*********************************************** &lt;br/&gt;3502, Burglary.&lt;br/&gt;"/><marker lat="40.3923673" lng="-80.0089471" zone="Zone 6" incidentdate="2014-09-08" incidenttime="10:00:00" incidentnumber="14179758" address="1400 Brookline Boulevard, Pittsburgh, PA 15226, USA" type="OFFENSE" description="*********************************************** &lt;br/&gt;4106, Access Device Fraud&lt;br/&gt;4120, Identity Theft&lt;br/&gt;"/><marker lat="40.4755513" lng="-80.0035639" zone="Zone 1" incidentdate="2014-09-08" incidenttime="10:15:00" incidentnumber="14179783" address="100 Hazlett Street, Pittsburgh, PA 15214, USA" type="OFFENSE" description="*********************************************** &lt;br/&gt;3304, Criminal Mischief.&lt;br/&gt;901, Criminal Attempt&lt;br/&gt;"/><marker lat="40.4811226" lng="-80.0451468" zone="Zone 1" incidentdate="2014-09-08" incidenttime="10:30:00" incidentnumber="14179794" address="3700 Hiawatha Street, Pittsburgh, PA 15212, USA" type="OFFENSE" description="*********************************************** &lt;br/&gt;3934, Theft from Vehicle&lt;br/&gt;"/><marker lat="40.4692235" lng="-79.9057571" zone="Zone 5" incidentdate="2014-09-08" incidenttime="10:30:00" incidentnumber="14179784" address="6400 Dean Street, Pittsburgh, PA 15206, USA" type="OFFENSE" description="*********************************************** &lt;br/&gt;029, Missing Juvenile&lt;br/&gt;"/><marker lat="40.441558" lng="-79.920211" zone="Zone 4" incidentdate="2014-09-08" incidenttime="10:48:00" incidentnumber="14179798" address="1500 Shady Avenue, Pittsburgh, PA 15217, USA" type="OFFENSE" description="*********************************************** &lt;br/&gt;9491, Industrial Accident&lt;br/&gt;"/><marker lat="40.4470526" lng="-80.0510609" zone="Zone 6" incidentdate="2014-09-08" incidenttime="10:50:00" incidentnumber="14179787" address="800 Woodlow Street, Pittsburgh, PA 15205, USA" type="OFFENSE" description="*********************************************** &lt;br/&gt;2701, Simple Assault.&lt;br/&gt;3503(b.1)(i), Simple Trespasser -- threatening or terrorizing the owner or occupant of the premises&lt;br/&gt;"/><marker lat="40.4176052" lng="-79.9713177" zone="Zone 3" incidentdate="2014-09-08" incidenttime="11:00:00" incidentnumber="14179809" address="Arlington Avenue &amp; Clover Street, Pittsburgh, PA 15210, USA" type="OFFENSE" description="*********************************************** &lt;br/&gt;3304, Criminal Mischief.&lt;br/&gt;3934, Theft from Vehicle&lt;br/&gt;"/><marker lat="40.4370751" lng="-79.9609635" zone="Zone 4" incidentdate="2014-09-08" incidenttime="11:20:00" incidentnumber="14179806" address="300 Halket Street, Pittsburgh, PA 15213, USA" type="OFFENSE" description="*********************************************** &lt;br/&gt;2709, Harassment (Non-Specific)&lt;br/&gt;"/><marker lat="40.4571291" lng="-79.9334864" zone="Zone 5" incidentdate="2014-09-08" incidenttime="11:25:00" incidentnumber="14179819" address="5700 Centre Avenue, Pittsburgh, PA 15206, USA" type="OFFENSE" description="*********************************************** &lt;br/&gt;3934, Theft from Vehicle&lt;br/&gt;"/><marker lat="40.4592461" lng="-80.0056028" zone="Zone 1" incidentdate="2014-09-08" incidenttime="11:34:00" incidentnumber="14179810" address="1600 Sandusky Court, Pittsburgh, PA 15212, USA" type="OFFENSE" description="*********************************************** &lt;br/&gt;2701, Simple Assault.&lt;br/&gt;"/><marker lat="40.4394346" lng="-79.984994" zone="Zone 2" incidentdate="2014-09-08" incidenttime="11:45:00" incidentnumber="14179821" address="Crawford Street &amp; Reed Street, Pittsburgh, PA 15219, USA" type="OFFENSE" description="*********************************************** &lt;br/&gt;3304, Criminal Mischief.&lt;br/&gt;3934, Theft from Vehicle&lt;br/&gt;"/><marker lat="40.4496622" lng="-80.0182887" zone="Zone 1" incidentdate="2014-09-08" incidenttime="12:27:00" incidentnumber="14179853" address="Ridge Avenue &amp; Allegheny Avenue, Pittsburgh, PA 15212, USA" type="OFFENSE" description="*********************************************** &lt;br/&gt;13(a)(16), Possession of Controlled Substance&lt;br/&gt;13(a)(30), Possession w/ Intent to Del. Controlled Substance&lt;br/&gt;"/><marker lat="40.4585314" lng="-79.9437397" zone="Zone 5" incidentdate="2014-09-08" incidenttime="12:30:00" incidentnumber="14179835" address="5100 Liberty Avenue, Pittsburgh, PA 15224, USA" type="OFFENSE" description="*********************************************** &lt;br/&gt;9999, 9999 - (Misc. Incident):&lt;br/&gt;"/><marker lat="40.4470526" lng="-80.0510609" zone="Zone 6" incidentdate="2014-09-08" incidenttime="12:30:00" incidentnumber="14179838" address="900 Woodlow Street, Pittsburgh, PA 15205, USA" type="OFFENSE" description="*********************************************** &lt;br/&gt;9999, 9999 - (Misc. Incident):&lt;br/&gt;"/><marker lat="40.498195" lng="-79.853756" zone="Zone 5" incidentdate="2014-09-08" incidenttime="13:30:00" incidentnumber="14179876" address="800 Freeport Road, Pittsburgh, PA 15238, USA" type="OFFENSE" description="*********************************************** &lt;br/&gt;3929, Retail Theft.&lt;br/&gt;"/><marker lat="40.4631921" lng="-79.9685243" zone="Zone 2" incidentdate="2014-09-08" incidenttime="13:35:00" incidentnumber="14179880" address="3400 Smallman Street, Pittsburgh, PA 15201, USA" type="OFFENSE" description="*********************************************** &lt;br/&gt;1301, Registration and Certificate of Title Required.&lt;br/&gt;1543, Driving While Operating Privilege is Suspended or Revoked.&lt;br/&gt;6105(a)(1), Persons not to possess, use, manufacture, control, sell or transfer firearms: Former&lt;br/&gt;6106, Firearms not to be Carried without a License.&lt;br/&gt;3925, Receiving Stolen Property.&lt;br/&gt;Convict, enumerated in subsection (b)&lt;br/&gt;"/><marker lat="40.4565836" lng="-80.0486399" zone="Zone 6" incidentdate="2014-09-08" incidenttime="14:00:00" incidentnumber="14179916" address="200 Hammond Street, Pittsburgh, PA 15204, USA" type="OFFENSE" description="*********************************************** &lt;br/&gt;3502, Burglary.&lt;br/&gt;"/><marker lat="40.421536" lng="-79.9935859" zone="Zone 3" incidentdate="2014-09-08" incidenttime="14:10:00" incidentnumber="14179917" address="800 East Warrington Avenue, Pittsburgh, PA 15210, USA" type="OFFENSE" description="*********************************************** &lt;br/&gt;9124, Drug Investigation&lt;br/&gt;"/><marker lat="40.4528983" lng="-80.0393952" zone="Zone 6" incidentdate="2014-09-08" incidenttime="14:10:00" incidentnumber="14179909" address="West Carson Street &amp; Corliss Street, Pittsburgh, PA 15219, USA" type="OFFENSE" description="*********************************************** &lt;br/&gt;3743, Accidents Involving Damage to Attended Veh. or Property&lt;br/&gt;"/><marker lat="40.4369113" lng="-80.0548834" zone="Zone 6" incidentdate="2014-09-08" incidenttime="14:26:00" incidentnumber="14179903" address="1400 Barr Avenue, Pittsburgh, PA 15205, USA" type="OFFENSE" description="*********************************************** &lt;br/&gt;9488, False  Burglar Alarm&lt;br/&gt;"/><marker lat="40.526907" lng="-80.025708" zone="Zone 2" incidentdate="2014-09-08" incidenttime="15:00:00" incidentnumber="14158679" address="1st Avenue, Pittsburgh, PA 15229, USA" type="OFFENSE" description="*********************************************** &lt;br/&gt;9494, Summary Warrants&lt;br/&gt;"/><marker lat="40.418768" lng="-79.974155" zone="Zone 3" incidentdate="2014-09-08" incidenttime="15:00:00" incidentnumber="14179961" address="2300 Salisbury Street, Pittsburgh, PA 15210, USA" type="OFFENSE" description="*********************************************** &lt;br/&gt;3934, Theft from Vehicle&lt;br/&gt;"/><marker lat="40.4507896" lng="-79.9722422" zone="Zone 2" incidentdate="2014-09-08" incidenttime="01:00:00" incidentnumber="14174849" address="Bedford Avenue &amp; Chauncey Drive, Pittsburgh, PA 15219, USA" type="ARREST" description="*********************************************** &lt;br/&gt;2701(a)(3), Simple Assault - Attempts by Physical Menace&lt;br/&gt;"/><marker lat="40.4693811" lng="-80.0173159" zone="Zone 1" incidentdate="2014-09-08" incidenttime="20:01:00" incidentnumber="14177353" address="600 Danbury Street, Pittsburgh, PA 15214, USA" type="ARREST" description="*********************************************** &lt;br/&gt;13(a)(16), Possession of Controlled Substance&lt;br/&gt;13(a)(30), Possession w/ Intent to Del. Controlled Substance&lt;br/&gt;903, Criminal Conspiracy.&lt;br/&gt;907, Possessing Instruments of Crime.&lt;br/&gt;6106, Firearms not to be Carried without a License.&lt;br/&gt;"/><marker lat="40.4203912" lng="-79.9936966" zone="Zone 3" incidentdate="2014-09-08" incidenttime="01:10:00" incidentnumber="14179582" address="800 Proctor Way, Pittsburgh, PA 15210, USA" type="ARREST" description="*********************************************** &lt;br/&gt;2702, Aggravated Assault.&lt;br/&gt;2706, Terroristic Threats.&lt;br/&gt;5104, Resisting Arrest or Other Law Enforcement.&lt;br/&gt;5505, Public Drunkenness&lt;br/&gt;5503(a)(2), DISORDERLY CONDUCT - UNREASONABLE NOISE&lt;br/&gt;"/><marker lat="40.4368767" lng="-80.011424" zone="Zone 3" incidentdate="2014-09-08" incidenttime="11:12:00" incidentnumber="14174264" address="West Station Square Drive, Pittsburgh, PA, USA" type="ARREST" description="*********************************************** &lt;br/&gt;2701, Simple Assault.&lt;br/&gt;"/><marker lat="40.4693811" lng="-80.0173159" zone="Zone 1" incidentdate="2014-09-08" incidenttime="20:01:00" incidentnumber="14177353" address="600 Danbury Street, Pittsburgh, PA 15214, USA" type="ARREST" description="*********************************************** &lt;br/&gt;13(a)(16), Possession of Controlled Substance&lt;br/&gt;13(a)(30), Possession w/ Intent to Del. Controlled Substance&lt;br/&gt;903, Criminal Conspiracy.&lt;br/&gt;907, Possessing Instruments of Crime.&lt;br/&gt;6106, Firearms not to be Carried without a License.&lt;br/&gt;"/><marker lat="40.4329498" lng="-80.0036748" zone="Zone 3" incidentdate="2014-09-08" incidenttime="19:50:00" incidentnumber="14180105" address="200 E Station Square Dr, Pittsburgh, PA 15219, USA" type="ARREST" description="*********************************************** &lt;br/&gt;13(a)(16), Possession of Controlled Substance&lt;br/&gt;903, Criminal Conspiracy.&lt;br/&gt;907, Possessing Instruments of Crime.&lt;br/&gt;13(a)(32), Paraphernalia - Use or Possession&lt;br/&gt;5902(a)(1), Prostitution&lt;br/&gt;5902(b), Promoting Prostitution&lt;br/&gt;"/><marker lat="40.437979" lng="-79.977513" zone="Zone 4" incidentdate="2014-09-08" incidenttime="01:50:00" incidentnumber="14155890" address="2000 Fifth Avenue, Pittsburgh, PA 15219, USA" type="ARREST" description="*********************************************** &lt;br/&gt;2701, Simple Assault.&lt;br/&gt;3502, Burglary.&lt;br/&gt;"/><marker lat="40.437979" lng="-79.977513" zone="Zone 4" incidentdate="2014-09-08" incidenttime="01:50:00" incidentnumber="14079654" address="2000 Fifth Avenue, Pittsburgh, PA 15219, USA" type="ARREST" description="*********************************************** &lt;br/&gt;2706, Terroristic Threats.&lt;br/&gt;2709.1, Stalking Conduct or Repeatedly Acts Including Follows&lt;br/&gt;"/><marker lat="40.4329498" lng="-80.0036748" zone="Zone 3" incidentdate="2014-09-08" incidenttime="19:50:00" incidentnumber="14180105" address="200 E Station Square Dr, Pittsburgh, PA 15219, USA" type="ARREST" description="*********************************************** &lt;br/&gt;13(a)(16), Possession of Controlled Substance&lt;br/&gt;903, Criminal Conspiracy.&lt;br/&gt;907, Possessing Instruments of Crime.&lt;br/&gt;13(a)(32), Paraphernalia - Use or Possession&lt;br/&gt;5902(a)(1), Prostitution&lt;br/&gt;5902(b), Promoting Prostitution&lt;br/&gt;"/><marker lat="40.400221" lng="-79.985812" zone="Zone 3" incidentdate="2014-09-08" incidenttime="20:25:00" incidentnumber="14180081" address="200 East Meyers Street, Pittsburgh, PA 15210, USA" type="ARREST" description="*********************************************** &lt;br/&gt;2702, Aggravated Assault.&lt;br/&gt;3701, Robbery.&lt;br/&gt;4952, Intimidation of Witnesses or Victims&lt;br/&gt;5104, Resisting Arrest or Other Law Enforcement.&lt;br/&gt;5121, Escape.&lt;br/&gt;"/><marker lat="40.449642" lng="-79.974306" zone="Zone 2" incidentdate="2014-09-08" incidenttime="16:45:00" incidentnumber="14179966" address="2400 Bedford Avenue, Pittsburgh, PA 15219, USA" type="ARREST" description="*********************************************** &lt;br/&gt;2701, Simple Assault.&lt;br/&gt;3502, Burglary.&lt;br/&gt;Convict, enumerated in subsection (b)&lt;br/&gt;6105(a)(1), Persons not to possess, use, manufacture, control, sell or transfer firearms: Former&lt;br/&gt;"/><marker lat="40.4496622" lng="-80.0182887" zone="Zone 1" incidentdate="2014-09-08" incidenttime="12:27:00" incidentnumber="14179853" address="Ridge Avenue &amp; Allegheny Avenue, Pittsburgh, PA 15212, USA" type="ARREST" description="*********************************************** &lt;br/&gt;13(a)(16), Possession of Controlled Substance&lt;br/&gt;13(a)(30), Possession w/ Intent to Del. Controlled Substance&lt;br/&gt;"/><marker lat="40.4763535" lng="-79.9977654" zone="Zone 1" incidentdate="2014-09-08" incidenttime="12:30:00" incidentnumber="14174555" address="700 Mount Pleasant Road, Pittsburgh, PA 15214, USA" type="ARREST" description="*********************************************** &lt;br/&gt;7507.1, Invasion Privacy - Victim Full or Part Nude&lt;br/&gt;"/><marker lat="40.4631197" lng="-79.9367479" zone="Zone 5" incidentdate="2014-09-08" incidenttime="04:35:00" incidentnumber="14179660" address="5400 Coral Street, Pittsburgh, PA 15206, USA" type="ARREST" description="*********************************************** &lt;br/&gt;5506, Loitering and Prowling at Night&lt;br/&gt;3503, Criminal Trespass&lt;br/&gt;"/><marker lat="40.4631197" lng="-79.9367479" zone="Zone 5" incidentdate="2014-09-08" incidenttime="04:35:00" incidentnumber="14179660" address="5400 Coral Street, Pittsburgh, PA 15206, USA" type="ARREST" description="*********************************************** &lt;br/&gt;5506, Loitering and Prowling at Night&lt;br/&gt;3503, Criminal Trespass&lt;br/&gt;"/><marker lat="40.4631197" lng="-79.9367479" zone="Zone 5" incidentdate="2014-09-08" incidenttime="04:35:00" incidentnumber="14179660" address="5400 Coral Street, Pittsburgh, PA 15206, USA" type="ARREST" description="*********************************************** &lt;br/&gt;5506, Loitering and Prowling at Night&lt;br/&gt;3503, Criminal Trespass&lt;br/&gt;"/><marker lat="40.4742075" lng="-80.0104234" zone="Zone 1" incidentdate="2014-09-08" incidenttime="18:04:00" incidentnumber="14180020" address="200 Kennedy Avenue, Pittsburgh, PA 15214, USA" type="ARREST" description="*********************************************** &lt;br/&gt;2701(a)(3), Simple Assault - Attempts by Physical Menace&lt;br/&gt;2706, Terroristic Threats.&lt;br/&gt;5101, Obstructing Admin. of Law&lt;br/&gt;5503, Disorderly Conduct.&lt;br/&gt;"/><marker lat="40.4142931" lng="-80.0267359" zone="Zone 6" incidentdate="2014-09-08" incidenttime="16:55:00" incidentnumber="14179982" address="Rutherford Avenue &amp; Bayonne Avenue, Pittsburgh, PA 15216, USA" type="ARREST" description="*********************************************** &lt;br/&gt;13(a)(16), Possession of Controlled Substance&lt;br/&gt;3334, Turning Movements and Required Signals.&lt;br/&gt;13(a)(32), Paraphernalia - Use or Possession&lt;br/&gt;5507, Obstructing Highways and Passages.&lt;br/&gt;"/><marker lat="40.4527418" lng="-79.8891837" zone="Zone 5" incidentdate="2014-09-08" incidenttime="06:39:00" incidentnumber="14179686" address="Hamilton Avenue &amp; Brushton Avenue, Pittsburgh, PA 15208, USA" type="ARREST" description="*********************************************** &lt;br/&gt;5902(a)(2), Prostitution - Loitering for purpose of&lt;br/&gt;5902(a)(1), Prostitution&lt;br/&gt;"/><marker lat="40.526907" lng="-80.025708" zone="Zone 2" incidentdate="2014-09-08" incidenttime="12:40:00" incidentnumber="14177165" address="1st Avenue, Pittsburgh, PA 15229, USA" type="ARREST" description="*********************************************** &lt;br/&gt;13(a)(16), Possession of Controlled Substance&lt;br/&gt;"/><marker lat="40.449642" lng="-79.974306" zone="Zone 2" incidentdate="2014-09-08" incidenttime="20:30:00" incidentnumber="14164904" address="2400 Bedford Avenue, Pittsburgh, PA 15219, USA" type="ARREST" description="*********************************************** &lt;br/&gt;2701, Simple Assault.&lt;br/&gt;2706, Terroristic Threats.&lt;br/&gt;"/><marker lat="40.441132" lng="-80.001989" zone="Zone 2" incidentdate="2014-09-08" incidenttime="17:00:00" incidentnumber="14179985" address="200 Fifth Avenue, Pittsburgh, PA 15222, USA" type="ARREST" description="*********************************************** &lt;br/&gt;9501, Bench Warrant&lt;br/&gt;3929, Retail Theft.&lt;br/&gt;3503.B1I, DEF. TRESPASS ACTUAL COMMUNICATION&lt;br/&gt;"/><marker lat="40.4631921" lng="-79.9685243" zone="Zone 2" incidentdate="2014-09-08" incidenttime="13:35:00" incidentnumber="14179880" address="3400 Smallman Street, Pittsburgh, PA 15201, USA" type="ARREST" description="*********************************************** &lt;br/&gt;1301, Registration and Certificate of Title Required.&lt;br/&gt;1543, Driving While Operating Privilege is Suspended or Revoked.&lt;br/&gt;6105(a)(1), Persons not to possess, use, manufacture, control, sell or transfer firearms: Former&lt;br/&gt;6106, Firearms not to be Carried without a License.&lt;br/&gt;3925, Receiving Stolen Property.&lt;br/&gt;Convict, enumerated in subsection (b)&lt;br/&gt;"/><marker lat="40.426312" lng="-79.9691623" zone="Zone 3" incidentdate="2014-09-08" incidenttime="13:40:00" incidentnumber="14066093" address="100 South 26th Street, Pittsburgh, PA 15203, USA" type="ARREST" description="*********************************************** &lt;br/&gt;3502, Burglary.&lt;br/&gt;4106, Access Device Fraud&lt;br/&gt;"/><marker lat="40.526907" lng="-80.025708" zone="Zone 2" incidentdate="2014-09-08" incidenttime="08:30:00" incidentnumber="14101077" address="1st Avenue, Pittsburgh, PA 15229, USA" type="ARREST" description="*********************************************** &lt;br/&gt;3921(a), Theft by Unlawful Taking or Disposition - Movable item&lt;br/&gt;"/><marker lat="40.498195" lng="-79.853756" zone="Zone 5" incidentdate="2014-09-08" incidenttime="13:40:00" incidentnumber="14179876" address="800 Freeport Road, Pittsburgh, PA 15238, USA" type="ARREST" description="*********************************************** &lt;br/&gt;3929, Retail Theft.&lt;br/&gt;"/><marker lat="40.471388" lng="-79.8981619" zone="Zone 5" incidentdate="2014-09-08" incidenttime="19:55:00" incidentnumber="14180110" address="1500 Wardsons Street, Pittsburgh, PA 15206, USA" type="ARREST" description="*********************************************** &lt;br/&gt;13(a)(31), Marijuana: Possession Small Amount&lt;br/&gt;13(a)(16), Possession of Controlled Substance&lt;br/&gt;4910, Tampering with or Fabricating Physical Evidence.&lt;br/&gt;13(a)(30), Possession w/ Intent to Del. Controlled Substance&lt;br/&gt;907, Possessing Instruments of Crime.&lt;br/&gt;13(a)(32), Paraphernalia - Use or Possession&lt;br/&gt;3323, Stop Signs and Yield Signs.&lt;br/&gt;"/><marker lat="40.457644" lng="-79.935299" zone="Zone 5" incidentdate="2014-09-08" incidenttime="18:30:00" incidentnumber="14161136" address="5600 Baum Boulevard, Pittsburgh, PA 15206, USA" type="ARREST" description="*********************************************** &lt;br/&gt;9501, Bench Warrant&lt;br/&gt;903, Criminal Conspiracy.&lt;br/&gt;3929, Retail Theft.&lt;br/&gt;"/><marker lat="40.457644" lng="-79.935299" zone="Zone 5" incidentdate="2014-09-08" incidenttime="18:30:00" incidentnumber="14180027" address="5600 Baum Boulevard, Pittsburgh, PA 15206, USA" type="ARREST" description="*********************************************** &lt;br/&gt;3929, Retail Theft.&lt;br/&gt;903, Criminal Conspiracy.&lt;br/&gt;"/><marker lat="40.3951787" lng="-80.0225039" zone="Zone 6" incidentdate="2014-09-08" incidenttime="09:30:00" incidentnumber="14117596" address="600 Brookline Boulevard, Pittsburgh, PA 15226, USA" type="ARREST" description="*********************************************** &lt;br/&gt;3921, Theft by Unlawful Taking or Disposition.&lt;br/&gt;3925, Receiving Stolen Property.&lt;br/&gt;3927, Theft by Failure to Make Required Disp. of Funds&lt;br/&gt;4105(a)(1), Bad Checks&lt;br/&gt;903, Criminal Conspiracy.&lt;br/&gt;3924, Theft of Property Lost, Mislaid or Delivered by Mistake.&lt;br/&gt;"/><marker lat="40.457644" lng="-79.935299" zone="Zone 5" incidentdate="2014-09-08" incidenttime="18:30:00" incidentnumber="14180027" address="5600 Baum Boulevard, Pittsburgh, PA 15206, USA" type="ARREST" description="*********************************************** &lt;br/&gt;3929, Retail Theft.&lt;br/&gt;903, Criminal Conspiracy.&lt;br/&gt;"/><marker lat="40.471388" lng="-79.8981619" zone="Zone 5" incidentdate="2014-09-08" incidenttime="19:55:00" incidentnumber="14180110" address="1500 Wardsons Street, Pittsburgh, PA 15206, USA" type="ARREST" description="*********************************************** &lt;br/&gt;13(a)(31), Marijuana: Possession Small Amount&lt;br/&gt;13(a)(16), Possession of Controlled Substance&lt;br/&gt;4910, Tampering with or Fabricating Physical Evidence.&lt;br/&gt;13(a)(30), Possession w/ Intent to Del. Controlled Substance&lt;br/&gt;907, Possessing Instruments of Crime.&lt;br/&gt;13(a)(32), Paraphernalia - Use or Possession&lt;br/&gt;3323, Stop Signs and Yield Signs.&lt;br/&gt;"/><marker lat="40.407885" lng="-79.946151" zone="Zone 4" incidentdate="2014-09-08" incidenttime="17:41:00" incidentnumber="14180029" address="5000 Lytle Street, Pittsburgh, PA 15207, USA" type="ARREST" description="*********************************************** &lt;br/&gt;13(a)(16), Possession of Controlled Substance&lt;br/&gt;13(a)(30), Possession w/ Intent to Del. Controlled Substance&lt;br/&gt;"/><marker lat="40.471388" lng="-79.8981619" zone="Zone 5" incidentdate="2014-09-08" incidenttime="19:55:00" incidentnumber="14180110" address="1500 Wardsons Street, Pittsburgh, PA 15206, USA" type="ARREST" description="*********************************************** &lt;br/&gt;13(a)(31), Marijuana: Possession Small Amount&lt;br/&gt;13(a)(16), Possession of Controlled Substance&lt;br/&gt;4910, Tampering with or Fabricating Physical Evidence.&lt;br/&gt;13(a)(30), Possession w/ Intent to Del. Controlled Substance&lt;br/&gt;907, Possessing Instruments of Crime.&lt;br/&gt;13(a)(32), Paraphernalia - Use or Possession&lt;br/&gt;3323, Stop Signs and Yield Signs.&lt;br/&gt;"/><marker lat="40.4237922" lng="-79.9521696" zone="Zone 2" incidentdate="2014-09-08" incidenttime="18:40:00" incidentnumber="14151575" address="900 Second Avenue, Pittsburgh, PA 15207, USA" type="ARREST" description="*********************************************** &lt;br/&gt;2701(a)(1), Simple Assault - Intent., Know., Reckless.Cause Bod. Injury&lt;br/&gt;3503, Criminal Trespass&lt;br/&gt;3304(a)(5), CRIMINAL MISCHIEF - Intentionally Damages Real Or Personal Property Of Another&lt;br/&gt;"/><marker lat="40.441132" lng="-80.001989" zone="Zone 2" incidentdate="2014-09-08" incidenttime="17:56:00" incidentnumber="14180025" address="200 Fifth Avenue, Pittsburgh, PA 15222, USA" type="ARREST" description="*********************************************** &lt;br/&gt;3929, Retail Theft.&lt;br/&gt;"/><marker lat="40.4359335" lng="-79.9971487" zone="Zone 2" incidentdate="2014-09-08" incidenttime="20:00:00" incidentnumber="14164968" address="600 First Avenue, Pittsburgh, PA 15219, USA" type="ARREST" description="*********************************************** &lt;br/&gt;3925, Receiving Stolen Property.&lt;br/&gt;"/><marker lat="40.4884741" lng="-80.0101518" zone="Zone 1" incidentdate="2014-09-08" incidenttime="19:01:00" incidentnumber="14108874" address="3600 Baytree Street, Pittsburgh, PA 15214, USA" type="ARREST" description="*********************************************** &lt;br/&gt;3502, Burglary.&lt;br/&gt;"/></markers>
