<?xml version="1.0"?>
<markers><marker lat="40.41910505809637" lng="-79.995820009539997" zone="Zone 3" incidentdate="2016-08-01" incidenttime="03:50:00" incidentnumber="16142449" address="Millbridge St" type="OFFENSE" age="" gender="" description="*********************************************** &lt;br/&gt;2706, Terroristic Threats.&lt;br/&gt;"/><marker lat="40.459196444841801" lng="-80.008503219538227" zone="Zone 1" incidentdate="2016-08-01" incidenttime="14:15:00" incidentnumber="16142734" address="100 block Carrington St" type="OFFENSE" age="" gender="" description="*********************************************** &lt;br/&gt;4120, Identity Theft&lt;br/&gt;"/><marker lat="40.462467752250426" lng="-80.030224841217816" zone="Zone 1" incidentdate="2016-08-01" incidenttime="23:45:00" incidentnumber="16143054" address="2300 block Atmore St" type="OFFENSE" age="" gender="" description="*********************************************** &lt;br/&gt;9497, Aided Case&lt;br/&gt;"/><marker lat="40.453083606013678" lng="-80.009016805191777" zone="Zone 1" incidentdate="2016-08-01" incidenttime="11:01:00" incidentnumber="16142598" address="800 block Arch St" type="OFFENSE" age="" gender="" description="*********************************************** &lt;br/&gt;9488, False  Burglar Alarm&lt;br/&gt;"/><marker lat="40.454948691850667" lng="-80.009640272832598" zone="Zone 1" incidentdate="2016-08-01" incidenttime="02:15:00" incidentnumber="16142400" address="300 block E North Ave" type="OFFENSE" age="" gender="" description="*********************************************** &lt;br/&gt;2702, Aggravated Assault.&lt;br/&gt;5505, Public Drunkenness&lt;br/&gt;5503(a)(3), DISORDERLY CONDUCT - OBSCENE LANG/GEST&lt;br/&gt;"/><marker lat="40.439646251257145" lng="-79.995893890528734" zone="Zone 2" incidentdate="2016-08-01" incidenttime="16:30:00" incidentnumber="16142803" address="500 block Grant St" type="OFFENSE" age="" gender="" description="*********************************************** &lt;br/&gt;2706, Terroristic Threats.&lt;br/&gt;"/><marker lat="40.4832950" lng="-79.9477077" zone="Zone 2" incidentdate="2016-08-01" incidenttime="15:30:00" incidentnumber="16142801" address="400 block 56th St" type="OFFENSE" age="" gender="" description="*********************************************** &lt;br/&gt;2709(a)(1), Harassment by Physical Contact, or Attempts or Threats&lt;br/&gt;"/><marker lat="40.38362556326183" lng="-80.01044301550354" zone="Zone 6" incidentdate="2016-08-01" incidenttime="11:55:00" incidentnumber="16142639" address="1800 block Creedmoor Ave" type="OFFENSE" age="" gender="" description="*********************************************** &lt;br/&gt;4912, Impersonating a Public Servant.&lt;br/&gt;"/><marker lat="40.461291408727419" lng="-79.985052286820633" zone="Zone 1" incidentdate="2016-08-01" incidenttime="03:00:00" incidentnumber="16142490" address="Lowrie St &amp; Gardner St" type="OFFENSE" age="" gender="" description="*********************************************** &lt;br/&gt;3921, Theft by Unlawful Taking or Disposition.&lt;br/&gt;"/><marker lat="40.447791383449896" lng="-80.003763673123132" zone="Zone 1" incidentdate="2016-08-01" incidenttime="05:15:00" incidentnumber="16142459" address="100 block Federal St" type="OFFENSE" age="" gender="" description="*********************************************** &lt;br/&gt;9488, False  Burglar Alarm&lt;br/&gt;"/><marker lat="40.466616756829907" lng="-79.993676874083434" zone="Zone 1" incidentdate="2016-08-01" incidenttime="17:50:00" incidentnumber="16142878" address="2100 block Rhine St" type="OFFENSE" age="" gender="" description="*********************************************** &lt;br/&gt;9999, 9999 - (Misc. Incident):&lt;br/&gt;"/><marker lat="40.457694154327669" lng="-80.008967682085711" zone="Zone 1" incidentdate="2016-08-01" incidenttime="14:55:00" incidentnumber="16142790" address="Fireman Way &amp; Leduc Way" type="OFFENSE" age="" gender="" description="*********************************************** &lt;br/&gt;13(a)(16), Possession of Controlled Substance&lt;br/&gt;13(a)(30), Possession w/ Intent to Del. Controlled Substance&lt;br/&gt;4910, Tampering with or Fabricating Physical Evidence.&lt;br/&gt;3925, Receiving Stolen Property.&lt;br/&gt;907, Possessing Instruments of Crime.&lt;br/&gt;"/><marker lat="40.432634993637109" lng="-80.043165603497357" zone="Zone 6" incidentdate="2016-08-01" incidenttime="10:10:00" incidentnumber="16142573" address="1000 block Jerome St" type="OFFENSE" age="" gender="" description="*********************************************** &lt;br/&gt;3304, Criminal Mischief.&lt;br/&gt;"/><marker lat="40.431557283791797" lng="-80.008785199434641" zone="Zone 3" incidentdate="2016-08-01" incidenttime="13:30:00" incidentnumber="16142898" address="200 block W Sycamore St" type="OFFENSE" age="" gender="" description="*********************************************** &lt;br/&gt;3921, Theft by Unlawful Taking or Disposition.&lt;br/&gt;4106, Access Device Fraud&lt;br/&gt;"/><marker lat="40.454847617787955" lng="-79.975614297713349" zone="Zone 6" incidentdate="2016-08-01" incidenttime="17:00:00" incidentnumber="16142800" address="2700 block West Liberty Ave" type="OFFENSE" age="" gender="" description="*********************************************** &lt;br/&gt;1543, Driving While Operating Privilege is Suspended or Revoked.&lt;br/&gt;3743, Accidents Involving Damage to Attended Veh. or Property&lt;br/&gt;3742.1, Accident Involv. Death/Inj. While not Licensed&lt;br/&gt;3323, Stop Signs and Yield Signs.&lt;br/&gt;3746, Immediate Notice of Accident to Police Department&lt;br/&gt;"/><marker lat="40.428585203983602" lng="-79.981869007680203" zone="Zone 3" incidentdate="2016-08-01" incidenttime="01:38:00" incidentnumber="16142378" address="1700 block E Carson St" type="OFFENSE" age="" gender="" description="*********************************************** &lt;br/&gt;13(a)(31), Marijuana: Possession Small Amount&lt;br/&gt;4910, Tampering with or Fabricating Physical Evidence.&lt;br/&gt;3304, Criminal Mischief.&lt;br/&gt;607.03, Discharging Firearm or Airgun&lt;br/&gt;3925, Receiving Stolen Property.&lt;br/&gt;6106, Firearms not to be Carried without a License.&lt;br/&gt;6105(a)(1), Persons not to possess, use, manufacture, control, sell or transfer firearms: Former convict enumerated in subsection (b)&lt;br/&gt;"/><marker lat="40.460143465743265" lng="-79.994970064034916" zone="Zone 1" incidentdate="2016-08-01" incidenttime="08:35:00" incidentnumber="16142521" address="1000 block Goehring St" type="OFFENSE" age="" gender="" description="*********************************************** &lt;br/&gt;3304, Criminal Mischief.&lt;br/&gt;"/><marker lat="40.443994906871318" lng="-80.002708132437306" zone="Zone 2" incidentdate="2016-08-01" incidenttime="21:36:00" incidentnumber="16143011" address="6th St &amp; Fort Duquesne Blvd" type="OFFENSE" age="" gender="" description="*********************************************** &lt;br/&gt;9501, Bench Warrant&lt;br/&gt;"/><marker lat="40.426072863893459" lng="-79.999785058802559" zone="Zone 3" incidentdate="2016-08-01" incidenttime="14:00:00" incidentnumber="16142909" address="400 block Kambach St" type="OFFENSE" age="" gender="" description="*********************************************** &lt;br/&gt;3922, Theft by Deception.&lt;br/&gt;"/><marker lat="40.433693928572964" lng="-79.922813530566174" zone="Zone 4" incidentdate="2016-08-01" incidenttime="15:10:00" incidentnumber="16142748" address="5800 block Hobart St" type="OFFENSE" age="" gender="" description="*********************************************** &lt;br/&gt;4106, Access Device Fraud&lt;br/&gt;"/><marker lat="40.45339751885701" lng="-79.929132299539447" zone="Zone 4" incidentdate="2016-08-01" incidenttime="16:05:00" incidentnumber="16142785" address="5800 block Elwood St" type="OFFENSE" age="" gender="" description="*********************************************** &lt;br/&gt;9496, Dead on Arrival (DOA)&lt;br/&gt;"/><marker lat="40.378506363547665" lng="-79.993273366026258" zone="Zone 3" incidentdate="2016-08-01" incidenttime="17:00:00" incidentnumber="16142845" address="Stewart Ave" type="OFFENSE" age="" gender="" description="*********************************************** &lt;br/&gt;9999, 9999 - (Misc. Incident):&lt;br/&gt;"/><marker lat="40.454144424118297" lng="-79.961292694367344" zone="Zone 2" incidentdate="2016-08-01" incidenttime="09:44:00" incidentnumber="16142562" address="3400 block Milwaukee St" type="OFFENSE" age="" gender="" description="*********************************************** &lt;br/&gt;3926(a)(1), Theft of Services; Cable, Gas, Taxi, Bill, Tab, etc.&lt;br/&gt;"/><marker lat="40.455671915720181" lng="-79.942874557026855" zone="Zone 5" incidentdate="2016-08-01" incidenttime="17:48:00" incidentnumber="16142856" address="Baum Blvd &amp; Woodworth St" type="OFFENSE" age="" gender="" description="*********************************************** &lt;br/&gt;3802(a)(1), DUI - General Impairment&lt;br/&gt;"/><marker lat="40.428412853684961" lng="-79.97463883827848" zone="Zone 3" incidentdate="2016-08-01" incidenttime="02:07:00" incidentnumber="16142403" address="S 22nd St &amp; E Carson St" type="OFFENSE" age="" gender="" description="*********************************************** &lt;br/&gt;9501, Bench Warrant&lt;br/&gt;"/><marker lat="40.466301368364185" lng="-80.011090311070006" zone="Zone 1" incidentdate="2016-08-01" incidenttime="15:45:00" incidentnumber="16142788" address="2300 block Perrysville Ave" type="OFFENSE" age="" gender="" description="*********************************************** &lt;br/&gt;3921, Theft by Unlawful Taking or Disposition.&lt;br/&gt;"/><marker lat="40.460657733924627" lng="-79.897485505821379" zone="Zone 5" incidentdate="2016-08-01" incidenttime="10:40:00" incidentnumber="16142584" address="7100 block Hermitage St" type="OFFENSE" age="" gender="" description="*********************************************** &lt;br/&gt;2701, Simple Assault.&lt;br/&gt;"/><marker lat="40.417504115180527" lng="-79.980508802138502" zone="Zone 3" incidentdate="2016-08-01" incidenttime="01:30:00" incidentnumber="16142422" address="1900 block Arlington Ave" type="OFFENSE" age="" gender="" description="*********************************************** &lt;br/&gt;3304, Criminal Mischief.&lt;br/&gt;3934, Theft from Vehicle&lt;br/&gt;"/><marker lat="40.4618246" lng="-80.0064869" zone="Zone 1" incidentdate="2016-08-01" incidenttime="18:08:00" incidentnumber="16142891" address="Belleau St &amp; Sandusky St N" type="OFFENSE" age="" gender="" description="*********************************************** &lt;br/&gt;9501, Bench Warrant&lt;br/&gt;"/><marker lat="40.467668512394319" lng="-80.026886880386868" zone="Zone 1" incidentdate="2016-08-01" incidenttime="13:40:00" incidentnumber="16142721" address="1200 block Hodgkiss St" type="OFFENSE" age="" gender="" description="*********************************************** &lt;br/&gt;3928, Unauthorized Use of Automobile and Other Vehicles.&lt;br/&gt;"/><marker lat="40.453312242754301" lng="-80.001693845474151" zone="Zone 1" incidentdate="2016-08-01" incidenttime="22:30:00" incidentnumber="16143029" address="Cedar Ave &amp; East Ohio St" type="OFFENSE" age="" gender="" description="*********************************************** &lt;br/&gt;3921(a), Theft by Unlawful Taking or Disposition - Movable item&lt;br/&gt;"/><marker lat="40.423782922202541" lng="-80.005228578428458" zone="Zone 3" incidentdate="2016-08-01" incidenttime="10:30:00" incidentnumber="16142592" address="100 block Ruth St" type="OFFENSE" age="" gender="" description="*********************************************** &lt;br/&gt;3745, Accidents Involving Damage to Unattended Veh.or Prop.&lt;br/&gt;"/><marker lat="40.4100136" lng="-79.8534975" zone="Zone OSC" incidentdate="2016-08-01" incidenttime="08:27:00" incidentnumber="16142513" address="2600 block Brinton Mnr" type="OFFENSE" age="" gender="" description="*********************************************** &lt;br/&gt;9094, Recovered Stolen Vehicle (OUTSIDE CITY)&lt;br/&gt;"/><marker lat="40.442888113190847" lng="-79.997936520552642" zone="Zone 2" incidentdate="2016-08-01" incidenttime="20:27:00" incidentnumber="16142965" address="900 block Liberty Ave" type="OFFENSE" age="" gender="" description="*********************************************** &lt;br/&gt;5503(a)(4), DISORDERLY CONDUCT - HAZARDOUS/PHYS. OFF&lt;br/&gt;5505, Public Drunkenness&lt;br/&gt;"/><marker lat="40.441959659598155" lng="-79.962836682381649" zone="Zone 4" incidentdate="2016-08-01" incidenttime="22:15:00" incidentnumber="16143020" address="Darragh St &amp; Terrace St" type="OFFENSE" age="" gender="" description="*********************************************** &lt;br/&gt;9490, Missing Persons (18 and Over)&lt;br/&gt;"/><marker lat="40.47858752419932" lng="-80.038474537164149" zone="Zone 1" incidentdate="2016-08-01" incidenttime="19:14:00" incidentnumber="16142929" address="3500 block Fleming Ave" type="OFFENSE" age="" gender="" description="*********************************************** &lt;br/&gt;9999, 9999 - (Misc. Incident):&lt;br/&gt;"/><marker lat="40.446207760459167" lng="-79.906250319730987" zone="Zone 5" incidentdate="2016-08-01" incidenttime="15:30:00" incidentnumber="16143041" address="500 block N Lang Ave" type="OFFENSE" age="" gender="" description="*********************************************** &lt;br/&gt;2706, Terroristic Threats.&lt;br/&gt;"/><marker lat="40.471049803413059" lng="-79.924878997342091" zone="Zone 5" incidentdate="2016-08-01" incidenttime="11:20:00" incidentnumber="16142614" address="800 block Mellon St" type="OFFENSE" age="" gender="" description="*********************************************** &lt;br/&gt;2701(a)(3), Simple Assault - Attempts by Physical Menace&lt;br/&gt;"/><marker lat="40.455068657686944" lng="-79.897236536604481" zone="Zone 5" incidentdate="2016-08-01" incidenttime="01:52:00" incidentnumber="16142396" address="N Homewood Ave &amp; Formosa Way" type="OFFENSE" age="" gender="" description="*********************************************** &lt;br/&gt;3701, Robbery.&lt;br/&gt;903, Criminal Conspiracy.&lt;br/&gt;"/><marker lat="40.417390420276604" lng="-79.998769840327626" zone="Zone 3" incidentdate="2016-08-01" incidenttime="00:58:00" incidentnumber="16142375" address="500 block Sylvania Ave" type="OFFENSE" age="" gender="" description="*********************************************** &lt;br/&gt;3304, Criminal Mischief.&lt;br/&gt;2705, Recklessly Endangering Another Person.&lt;br/&gt;2702, Aggravated Assault.&lt;br/&gt;2701(a)(1), Simple Assault - Intent., Know., Reckless.Cause Bod. Injury&lt;br/&gt;"/><marker lat="40.4910296" lng="-80.0055079" zone="Zone 1" incidentdate="2016-08-01" incidenttime="05:40:00" incidentnumber="16142466" address="3800 block Harpen Rd" type="OFFENSE" age="" gender="" description="*********************************************** &lt;br/&gt;2702, Aggravated Assault.&lt;br/&gt;"/><marker lat="40.428567965192009" lng="-79.987317884623508" zone="Zone 3" incidentdate="2016-08-01" incidenttime="00:30:00" incidentnumber="16142677" address="1100 block E Carson St" type="OFFENSE" age="" gender="" description="*********************************************** &lt;br/&gt;3921, Theft by Unlawful Taking or Disposition.&lt;br/&gt;"/><marker lat="40.488081814906529" lng="-79.894317224387123" zone="Zone 5" incidentdate="2016-08-01" incidenttime="18:02:00" incidentnumber="16142874" address="900 block Freeport Rd" type="OFFENSE" age="" gender="" description="*********************************************** &lt;br/&gt;3929, Retail Theft.&lt;br/&gt;903, Criminal Conspiracy.&lt;br/&gt;"/><marker lat="40.458573263026786" lng="-79.873845838168123" zone="Zone 5" incidentdate="2016-08-01" incidenttime="09:00:00" incidentnumber="16142547" address="100 block Madonna St" type="OFFENSE" age="" gender="" description="*********************************************** &lt;br/&gt;3502, Burglary.&lt;br/&gt;"/><marker lat="40.449715639024333" lng="-80.018247612075271" zone="Zone 1" incidentdate="2016-08-01" incidenttime="03:42:00" incidentnumber="16142439" address="700 block Allegheny Ave" type="OFFENSE" age="" gender="" description="*********************************************** &lt;br/&gt;9488, False  Burglar Alarm&lt;br/&gt;"/><marker lat="40.415830105146881" lng="-80.012979208323102" zone="Zone 3" incidentdate="2016-08-01" incidenttime="16:00:00" incidentnumber="16142784" address="Boggs Ave" type="OFFENSE" age="" gender="" description="*********************************************** &lt;br/&gt;3502, Burglary.&lt;br/&gt;"/><marker lat="40.430020824945359" lng="-79.976813326700821" zone="Zone 3" incidentdate="2016-08-01" incidenttime="19:31:00" incidentnumber="16142940" address="2000 block Wharton St" type="OFFENSE" age="" gender="" description="*********************************************** &lt;br/&gt;3745, Accidents Involving Damage to Unattended Veh.or Prop.&lt;br/&gt;"/><marker lat="40.457700724640112" lng="-80.00505759765646" zone="Zone 1" incidentdate="2016-08-01" incidenttime="09:00:00" incidentnumber="16142672" address="1400 block Sandusky St N" type="OFFENSE" age="" gender="" description="*********************************************** &lt;br/&gt;3502, Burglary.&lt;br/&gt;3921(a), Theft by Unlawful Taking or Disposition - Movable item&lt;br/&gt;"/><marker lat="40.459581276399355" lng="-79.939551554146718" zone="Zone 5" incidentdate="2016-08-01" incidenttime="23:18:00" incidentnumber="16143074" address="400 block S Atlantic Ave" type="OFFENSE" age="" gender="" description="*********************************************** &lt;br/&gt;2706, Terroristic Threats.&lt;br/&gt;"/><marker lat="40.423529268388712" lng="-80.035033781892977" zone="Zone 6" incidentdate="2016-08-01" incidenttime="10:30:00" incidentnumber="16142559" address="1100 block Mc Kinney Ln" type="OFFENSE" age="" gender="" description="*********************************************** &lt;br/&gt;3929, Retail Theft.&lt;br/&gt;903, Criminal Conspiracy.&lt;br/&gt;4106, Access Device Fraud&lt;br/&gt;"/><marker lat="40.4415461" lng="-79.9569808" zone="Zone 4" incidentdate="2016-08-01" incidenttime="17:15:00" incidentnumber="16142887" address="200 block Oakland Ave" type="OFFENSE" age="" gender="" description="*********************************************** &lt;br/&gt;3502, Burglary.&lt;br/&gt;"/><marker lat="40.427929065959248" lng="-79.982139788014067" zone="Zone 3" incidentdate="2016-08-01" incidenttime="03:20:00" incidentnumber="16142451" address="S 17th St &amp; Sarah St" type="OFFENSE" age="" gender="" description="*********************************************** &lt;br/&gt;2709(a)(4), Harassment Communicates Prohibited Acts&lt;br/&gt;"/><marker lat="40.4196005" lng="-79.9907596" zone="Zone 3" incidentdate="2016-08-01" incidenttime="06:30:00" incidentnumber="16142488" address="900 block Loyal Way" type="OFFENSE" age="" gender="" description="*********************************************** &lt;br/&gt;1333, Lost, Stolen, Damaged or Illegible Registration Plate.&lt;br/&gt;"/><marker lat="40.423109519247568" lng="-79.965357483647438" zone="Zone 3" incidentdate="2016-08-01" incidenttime="12:15:00" incidentnumber="16142655" address="3000 block Harcum Way" type="OFFENSE" age="" gender="" description="*********************************************** &lt;br/&gt;3745, Accidents Involving Damage to Unattended Veh.or Prop.&lt;br/&gt;"/><marker lat="40.4445354790114" lng="-80.036964545525095" zone="Zone 6" incidentdate="2016-08-01" incidenttime="16:45:00" incidentnumber="16142839" address="400 block Marlow St" type="OFFENSE" age="" gender="" description="*********************************************** &lt;br/&gt;3502, Burglary.&lt;br/&gt;"/><marker lat="40.441987095894468" lng="-80.039787182635294" zone="Zone 6" incidentdate="2016-08-01" incidenttime="16:44:00" incidentnumber="16142815" address="800 block Crucible St" type="OFFENSE" age="" gender="" description="*********************************************** &lt;br/&gt;9129, Miscellaneous Investigation&lt;br/&gt;"/><marker lat="40.427656074036669" lng="-79.987482386312067" zone="Zone 3" incidentdate="2016-08-01" incidenttime="18:50:00" incidentnumber="16142919" address="1100 block Sarah St" type="OFFENSE" age="" gender="" description="*********************************************** &lt;br/&gt;9999, 9999 - (Misc. Incident):&lt;br/&gt;"/><marker lat="40.453470511792048" lng="-80.001533243378148" zone="Zone 1" incidentdate="2016-08-01" incidenttime="09:40:00" incidentnumber="16142567" address="400 block East Ohio St" type="OFFENSE" age="" gender="" description="*********************************************** &lt;br/&gt;3502, Burglary.&lt;br/&gt;"/><marker lat="40.438386586802537" lng="-79.981365455308961" zone="Zone 2" incidentdate="2016-08-01" incidenttime="00:50:00" incidentnumber="16142364" address="5th Ave &amp; Miltenberger St" type="OFFENSE" age="" gender="" description="*********************************************** &lt;br/&gt;3921, Theft by Unlawful Taking or Disposition.&lt;br/&gt;"/><marker lat="40.457837653123157" lng="-79.898482668870983" zone="Zone 5" incidentdate="2016-08-01" incidenttime="16:25:00" incidentnumber="16142808" address="7100 block Frankstown Ave" type="OFFENSE" age="" gender="" description="*********************************************** &lt;br/&gt;2701(a)(1), Simple Assault - Intent., Know., Reckless.Cause Bod. Injury&lt;br/&gt;"/><marker lat="40.428199669642204" lng="-79.979181674962319" zone="Zone 3" incidentdate="2016-08-01" incidenttime="00:51:00" incidentnumber="16142373" address="Carey Way &amp; S 19th St" type="OFFENSE" age="" gender="" description="*********************************************** &lt;br/&gt;13(a)(31), Marijuana: Possession Small Amount&lt;br/&gt;13(a)(32), Paraphernalia - Use or Possession&lt;br/&gt;5104, Resisting Arrest or Other Law Enforcement.&lt;br/&gt;2702, Aggravated Assault.&lt;br/&gt;5505, Public Drunkenness&lt;br/&gt;"/><marker lat="40.430266135946901" lng="-80.000653663493566" zone="Zone 3" incidentdate="2016-08-01" incidenttime="15:30:00" incidentnumber="16142776" address="E Sycamore Ter" type="OFFENSE" age="" gender="" description="*********************************************** &lt;br/&gt;2709, Harassment (Non-Specific)&lt;br/&gt;"/><marker lat="40.468052287568078" lng="-80.029706549442722" zone="Zone 1" incidentdate="2016-08-01" incidenttime="16:45:00" incidentnumber="16142821" address="Superior Ave &amp; Shadeland Ave" type="OFFENSE" age="" gender="" description="*********************************************** &lt;br/&gt;13(a)(31), Marijuana: Possession Small Amount&lt;br/&gt;1543, Driving While Operating Privilege is Suspended or Revoked.&lt;br/&gt;"/><marker lat="40.469886556991234" lng="-79.957892136225851" zone="Zone 2" incidentdate="2016-08-01" incidenttime="09:15:00" incidentnumber="16142554" address="300 block 44th St" type="OFFENSE" age="" gender="" description="*********************************************** &lt;br/&gt;3304, Criminal Mischief.&lt;br/&gt;"/><marker lat="40.459241184494772" lng="-80.005548013998464" zone="Zone 1" incidentdate="2016-08-01" incidenttime="14:27:00" incidentnumber="16142773" address="1600 block Sandusky Ct" type="OFFENSE" age="" gender="" description="*********************************************** &lt;br/&gt;2701, Simple Assault.&lt;br/&gt;"/><marker lat="40.481590046094034" lng="-79.953442030425578" zone="Zone 2" incidentdate="2016-08-01" incidenttime="11:30:00" incidentnumber="16142580" address="Mc Candless St &amp; Butler St" type="OFFENSE" age="" gender="" description="*********************************************** &lt;br/&gt;2709(a)(4), Harassment Communicates Prohibited Acts&lt;br/&gt;5901, Open Lewdness.&lt;br/&gt;"/><marker lat="40.446166059953725" lng="-80.009888994199073" zone="Zone 1" incidentdate="2016-08-01" incidenttime="11:15:00" incidentnumber="16142604" address="North Shore Dr &amp; Tony Dorsett Dr" type="OFFENSE" age="" gender="" description="*********************************************** &lt;br/&gt;9489, Found Property&lt;br/&gt;"/><marker lat="40.469402832434795" lng="-79.961076876371706" zone="Zone 2" incidentdate="2016-08-01" incidenttime="15:25:00" incidentnumber="16142910" address="4100 block Butler St" type="OFFENSE" age="" gender="" description="*********************************************** &lt;br/&gt;3929, Retail Theft.&lt;br/&gt;"/><marker lat="40.41910505809637" lng="-79.995820009539997" zone="Zone 3" incidentdate="2016-08-01" incidenttime="02:15:00" incidentnumber="16142426" address="Millbridge St" type="OFFENSE" age="" gender="" description="*********************************************** &lt;br/&gt;3921(a), Theft by Unlawful Taking or Disposition - Movable item&lt;br/&gt;"/><marker lat="40.493019177375423" lng="-80.020613141031674" zone="Zone 1" incidentdate="2016-08-01" incidenttime="08:20:00" incidentnumber="16142545" address="4100 block Franklin Rd" type="OFFENSE" age="" gender="" description="*********************************************** &lt;br/&gt;3934, Theft from Vehicle&lt;br/&gt;"/><marker lat="40.430270510575596" lng="-80.006459467240191" zone="Zone 3" incidentdate="2016-08-01" incidenttime="19:11:00" incidentnumber="16142928" address="Wyoming St &amp; E Sycamore St" type="OFFENSE" age="" gender="" description="*********************************************** &lt;br/&gt;13(a)(16), Possession of Controlled Substance&lt;br/&gt;"/><marker lat="40.468917810975647" lng="-79.961075171588774" zone="Zone 2" incidentdate="2016-08-01" incidenttime="12:30:00" incidentnumber="16142724" address="St Johns Way &amp; Fisk St" type="OFFENSE" age="" gender="" description="*********************************************** &lt;br/&gt;3745, Accidents Involving Damage to Unattended Veh.or Prop.&lt;br/&gt;"/><marker lat="40.427754647817437" lng="-79.979227151500382" zone="Zone 3" incidentdate="2016-08-01" incidenttime="01:30:00" incidentnumber="16142414" address="S 19th St &amp; Sarah St" type="OFFENSE" age="" gender="" description="*********************************************** &lt;br/&gt;3743, Accidents Involving Damage to Attended Veh. or Property&lt;br/&gt;"/><marker lat="40.446948744266606" lng="-80.036137321764954" zone="Zone 6" incidentdate="2016-08-01" incidenttime="15:30:00" incidentnumber="16142958" address="1000 block Elkton St" type="OFFENSE" age="" gender="" description="*********************************************** &lt;br/&gt;4120, Identity Theft&lt;br/&gt;"/><marker lat="40.424417996709707" lng="-80.012226547997784" zone="Zone 3" incidentdate="2016-08-01" incidenttime="08:30:00" incidentnumber="16142515" address="200 block Wade St" type="OFFENSE" age="" gender="" description="*********************************************** &lt;br/&gt;9496, Dead on Arrival (DOA)&lt;br/&gt;"/><marker lat="40.411336685894881" lng="-79.990390740620356" zone="Zone 3" incidentdate="2016-08-01" incidenttime="20:15:00" incidentnumber="16142956" address="200 block Moore Ave" type="OFFENSE" age="" gender="" description="*********************************************** &lt;br/&gt;3304, Criminal Mischief.&lt;br/&gt;2709(a)(1), Harassment by Physical Contact, or Attempts or Threats&lt;br/&gt;"/><marker lat="40.435669576342569" lng="-79.967635654308964" zone="Zone 4" incidentdate="2016-08-01" incidenttime="09:51:00" incidentnumber="16142558" address="2600 block Forbes Ave" type="OFFENSE" age="" gender="" description="*********************************************** &lt;br/&gt;9501, Bench Warrant&lt;br/&gt;4914, False Identification to Law Enforcement Authorities&lt;br/&gt;3503(a), Criminal Trespass&lt;br/&gt;"/><marker lat="40.46589803793573" lng="-80.02916832163379" zone="Zone 1" incidentdate="2016-08-01" incidenttime="07:00:00" incidentnumber="16142760" address="1300 block Gifford St" type="OFFENSE" age="" gender="" description="*********************************************** &lt;br/&gt;3934, Theft from Vehicle&lt;br/&gt;"/><marker lat="40.399788878927772" lng="-80.043325511648376" zone="Zone 6" incidentdate="2016-08-01" incidenttime="18:10:00" incidentnumber="16142923" address="3100 block Banksville Rd" type="OFFENSE" age="" gender="" description="*********************************************** &lt;br/&gt;9999, 9999 - (Misc. Incident):&lt;br/&gt;"/><marker lat="40.466157023204467" lng="-79.98535298496779" zone="Zone 1" incidentdate="2016-08-01" incidenttime="01:10:00" incidentnumber="16142381" address="1600 block Spring Garden Ave" type="OFFENSE" age="" gender="" description="*********************************************** &lt;br/&gt;3304, Criminal Mischief.&lt;br/&gt;"/><marker lat="40.439357443553178" lng="-79.999121070597084" zone="Zone 2" incidentdate="2016-08-01" incidenttime="11:02:00" incidentnumber="16142595" address="400 block Forbes Ave" type="OFFENSE" age="" gender="" description="*********************************************** &lt;br/&gt;2709(a), Harassment.&lt;br/&gt;"/><marker lat="40.454204011355536" lng="-80.021261849835767" zone="Zone 1" incidentdate="2016-08-01" incidenttime="16:40:00" incidentnumber="16142816" address="1100 block Sheffield St" type="OFFENSE" age="" gender="" description="*********************************************** &lt;br/&gt;3304, Criminal Mischief.&lt;br/&gt;3503, Criminal Trespass&lt;br/&gt;"/><marker lat="40.468247221826978" lng="-79.894590345340262" zone="Zone 5" incidentdate="2016-08-01" incidenttime="21:32:00" incidentnumber="16143009" address="1500 block Westmoreland St" type="OFFENSE" age="" gender="" description="*********************************************** &lt;br/&gt;1543, Driving While Operating Privilege is Suspended or Revoked.&lt;br/&gt;3802(a)(1), DUI - General Impairment&lt;br/&gt;3802(b), DUI - High Rate of Alchol - BAC &gt;=.10% &lt;.16%&lt;br/&gt;"/><marker lat="40.438724717539678" lng="-79.999543937630378" zone="Zone 2" incidentdate="2016-08-01" incidenttime="16:40:00" incidentnumber="16142813" address="Smithfield St &amp; 4th Ave" type="OFFENSE" age="" gender="" description="*********************************************** &lt;br/&gt;13(a)(16), Possession of Controlled Substance&lt;br/&gt;13(a)(30), Possession w/ Intent to Del. Controlled Substance&lt;br/&gt;"/><marker lat="40.453599482463886" lng="-79.892992345107459" zone="Zone 5" incidentdate="2016-08-01" incidenttime="01:50:00" incidentnumber="16142390" address="Collier St &amp; Hamilton Ave" type="OFFENSE" age="" gender="" description="*********************************************** &lt;br/&gt;9501, Bench Warrant&lt;br/&gt;"/><marker lat="40.458671234967362" lng="-79.907959042195444" zone="Zone 5" incidentdate="2016-08-01" incidenttime="07:00:00" incidentnumber="16142483" address="800 block Washington Blvd" type="OFFENSE" age="" gender="" description="*********************************************** &lt;br/&gt;9489, Found Property&lt;br/&gt;"/><marker lat="40.463319501487575" lng="-79.937605436476105" zone="Zone 5" incidentdate="2016-08-01" incidenttime="04:00:00" incidentnumber="16142607" address="200 block S Aiken Ave" type="OFFENSE" age="" gender="" description="*********************************************** &lt;br/&gt;3934, Theft from Vehicle&lt;br/&gt;"/><marker lat="40.435095503606554" lng="-79.993077686753679" zone="Zone 2" incidentdate="2016-08-01" incidenttime="19:10:00" incidentnumber="16128659" address="900 block Second Ave" type="ARREST" age="45" gender="M" description="*********************************************** &lt;br/&gt;3921, Theft by Unlawful Taking or Disposition.&lt;br/&gt;4101, Forgery.&lt;br/&gt;4105(a)(1), Bad Checks&lt;br/&gt;"/><marker lat="40.487093945777872" lng="-79.932317634538222" zone="Zone 5" incidentdate="2016-08-01" incidenttime="11:29:00" incidentnumber="16142175" address="100 block Hawthorne Ct" type="ARREST" age="17" gender="F" description="*********************************************** &lt;br/&gt;1501, Drivers Required to be Licensed.&lt;br/&gt;3928, Unauthorized Use of Automobile and Other Vehicles.&lt;br/&gt;"/><marker lat="40.455671915720181" lng="-79.942874557026855" zone="Zone 5" incidentdate="2016-08-01" incidenttime="17:40:00" incidentnumber="16142856" address="Baum Blvd &amp; Woodworth St" type="ARREST" age="52" gender="F" description="*********************************************** &lt;br/&gt;3802(a)(1), DUI - General Impairment&lt;br/&gt;"/><marker lat="40.457694154327669" lng="-80.008967682085711" zone="Zone 1" incidentdate="2016-08-01" incidenttime="14:55:00" incidentnumber="16142790" address="Fireman Way &amp; Leduc Way" type="ARREST" age="26" gender="M" description="*********************************************** &lt;br/&gt;13(a)(16), Possession of Controlled Substance&lt;br/&gt;13(a)(30), Possession w/ Intent to Del. Controlled Substance&lt;br/&gt;4910, Tampering with or Fabricating Physical Evidence.&lt;br/&gt;3925, Receiving Stolen Property.&lt;br/&gt;907, Possessing Instruments of Crime.&lt;br/&gt;"/><marker lat="40.4618246" lng="-80.0064869" zone="Zone 1" incidentdate="2016-08-01" incidenttime="18:08:00" incidentnumber="16142891" address="Belleau St &amp; Sandusky St N" type="ARREST" age="20" gender="M" description="*********************************************** &lt;br/&gt;9501, Bench Warrant&lt;br/&gt;"/><marker lat="40.3963220" lng="-79.9981889" zone="Zone 3" incidentdate="2016-08-01" incidenttime="23:30:00" incidentnumber="16064234" address="Saw Mill Run Blvd &amp; Colerain St" type="ARREST" age="24" gender="M" description="*********************************************** &lt;br/&gt;1543, Driving While Operating Privilege is Suspended or Revoked.&lt;br/&gt;3802(a)(1), DUI - General Impairment&lt;br/&gt;3743, Accidents Involving Damage to Attended Veh. or Property&lt;br/&gt;"/><marker lat="40.488081814906529" lng="-79.894317224387123" zone="Zone 5" incidentdate="2016-08-01" incidenttime="18:02:00" incidentnumber="16142874" address="900 block Freeport Rd" type="ARREST" age="14" gender="M" description="*********************************************** &lt;br/&gt;3929, Retail Theft.&lt;br/&gt;903, Criminal Conspiracy.&lt;br/&gt;"/><marker lat="40.456595688375899" lng="-80.008889193582519" zone="Zone 1" incidentdate="2016-08-01" incidenttime="20:25:00" incidentnumber="16140200" address="1300 block Arch St" type="ARREST" age="31" gender="M" description="*********************************************** &lt;br/&gt;9501, Bench Warrant&lt;br/&gt;3925, Receiving Stolen Property.&lt;br/&gt;"/><marker lat="40.488081814906529" lng="-79.894317224387123" zone="Zone 5" incidentdate="2016-08-01" incidenttime="18:02:00" incidentnumber="16142874" address="900 block Freeport Rd" type="ARREST" age="13" gender="M" description="*********************************************** &lt;br/&gt;3929, Retail Theft.&lt;br/&gt;903, Criminal Conspiracy.&lt;br/&gt;"/><marker lat="40.445640297979047" lng="-79.981797214737767" zone="Zone 2" incidentdate="2016-08-01" incidenttime="19:00:00" incidentnumber="16138921" address="2000 block Webster Ave" type="ARREST" age="26" gender="M" description="*********************************************** &lt;br/&gt;3502, Burglary.&lt;br/&gt;2701, Simple Assault.&lt;br/&gt;3701, Robbery.&lt;br/&gt;3304(a)(5), CRIMINAL MISCHIEF - Intentionally Damages Real Or Personal Property Of Another&lt;br/&gt;"/><marker lat="40.440481919322451" lng="-79.956866507017352" zone="Zone 4" incidentdate="2016-08-01" incidenttime="15:20:00" incidentnumber="16142082" address="Sennott St &amp; Atwood St" type="ARREST" age="22" gender="M" description="*********************************************** &lt;br/&gt;5505, Public Drunkenness&lt;br/&gt;5503(a)(3), DISORDERLY CONDUCT - OBSCENE LANG/GEST&lt;br/&gt;2706, Terroristic Threats.&lt;br/&gt;"/><marker lat="40.459241184494772" lng="-80.005548013998464" zone="Zone 1" incidentdate="2016-08-01" incidenttime="14:35:00" incidentnumber="16142773" address="1600 block Sandusky Ct" type="ARREST" age="50" gender="M" description="*********************************************** &lt;br/&gt;2701, Simple Assault.&lt;br/&gt;"/><marker lat="40.453969822993002" lng="-79.998974758094874" zone="Zone 1" incidentdate="2016-08-01" incidenttime="19:18:00" incidentnumber="16140875" address="600 block East Ohio St" type="ARREST" age="32" gender="M" description="*********************************************** &lt;br/&gt;3922, Theft by Deception.&lt;br/&gt;3929(a)(1), Retail Theft; takes possession of, carries away, or transfers displayed merchandise&lt;br/&gt;903, Criminal Conspiracy.&lt;br/&gt;"/><marker lat="40.440739491560123" lng="-80.000390995906869" zone="Zone 2" incidentdate="2016-08-01" incidenttime="11:25:00" incidentnumber="15202563" address="5th Ave &amp; Wood St" type="ARREST" age="32" gender="M" description="*********************************************** &lt;br/&gt;2702, Aggravated Assault.&lt;br/&gt;2701, Simple Assault.&lt;br/&gt;"/><marker lat="40.435669576342569" lng="-79.967635654308964" zone="Zone 4" incidentdate="2016-08-01" incidenttime="10:06:00" incidentnumber="16142558" address="2600 block Forbes Ave" type="ARREST" age="45" gender="M" description="*********************************************** &lt;br/&gt;9501, Bench Warrant&lt;br/&gt;4914, False Identification to Law Enforcement Authorities&lt;br/&gt;3503(a), Criminal Trespass&lt;br/&gt;"/><marker lat="40.487237902004267" lng="-80.037670936794697" zone="Zone 1" incidentdate="2016-08-01" incidenttime="14:15:00" incidentnumber="16134811" address="3900 block Brighton Rd" type="ARREST" age="25" gender="M" description="*********************************************** &lt;br/&gt;3921, Theft by Unlawful Taking or Disposition.&lt;br/&gt;4106, Access Device Fraud&lt;br/&gt;"/><marker lat="40.468052287568078" lng="-80.029706549442722" zone="Zone 1" incidentdate="2016-08-01" incidenttime="16:45:00" incidentnumber="16142821" address="Superior Ave &amp; Shadeland Ave" type="ARREST" age="24" gender="M" description="*********************************************** &lt;br/&gt;13(a)(31), Marijuana: Possession Small Amount&lt;br/&gt;1543, Driving While Operating Privilege is Suspended or Revoked.&lt;br/&gt;"/><marker lat="40.428585203983602" lng="-79.981869007680203" zone="Zone 3" incidentdate="2016-08-01" incidenttime="01:20:00" incidentnumber="16142378" address="1700 block E Carson St" type="ARREST" age="27" gender="M" description="*********************************************** &lt;br/&gt;13(a)(31), Marijuana: Possession Small Amount&lt;br/&gt;4910, Tampering with or Fabricating Physical Evidence.&lt;br/&gt;3304, Criminal Mischief.&lt;br/&gt;607.03, Discharging Firearm or Airgun&lt;br/&gt;3925, Receiving Stolen Property.&lt;br/&gt;6106, Firearms not to be Carried without a License.&lt;br/&gt;6105(a)(1), Persons not to possess, use, manufacture, control, sell or transfer firearms: Former convict enumerated in subsection (b)&lt;br/&gt;"/><marker lat="40.417390420276604" lng="-79.998769840327626" zone="Zone 3" incidentdate="2016-08-01" incidenttime="02:41:00" incidentnumber="16142375" address="500 block Sylvania Ave" type="ARREST" age="23" gender="F" description="*********************************************** &lt;br/&gt;3304, Criminal Mischief.&lt;br/&gt;2705, Recklessly Endangering Another Person.&lt;br/&gt;2702, Aggravated Assault.&lt;br/&gt;2701(a)(1), Simple Assault - Intent., Know., Reckless.Cause Bod. Injury&lt;br/&gt;"/><marker lat="40.428412853684961" lng="-79.97463883827848" zone="Zone 3" incidentdate="2016-08-01" incidenttime="02:15:00" incidentnumber="16142403" address="S 22nd St &amp; E Carson St" type="ARREST" age="31" gender="M" description="*********************************************** &lt;br/&gt;9501, Bench Warrant&lt;br/&gt;"/><marker lat="40.453969822993002" lng="-79.998974758094874" zone="Zone 1" incidentdate="2016-08-01" incidenttime="19:43:00" incidentnumber="16140875" address="600 block East Ohio St" type="ARREST" age="" gender="M" description="*********************************************** &lt;br/&gt;3922, Theft by Deception.&lt;br/&gt;3929(a)(1), Retail Theft; takes possession of, carries away, or transfers displayed merchandise&lt;br/&gt;903, Criminal Conspiracy.&lt;br/&gt;"/><marker lat="40.4058500" lng="-80.0037096" zone="Zone 3" incidentdate="2016-08-01" incidenttime="14:00:00" incidentnumber="16140683" address="700 block Ensign Ave" type="ARREST" age="37" gender="M" description="*********************************************** &lt;br/&gt;2701(a)(1), Simple Assault - Intent., Know., Reckless.Cause Bod. Injury&lt;br/&gt;2706, Terroristic Threats.&lt;br/&gt;"/><marker lat="40.453599482463886" lng="-79.892992345107459" zone="Zone 5" incidentdate="2016-08-01" incidenttime="01:50:00" incidentnumber="16142390" address="Collier St &amp; Hamilton Ave" type="ARREST" age="44" gender="M" description="*********************************************** &lt;br/&gt;9501, Bench Warrant&lt;br/&gt;"/><marker lat="40.488081814906529" lng="-79.894317224387123" zone="Zone 5" incidentdate="2016-08-01" incidenttime="18:02:00" incidentnumber="16142874" address="900 block Freeport Rd" type="ARREST" age="16" gender="M" description="*********************************************** &lt;br/&gt;3929, Retail Theft.&lt;br/&gt;903, Criminal Conspiracy.&lt;br/&gt;"/><marker lat="40.434696587775576" lng="-79.996300985228572" zone="Zone 2" incidentdate="2016-08-01" incidenttime="14:25:00" incidentnumber="16089804" address="600 block First Ave" type="ARREST" age="25" gender="M" description="*********************************************** &lt;br/&gt;13(a)(32), Paraphernalia - Use or Possession&lt;br/&gt;9015, Failure To Appear/Arrest on Attachment Order&lt;br/&gt;3503(a), Criminal Trespass&lt;br/&gt;"/><marker lat="40.430270510575596" lng="-80.006459467240191" zone="Zone 3" incidentdate="2016-08-01" incidenttime="19:32:00" incidentnumber="16142928" address="Wyoming St &amp; E Sycamore St" type="ARREST" age="26" gender="M" description="*********************************************** &lt;br/&gt;13(a)(16), Possession of Controlled Substance&lt;br/&gt;"/><marker lat="40.468247221826978" lng="-79.894590345340262" zone="Zone 5" incidentdate="2016-08-01" incidenttime="21:55:00" incidentnumber="16143009" address="1500 block Westmoreland St" type="ARREST" age="47" gender="M" description="*********************************************** &lt;br/&gt;1543, Driving While Operating Privilege is Suspended or Revoked.&lt;br/&gt;3802(a)(1), DUI - General Impairment&lt;br/&gt;3802(b), DUI - High Rate of Alchol - BAC &gt;=.10% &lt;.16%&lt;br/&gt;"/><marker lat="40.438724717539678" lng="-79.999543937630378" zone="Zone 2" incidentdate="2016-08-01" incidenttime="16:40:00" incidentnumber="16142813" address="Smithfield St &amp; 4th Ave" type="ARREST" age="35" gender="M" description="*********************************************** &lt;br/&gt;13(a)(16), Possession of Controlled Substance&lt;br/&gt;13(a)(30), Possession w/ Intent to Del. Controlled Substance&lt;br/&gt;"/><marker lat="40.428199669642204" lng="-79.979181674962319" zone="Zone 3" incidentdate="2016-08-01" incidenttime="00:51:00" incidentnumber="16142373" address="Carey Way &amp; S 19th St" type="ARREST" age="38" gender="F" description="*********************************************** &lt;br/&gt;13(a)(31), Marijuana: Possession Small Amount&lt;br/&gt;13(a)(32), Paraphernalia - Use or Possession&lt;br/&gt;5104, Resisting Arrest or Other Law Enforcement.&lt;br/&gt;2702, Aggravated Assault.&lt;br/&gt;5505, Public Drunkenness&lt;br/&gt;"/><marker lat="40.443994906871318" lng="-80.002708132437306" zone="Zone 2" incidentdate="2016-08-01" incidenttime="21:37:00" incidentnumber="16143011" address="6th St &amp; Fort Duquesne Blvd" type="ARREST" age="51" gender="M" description="*********************************************** &lt;br/&gt;9501, Bench Warrant&lt;br/&gt;"/></markers>
