<?xml version="1.0"?>
<markers><marker lat="40.4881000" lng="-79.9732324" zone="Zone 1" incidentdate="2015-09-21" incidenttime="18:06:00" incidentnumber="15180513" address="800 block W North Ave" type="OFFENSE" age="" gender="" description="*********************************************** &lt;br/&gt;9497, Aided Case&lt;br/&gt;"/><marker lat="40.420766934318522" lng="-79.995867319451804" zone="Zone 3" incidentdate="2015-09-21" incidenttime="15:00:00" incidentnumber="15180396" address="200 block Millbridge St" type="OFFENSE" age="" gender="" description="*********************************************** &lt;br/&gt;4106, Access Device Fraud&lt;br/&gt;"/><marker lat="40.473278167754017" lng="-79.914681671303455" zone="Zone 5" incidentdate="2015-09-21" incidenttime="10:00:00" incidentnumber="15180406" address="1100 block Heberton St" type="OFFENSE" age="" gender="" description="*********************************************** &lt;br/&gt;3921, Theft by Unlawful Taking or Disposition.&lt;br/&gt;"/><marker lat="40.454293918606794" lng="-80.058380511908311" zone="Zone 6" incidentdate="2015-09-21" incidenttime="13:35:00" incidentnumber="15180347" address="Citadel St &amp; Chartiers Ave" type="OFFENSE" age="" gender="" description="*********************************************** &lt;br/&gt;13(a)(31), Marijuana: Possession Small Amount&lt;br/&gt;3323, Stop Signs and Yield Signs.&lt;br/&gt;1501, Drivers Required to be Licensed.&lt;br/&gt;"/><marker lat="40.459190603440391" lng="-79.927408851895919" zone="Zone 4" incidentdate="2015-09-21" incidenttime="21:05:00" incidentnumber="15180632" address="5900 block Centre Ave" type="OFFENSE" age="" gender="" description="*********************************************** &lt;br/&gt;3929, Retail Theft.&lt;br/&gt;"/><marker lat="40.474585687521817" lng="-80.032942293803259" zone="Zone 1" incidentdate="2015-09-21" incidenttime="19:17:00" incidentnumber="15180557" address="1300 block Malden St" type="OFFENSE" age="" gender="" description="*********************************************** &lt;br/&gt;029, Missing Juvenile&lt;br/&gt;"/><marker lat="40.446867779409757" lng="-80.020757813868244" zone="Zone 1" incidentdate="2015-09-21" incidenttime="01:14:00" incidentnumber="15180033" address="700 block Casino Dr" type="OFFENSE" age="" gender="" description="*********************************************** &lt;br/&gt;3743, Accidents Involving Damage to Attended Veh. or Property&lt;br/&gt;"/><marker lat="40.435205749064991" lng="-79.960745617055892" zone="Zone 4" incidentdate="2015-09-21" incidenttime="16:30:00" incidentnumber="15180483" address="Craft Ave &amp; Kennett Sq" type="OFFENSE" age="" gender="" description="*********************************************** &lt;br/&gt;3745, Accidents Involving Damage to Unattended Veh.or Prop.&lt;br/&gt;"/><marker lat="40.426326713614309" lng="-80.002572131184493" zone="Zone 3" incidentdate="2015-09-21" incidenttime="07:30:00" incidentnumber="15180217" address="300 block Kambach St" type="OFFENSE" age="" gender="" description="*********************************************** &lt;br/&gt;3921, Theft by Unlawful Taking or Disposition.&lt;br/&gt;"/><marker lat="40.461242180783259" lng="-79.967212231521643" zone="Zone 2" incidentdate="2015-09-21" incidenttime="18:53:00" incidentnumber="15180553" address="3300 block Liberty Ave" type="OFFENSE" age="" gender="" description="*********************************************** &lt;br/&gt;9999, 9999 - (Misc. Incident):&lt;br/&gt;"/><marker lat="40.4154105" lng="-79.9248088" zone="Zone 4" incidentdate="2015-09-21" incidenttime="04:58:00" incidentnumber="15180109" address="4600 block Browns Hill Rd" type="OFFENSE" age="" gender="" description="*********************************************** &lt;br/&gt;3701, Robbery.&lt;br/&gt;"/><marker lat="40.448701891829785" lng="-79.897676320461599" zone="Zone 4" incidentdate="2015-09-21" incidenttime="10:45:00" incidentnumber="15180229" address="7400 block Penfield Ct" type="OFFENSE" age="" gender="" description="*********************************************** &lt;br/&gt;3921, Theft by Unlawful Taking or Disposition.&lt;br/&gt;2701, Simple Assault.&lt;br/&gt;"/><marker lat="40.455880560530979" lng="-79.946666863112242" zone="Zone 5" incidentdate="2015-09-21" incidenttime="02:39:00" incidentnumber="15115918" address="200 block Morewood Ave" type="OFFENSE" age="" gender="" description="*********************************************** &lt;br/&gt;9015, Failure To Appear/Arrest on Attachment Order&lt;br/&gt;13(a)(32), Paraphernalia - Use or Possession&lt;br/&gt;"/><marker lat="40.468075461767604" lng="-80.029885144871827" zone="Zone 1" incidentdate="2015-09-21" incidenttime="13:23:00" incidentnumber="15180338" address="1300 block Superior Ave" type="OFFENSE" age="" gender="" description="*********************************************** &lt;br/&gt;3502, Burglary.&lt;br/&gt;"/><marker lat="40.419350328866692" lng="-79.935939333733572" zone="Zone 4" incidentdate="2015-09-21" incidenttime="18:32:00" incidentnumber="15180548" address="Bigelow St" type="OFFENSE" age="" gender="" description="*********************************************** &lt;br/&gt;100, Fugitive&lt;br/&gt;"/><marker lat="40.422432158699223" lng="-80.013788906187088" zone="Zone 3" incidentdate="2015-09-21" incidenttime="18:30:00" incidentnumber="15180527" address="600 block Chess St" type="OFFENSE" age="" gender="" description="*********************************************** &lt;br/&gt;9489, Found Property&lt;br/&gt;"/><marker lat="40.476419854834639" lng="-79.919378227262513" zone="Zone 5" incidentdate="2015-09-21" incidenttime="18:30:00" incidentnumber="15180538" address="5900 block Elgin St" type="OFFENSE" age="" gender="" description="*********************************************** &lt;br/&gt;3502, Burglary.&lt;br/&gt;"/><marker lat="40.487823540011732" lng="-79.897614208935366" zone="Zone 5" incidentdate="2015-09-21" incidenttime="12:41:00" incidentnumber="15180306" address="800 block Freeport Rd" type="OFFENSE" age="" gender="" description="*********************************************** &lt;br/&gt;4101, Forgery.&lt;br/&gt;3922, Theft by Deception.&lt;br/&gt;13(a)(32), Paraphernalia - Use or Possession&lt;br/&gt;3323, Stop Signs and Yield Signs.&lt;br/&gt;3925, Receiving Stolen Property.&lt;br/&gt;2705, Recklessly Endangering Another Person.&lt;br/&gt;3733, Fleeing or Attempting to Elude Police Officer&lt;br/&gt;"/><marker lat="40.441448258558523" lng="-79.999915980733732" zone="Zone 2" incidentdate="2015-09-21" incidenttime="18:29:00" incidentnumber="15180533" address="Wood St &amp; Oliver Ave" type="OFFENSE" age="" gender="" description="*********************************************** &lt;br/&gt;3921(a), Theft by Unlawful Taking or Disposition - Movable item&lt;br/&gt;"/><marker lat="40.454104396974053" lng="-79.996792124994045" zone="Zone 1" incidentdate="2015-09-21" incidenttime="18:20:00" incidentnumber="15180518" address="Madison Ave &amp; E Ohio St" type="OFFENSE" age="" gender="" description="*********************************************** &lt;br/&gt;13(a)(16), Possession of Controlled Substance&lt;br/&gt;"/><marker lat="40.433548021841823" lng="-80.047815181066767" zone="Zone 6" incidentdate="2015-09-21" incidenttime="05:42:00" incidentnumber="15180119" address="1300 block Vinemont St" type="OFFENSE" age="" gender="" description="*********************************************** &lt;br/&gt;3921(a), Theft by Unlawful Taking or Disposition - Movable item&lt;br/&gt;"/><marker lat="40.453087824966865" lng="-80.000287901381768" zone="Zone 1" incidentdate="2015-09-21" incidenttime="09:35:00" incidentnumber="15180198" address="500 block Avery St" type="OFFENSE" age="" gender="" description="*********************************************** &lt;br/&gt;9999, 9999 - (Misc. Incident):&lt;br/&gt;"/><marker lat="40.470062222894647" lng="-79.937664552232235" zone="Zone 5" incidentdate="2015-09-21" incidenttime="06:10:00" incidentnumber="15180126" address="5300 block Cornwall St" type="OFFENSE" age="" gender="" description="*********************************************** &lt;br/&gt;0291, Located Runaway - Outside City&lt;br/&gt;"/><marker lat="40.468156156268797" lng="-79.919148636439729" zone="Zone 5" incidentdate="2015-09-21" incidenttime="16:30:00" incidentnumber="15180458" address="6100 block St Marie St" type="OFFENSE" age="" gender="" description="*********************************************** &lt;br/&gt;3502, Burglary.&lt;br/&gt;"/><marker lat="40.435268181594665" lng="-79.994397681613918" zone="Zone 2" incidentdate="2015-09-21" incidenttime="17:36:00" incidentnumber="15180489" address="700 block 2nd Ave" type="OFFENSE" age="" gender="" description="*********************************************** &lt;br/&gt;13(a)(16), Possession of Controlled Substance&lt;br/&gt;13(a)(32), Paraphernalia - Use or Possession&lt;br/&gt;"/><marker lat="40.455814816183754" lng="-79.997355061023555" zone="Zone 1" incidentdate="2015-09-21" incidenttime="06:00:00" incidentnumber="15180343" address="800 block Suismon St" type="OFFENSE" age="" gender="" description="*********************************************** &lt;br/&gt;3304, Criminal Mischief.&lt;br/&gt;"/><marker lat="40.441137684867279" lng="-79.957585934716349" zone="Zone 4" incidentdate="2015-09-21" incidenttime="19:29:00" incidentnumber="15180590" address="200 block Atwood St" type="OFFENSE" age="" gender="" description="*********************************************** &lt;br/&gt;3929, Retail Theft.&lt;br/&gt;"/><marker lat="40.444293109312888" lng="-80.028152431069529" zone="Zone 6" incidentdate="2015-09-21" incidenttime="15:05:00" incidentnumber="15180411" address="W Carson St &amp; West End Brg" type="OFFENSE" age="" gender="" description="*********************************************** &lt;br/&gt;3743, Accidents Involving Damage to Attended Veh. or Property&lt;br/&gt;"/><marker lat="40.471005859059538" lng="-80.008598371720396" zone="Zone 1" incidentdate="2015-09-21" incidenttime="15:18:00" incidentnumber="15180401" address="Perrysville Ave &amp; N Charles St" type="OFFENSE" age="" gender="" description="*********************************************** &lt;br/&gt;2709, Harassment (Non-Specific)&lt;br/&gt;"/><marker lat="40.383563205127096" lng="-79.980992985939963" zone="Zone 3" incidentdate="2015-09-21" incidenttime="10:30:00" incidentnumber="15180393" address="100 block Meritt Ave" type="OFFENSE" age="" gender="" description="*********************************************** &lt;br/&gt;3304, Criminal Mischief.&lt;br/&gt;"/><marker lat="40.424156605592387" lng="-79.995810670450524" zone="Zone 3" incidentdate="2015-09-21" incidenttime="17:00:00" incidentnumber="15180461" address="700 block Mc Lain St" type="OFFENSE" age="" gender="" description="*********************************************** &lt;br/&gt;9999, 9999 - (Misc. Incident):&lt;br/&gt;"/><marker lat="40.454614947288412" lng="-80.014854314791251" zone="Zone 1" incidentdate="2015-09-21" incidenttime="18:24:00" incidentnumber="15180528" address="1200 block Brighton Rd" type="OFFENSE" age="" gender="" description="*********************************************** &lt;br/&gt;2709(a), Harassment.&lt;br/&gt;2701, Simple Assault.&lt;br/&gt;5503, Disorderly Conduct.&lt;br/&gt;5505, Public Drunkenness&lt;br/&gt;"/><marker lat="40.4530658" lng="-80.0030731" zone="Zone 1" incidentdate="2015-09-21" incidenttime="16:31:00" incidentnumber="15180449" address="200 block East Ohio St" type="OFFENSE" age="" gender="" description="*********************************************** &lt;br/&gt;2706, Terroristic Threats.&lt;br/&gt;2701, Simple Assault.&lt;br/&gt;"/><marker lat="40.401656523765503" lng="-80.044428623154857" zone="Zone 6" incidentdate="2015-09-21" incidenttime="19:00:00" incidentnumber="15180567" address="2200 block Old Oak Dr" type="OFFENSE" age="" gender="" description="*********************************************** &lt;br/&gt;3934, Theft from Vehicle&lt;br/&gt;"/><marker lat="40.441401471735787" lng="-79.997747161506936" zone="Zone 2" incidentdate="2015-09-21" incidenttime="19:10:00" incidentnumber="15180570" address="400 block 6th Ave" type="OFFENSE" age="" gender="" description="*********************************************** &lt;br/&gt;3921(a), Theft by Unlawful Taking or Disposition - Movable item&lt;br/&gt;"/><marker lat="40.468029099354595" lng="-79.90356662893312" zone="Zone 5" incidentdate="2015-09-21" incidenttime="15:00:00" incidentnumber="15180437" address="200 block Paulson Ave" type="OFFENSE" age="" gender="" description="*********************************************** &lt;br/&gt;3502, Burglary.&lt;br/&gt;"/><marker lat="40.425535639433569" lng="-80.002978818959178" zone="Zone 3" incidentdate="2015-09-21" incidenttime="16:20:00" incidentnumber="15180442" address="Haberman Ave" type="OFFENSE" age="" gender="" description="*********************************************** &lt;br/&gt;9093, Indirect Criminal Contempt&lt;br/&gt;2701, Simple Assault.&lt;br/&gt;5505, Public Drunkenness&lt;br/&gt;"/><marker lat="40.461844031235721" lng="-79.939251503215161" zone="Zone 5" incidentdate="2015-09-21" incidenttime="09:00:00" incidentnumber="15180200" address="300 block S Atlantic Ave" type="OFFENSE" age="" gender="" description="*********************************************** &lt;br/&gt;3304, Criminal Mischief.&lt;br/&gt;"/><marker lat="40.435133202531283" lng="-79.95632906746944" zone="Zone 4" incidentdate="2015-09-21" incidenttime="14:15:00" incidentnumber="15180372" address="3400 block Bates St" type="OFFENSE" age="" gender="" description="*********************************************** &lt;br/&gt;9501, Bench Warrant&lt;br/&gt;3502, Burglary.&lt;br/&gt;3921, Theft by Unlawful Taking or Disposition.&lt;br/&gt;"/><marker lat="40.454136833164974" lng="-80.001939797868459" zone="Zone 1" incidentdate="2015-09-21" incidenttime="02:46:00" incidentnumber="15180076" address="400 block Foreland St" type="OFFENSE" age="" gender="" description="*********************************************** &lt;br/&gt;9488, False  Burglar Alarm&lt;br/&gt;"/><marker lat="40.4600940" lng="-79.9238524" zone="Zone 4" incidentdate="2015-09-21" incidenttime="10:10:00" incidentnumber="15180214" address="6300 block Shakespeare St" type="OFFENSE" age="" gender="" description="*********************************************** &lt;br/&gt;3745, Accidents Involving Damage to Unattended Veh.or Prop.&lt;br/&gt;"/><marker lat="40.445706449357765" lng="-79.928471742074706" zone="Zone 4" incidentdate="2015-09-21" incidenttime="09:30:00" incidentnumber="15180202" address="Wightman St &amp; Fair Oaks St" type="OFFENSE" age="" gender="" description="*********************************************** &lt;br/&gt;3745, Accidents Involving Damage to Unattended Veh.or Prop.&lt;br/&gt;"/><marker lat="40.419867863106482" lng="-79.93128777594643" zone="Zone 4" incidentdate="2015-09-21" incidenttime="01:29:00" incidentnumber="15180036" address="Hazelwood Ave &amp; Notley St" type="OFFENSE" age="" gender="" description="*********************************************** &lt;br/&gt;9501, Bench Warrant&lt;br/&gt;"/><marker lat="40.451831373409384" lng="-79.931146453955421" zone="Zone 4" incidentdate="2015-09-21" incidenttime="12:40:00" incidentnumber="15180321" address="800 block S Negley Ave" type="OFFENSE" age="" gender="" description="*********************************************** &lt;br/&gt;3743, Accidents Involving Damage to Attended Veh. or Property&lt;br/&gt;"/><marker lat="40.461641946485443" lng="-79.948033832912884" zone="Zone 5" incidentdate="2015-09-21" incidenttime="08:05:00" incidentnumber="15180150" address="300 block Edmond St" type="OFFENSE" age="" gender="" description="*********************************************** &lt;br/&gt;3921(a), Theft by Unlawful Taking or Disposition - Movable item&lt;br/&gt;"/><marker lat="40.45644682280367" lng="-79.998595406368935" zone="Zone 1" incidentdate="2015-09-21" incidenttime="15:00:00" incidentnumber="15180425" address="1000 block East St" type="OFFENSE" age="" gender="" description="*********************************************** &lt;br/&gt;2709(a)(1), Harassment by Physical Contact, or Attempts or Threats&lt;br/&gt;601.11(a), Littering and Dumping; Any waste, dangerous or detrimental substance upon public property&lt;br/&gt;"/><marker lat="40.452540751571284" lng="-80.054392458016892" zone="Zone 6" incidentdate="2015-09-21" incidenttime="12:06:00" incidentnumber="15180280" address="2800 block Chartiers Ave" type="OFFENSE" age="" gender="" description="*********************************************** &lt;br/&gt;9488, False  Burglar Alarm&lt;br/&gt;"/><marker lat="40.479496781171243" lng="-80.032454825576309" zone="Zone 1" incidentdate="2015-09-21" incidenttime="02:30:00" incidentnumber="15180071" address="3500 block Simen Ave" type="OFFENSE" age="" gender="" description="*********************************************** &lt;br/&gt;3304, Criminal Mischief.&lt;br/&gt;903, Criminal Conspiracy.&lt;br/&gt;"/><marker lat="40.447502334719239" lng="-80.051783949854453" zone="Zone 6" incidentdate="2015-09-21" incidenttime="20:30:00" incidentnumber="15180630" address="1600 block Crucible St" type="OFFENSE" age="" gender="" description="*********************************************** &lt;br/&gt;5502, Failure of Disorderly Persons to Disperse&lt;br/&gt;5101, Obstructing Admin. of Law&lt;br/&gt;5503, Disorderly Conduct.&lt;br/&gt;"/><marker lat="40.463011931512639" lng="-79.930274906509496" zone="Zone 5" incidentdate="2015-09-21" incidenttime="15:31:00" incidentnumber="15180410" address="5600 block Penn Ave" type="OFFENSE" age="" gender="" description="*********************************************** &lt;br/&gt;9496, Dead on Arrival (DOA)&lt;br/&gt;"/><marker lat="40.453449773788513" lng="-79.914936592039496" zone="Zone 4" incidentdate="2015-09-21" incidenttime="20:00:00" incidentnumber="15180612" address="6600 block 5th Ave" type="OFFENSE" age="" gender="" description="*********************************************** &lt;br/&gt;3921(a), Theft by Unlawful Taking or Disposition - Movable item&lt;br/&gt;"/><marker lat="40.456515048695316" lng="-80.016515559088219" zone="Zone 1" incidentdate="2015-09-21" incidenttime="13:50:00" incidentnumber="15180332" address="1500 block Brighton Rd" type="OFFENSE" age="" gender="" description="*********************************************** &lt;br/&gt;9489, Found Property&lt;br/&gt;"/><marker lat="40.455999983459428" lng="-79.896840228168543" zone="Zone 5" incidentdate="2015-09-21" incidenttime="07:37:00" incidentnumber="15180139" address="Fleury Way &amp; N Homewood Ave" type="OFFENSE" age="" gender="" description="*********************************************** &lt;br/&gt;9123, Miscellaneous Fire Other Investigation to Continue&lt;br/&gt;"/><marker lat="40.472450818158791" lng="-79.916867758162468" zone="Zone 5" incidentdate="2015-09-21" incidenttime="04:00:00" incidentnumber="15180563" address="1000 block Sheridan Ave" type="OFFENSE" age="" gender="" description="*********************************************** &lt;br/&gt;3502, Burglary.&lt;br/&gt;"/><marker lat="40.436276013593663" lng="-79.996335831053287" zone="Zone 2" incidentdate="2015-09-21" incidenttime="15:15:00" incidentnumber="15180403" address="B Way &amp; 2nd Ave" type="OFFENSE" age="" gender="" description="*********************************************** &lt;br/&gt;3924, Theft of Property Lost, Mislaid or Delivered by Mistake.&lt;br/&gt;"/><marker lat="40.438808783984314" lng="-80.001618548213528" zone="Zone 2" incidentdate="2015-09-21" incidenttime="12:00:00" incidentnumber="15180447" address="300 block 3rd Ave" type="OFFENSE" age="" gender="" description="*********************************************** &lt;br/&gt;3921, Theft by Unlawful Taking or Disposition.&lt;br/&gt;"/><marker lat="40.446314652723053" lng="-80.016316228653437" zone="Zone 1" incidentdate="2015-09-21" incidenttime="18:00:00" incidentnumber="15180543" address="100 block Art Rooney Ave" type="OFFENSE" age="" gender="" description="*********************************************** &lt;br/&gt;3934, Theft from Vehicle&lt;br/&gt;"/><marker lat="40.465757913835297" lng="-79.929035730197427" zone="Zone 5" incidentdate="2015-09-21" incidenttime="12:00:00" incidentnumber="15180354" address="300 block N Negley Ave" type="OFFENSE" age="" gender="" description="*********************************************** &lt;br/&gt;9504, Lost Property&lt;br/&gt;"/><marker lat="40.468254975285582" lng="-80.025934680309405" zone="Zone 1" incidentdate="2015-09-21" incidenttime="19:35:00" incidentnumber="15180583" address="Highwood St &amp; Mc Dowell St" type="OFFENSE" age="" gender="" description="*********************************************** &lt;br/&gt;3334, Turning Movements and Required Signals.&lt;br/&gt;6503.1, Habitual Offenders&lt;br/&gt;908, Prohibited Offensive Weapons.&lt;br/&gt;9501, Bench Warrant&lt;br/&gt;"/><marker lat="40.430965278487633" lng="-79.898137971699427" zone="Zone 4" incidentdate="2015-09-21" incidenttime="17:00:00" incidentnumber="15180491" address="1100 block Lancaster St" type="OFFENSE" age="" gender="" description="*********************************************** &lt;br/&gt;3304, Criminal Mischief.&lt;br/&gt;"/><marker lat="40.401209879076809" lng="-80.018215436912158" zone="Zone 6" incidentdate="2015-09-21" incidenttime="00:34:00" incidentnumber="15155501" address="300 block Bellbrook St" type="OFFENSE" age="" gender="" description="*********************************************** &lt;br/&gt;2701(a)(1), Simple Assault - Intent., Know., Reckless.Cause Bod. Injury&lt;br/&gt;"/><marker lat="40.4382744" lng="-80.0058186" zone="Zone 2" incidentdate="2015-09-21" incidenttime="15:36:00" incidentnumber="15180415" address="Fort Pitt Blvd &amp; Stanwix St" type="OFFENSE" age="" gender="" description="*********************************************** &lt;br/&gt;3743, Accidents Involving Damage to Attended Veh. or Property&lt;br/&gt;"/><marker lat="40.454948691850667" lng="-80.009640272832598" zone="Zone 1" incidentdate="2015-09-21" incidenttime="11:47:00" incidentnumber="15180177" address="300 block E North Ave" type="OFFENSE" age="" gender="" description="*********************************************** &lt;br/&gt;9501, Bench Warrant&lt;br/&gt;"/><marker lat="40.441406159731216" lng="-80.002873255548053" zone="Zone 2" incidentdate="2015-09-21" incidenttime="14:10:00" incidentnumber="15180378" address="100 block 5th Ave" type="OFFENSE" age="" gender="" description="*********************************************** &lt;br/&gt;3929, Retail Theft.&lt;br/&gt;907, Possessing Instruments of Crime.&lt;br/&gt;"/><marker lat="40.452978759474085" lng="-79.909818228068545" zone="Zone 4" incidentdate="2015-09-21" incidenttime="06:30:00" incidentnumber="15180146" address="6800 block Meade St" type="OFFENSE" age="" gender="" description="*********************************************** &lt;br/&gt;3934, Theft from Vehicle&lt;br/&gt;"/><marker lat="40.45116403479868" lng="-80.064816435742642" zone="Zone 6" incidentdate="2015-09-21" incidenttime="07:00:00" incidentnumber="15188443" address="3100 block Faronia St" type="OFFENSE" age="" gender="" description="*********************************************** &lt;br/&gt;3921(a), Theft by Unlawful Taking or Disposition - Movable item&lt;br/&gt;"/><marker lat="40.460302578526942" lng="-80.006980071080037" zone="Zone 1" incidentdate="2015-09-21" incidenttime="11:12:00" incidentnumber="15180246" address="1700 block Belleau Dr" type="OFFENSE" age="" gender="" description="*********************************************** &lt;br/&gt;9093, Indirect Criminal Contempt&lt;br/&gt;"/><marker lat="40.42171778851246" lng="-80.001555475380627" zone="Zone 3" incidentdate="2015-09-21" incidenttime="07:30:00" incidentnumber="15180159" address="300 block Kingsboro St" type="OFFENSE" age="" gender="" description="*********************************************** &lt;br/&gt;3304, Criminal Mischief.&lt;br/&gt;"/><marker lat="40.434482128289915" lng="-79.963606877655877" zone="Zone 4" incidentdate="2015-09-21" incidenttime="16:20:00" incidentnumber="15180484" address="300 block Lawn St" type="OFFENSE" age="" gender="" description="*********************************************** &lt;br/&gt;3502, Burglary.&lt;br/&gt;"/><marker lat="40.429530203881427" lng="-80.007331466693074" zone="Zone 3" incidentdate="2015-09-21" incidenttime="10:06:00" incidentnumber="15180251" address="100 block Virginia Ave" type="OFFENSE" age="" gender="" description="*********************************************** &lt;br/&gt;2709(a)(1), Harassment by Physical Contact, or Attempts or Threats&lt;br/&gt;"/><marker lat="40.451993427634157" lng="-79.914985879770683" zone="Zone 4" incidentdate="2015-09-21" incidenttime="15:59:00" incidentnumber="15180421" address="6700 block Reynolds St" type="OFFENSE" age="" gender="" description="*********************************************** &lt;br/&gt;601.08(a), Alcohol or Liquor Consumption on Streets or Sidewalks&lt;br/&gt;2706, Terroristic Threats.&lt;br/&gt;5104, Resisting Arrest or Other Law Enforcement.&lt;br/&gt;5505, Public Drunkenness&lt;br/&gt;5503(a)(3), DISORDERLY CONDUCT - OBSCENE LANG/GEST&lt;br/&gt;"/><marker lat="40.487823540011732" lng="-79.897614208935366" zone="Zone 5" incidentdate="2015-09-21" incidenttime="15:00:00" incidentnumber="15180405" address="800 block Freeport Rd" type="OFFENSE" age="" gender="" description="*********************************************** &lt;br/&gt;3929, Retail Theft.&lt;br/&gt;"/><marker lat="40.462792786008031" lng="-80.025465791277398" zone="Zone 1" incidentdate="2015-09-21" incidenttime="20:14:00" incidentnumber="15180594" address="1200 block Success St" type="OFFENSE" age="" gender="" description="*********************************************** &lt;br/&gt;2702, Aggravated Assault.&lt;br/&gt;"/><marker lat="40.388065908859289" lng="-79.994527327692708" zone="Zone 3" incidentdate="2015-09-21" incidenttime="10:29:00" incidentnumber="15180218" address="200 block Wayside St" type="OFFENSE" age="" gender="" description="*********************************************** &lt;br/&gt;9999, 9999 - (Misc. Incident):&lt;br/&gt;"/><marker lat="40.454948691850667" lng="-80.009640272832598" zone="Zone 1" incidentdate="2015-09-21" incidenttime="23:30:00" incidentnumber="15180710" address="300 block W North Ave" type="OFFENSE" age="" gender="" description="*********************************************** &lt;br/&gt;3934, Theft from Vehicle&lt;br/&gt;3304, Criminal Mischief.&lt;br/&gt;"/><marker lat="40.463959868319009" lng="-80.00651574739716" zone="Zone 1" incidentdate="2015-09-21" incidenttime="06:00:00" incidentnumber="15180166" address="300 block Marsonia St" type="OFFENSE" age="" gender="" description="*********************************************** &lt;br/&gt;3934, Theft from Vehicle&lt;br/&gt;"/><marker lat="40.455880560530979" lng="-79.946666863112242" zone="Zone 5" incidentdate="2015-09-21" incidenttime="02:39:00" incidentnumber="15180075" address="200 block Morewood Ave" type="OFFENSE" age="" gender="" description="*********************************************** &lt;br/&gt;5506, Loitering and Prowling at Night&lt;br/&gt;13(a)(16), Possession of Controlled Substance&lt;br/&gt;901, Criminal Attempt&lt;br/&gt;13(a)(32), Paraphernalia - Use or Possession&lt;br/&gt;9501, Bench Warrant&lt;br/&gt;"/><marker lat="40.45493173032483" lng="-80.010796490212854" zone="Zone 5" incidentdate="2015-09-21" incidenttime="09:30:00" incidentnumber="15180188" address="400 block N Beatty St" type="OFFENSE" age="" gender="" description="*********************************************** &lt;br/&gt;2709(a)(4), Harassment Communicates Prohibited Acts&lt;br/&gt;"/><marker lat="40.44609264948722" lng="-79.954629798535109" zone="Zone 4" incidentdate="2015-09-21" incidenttime="11:45:00" incidentnumber="15180266" address="100 block Lytton Ave" type="OFFENSE" age="" gender="" description="*********************************************** &lt;br/&gt;4106, Access Device Fraud&lt;br/&gt;3925, Receiving Stolen Property.&lt;br/&gt;3926(a)(4), Theft of services; ACQUISITION OF SERVICES - refusal to pay or offer to pay for a service (hotels and restarants)&lt;br/&gt;3926.C1, THEFT OF SERVICES&lt;br/&gt;"/><marker lat="40.456549809141613" lng="-79.901784722397153" zone="Zone 5" incidentdate="2015-09-21" incidenttime="22:07:00" incidentnumber="15180660" address="7000 block Kelly St" type="OFFENSE" age="" gender="" description="*********************************************** &lt;br/&gt;029, Missing Juvenile&lt;br/&gt;"/><marker lat="40.408233362433364" lng="-79.943897818758742" zone="Zone 4" incidentdate="2015-09-21" incidenttime="00:02:00" incidentnumber="15179982" address="5000 block 2nd Ave" type="ARREST" age="22" gender="M" description="*********************************************** &lt;br/&gt;2701, Simple Assault.&lt;br/&gt;"/><marker lat="40.447502334719239" lng="-80.051783949854453" zone="Zone 6" incidentdate="2015-09-21" incidenttime="20:10:00" incidentnumber="15180630" address="1600 block Crucible St" type="ARREST" age="" gender="F" description="*********************************************** &lt;br/&gt;5502, Failure of Disorderly Persons to Disperse&lt;br/&gt;5101, Obstructing Admin. of Law&lt;br/&gt;5503, Disorderly Conduct.&lt;br/&gt;"/><marker lat="40.487823540011732" lng="-79.897614208935366" zone="Zone 5" incidentdate="2015-09-21" incidenttime="12:51:00" incidentnumber="15180306" address="800 block Freeport Rd" type="ARREST" age="32" gender="M" description="*********************************************** &lt;br/&gt;4101, Forgery.&lt;br/&gt;3922, Theft by Deception.&lt;br/&gt;13(a)(32), Paraphernalia - Use or Possession&lt;br/&gt;3323, Stop Signs and Yield Signs.&lt;br/&gt;3925, Receiving Stolen Property.&lt;br/&gt;2705, Recklessly Endangering Another Person.&lt;br/&gt;3733, Fleeing or Attempting to Elude Police Officer&lt;br/&gt;"/><marker lat="40.454614947288412" lng="-80.014854314791251" zone="Zone 1" incidentdate="2015-09-21" incidenttime="18:36:00" incidentnumber="15180528" address="1200 block Brighton Rd" type="ARREST" age="49" gender="M" description="*********************************************** &lt;br/&gt;2709(a), Harassment.&lt;br/&gt;2701, Simple Assault.&lt;br/&gt;5503, Disorderly Conduct.&lt;br/&gt;5505, Public Drunkenness&lt;br/&gt;"/><marker lat="40.435268181594665" lng="-79.994397681613918" zone="Zone 2" incidentdate="2015-09-21" incidenttime="17:45:00" incidentnumber="15180489" address="700 block 2nd Ave" type="ARREST" age="30" gender="M" description="*********************************************** &lt;br/&gt;13(a)(16), Possession of Controlled Substance&lt;br/&gt;13(a)(32), Paraphernalia - Use or Possession&lt;br/&gt;"/><marker lat="40.462792786008031" lng="-80.025465791277398" zone="Zone 1" incidentdate="2015-09-21" incidenttime="20:14:00" incidentnumber="15180594" address="1200 block Success St" type="ARREST" age="49" gender="F" description="*********************************************** &lt;br/&gt;2702, Aggravated Assault.&lt;br/&gt;"/><marker lat="40.425535639433569" lng="-80.002978818959178" zone="Zone 3" incidentdate="2015-09-21" incidenttime="17:00:00" incidentnumber="15180442" address="Haberman Ave" type="ARREST" age="70" gender="M" description="*********************************************** &lt;br/&gt;9093, Indirect Criminal Contempt&lt;br/&gt;2701, Simple Assault.&lt;br/&gt;5505, Public Drunkenness&lt;br/&gt;"/><marker lat="40.44609264948722" lng="-79.954629798535109" zone="Zone 4" incidentdate="2015-09-21" incidenttime="12:00:00" incidentnumber="15180266" address="100 block Lytton Ave" type="ARREST" age="38" gender="M" description="*********************************************** &lt;br/&gt;4106, Access Device Fraud&lt;br/&gt;3925, Receiving Stolen Property.&lt;br/&gt;3926(a)(4), Theft of services; ACQUISITION OF SERVICES - refusal to pay or offer to pay for a service (hotels and restarants)&lt;br/&gt;3926.C1, THEFT OF SERVICES&lt;br/&gt;"/><marker lat="40.454293918606794" lng="-80.058380511908311" zone="Zone 6" incidentdate="2015-09-21" incidenttime="13:35:00" incidentnumber="15180347" address="Citadel St &amp; Chartiers Ave" type="ARREST" age="20" gender="M" description="*********************************************** &lt;br/&gt;13(a)(31), Marijuana: Possession Small Amount&lt;br/&gt;3323, Stop Signs and Yield Signs.&lt;br/&gt;1501, Drivers Required to be Licensed.&lt;br/&gt;"/><marker lat="40.434696587775576" lng="-79.996300985228572" zone="Zone 2" incidentdate="2015-09-21" incidenttime="09:35:00" incidentnumber="15157208" address="600 block 1st Ave" type="ARREST" age="44" gender="F" description="*********************************************** &lt;br/&gt;3304, Criminal Mischief.&lt;br/&gt;2709, Harassment (Non-Specific)&lt;br/&gt;"/><marker lat="40.408233362433364" lng="-79.943897818758742" zone="Zone 4" incidentdate="2015-09-21" incidenttime="00:02:00" incidentnumber="15179982" address="5000 block 2nd Ave" type="ARREST" age="24" gender="F" description="*********************************************** &lt;br/&gt;2701, Simple Assault.&lt;br/&gt;"/><marker lat="40.435133202531283" lng="-79.95632906746944" zone="Zone 4" incidentdate="2015-09-21" incidenttime="14:34:00" incidentnumber="15180372" address="3400 block Bates St" type="ARREST" age="51" gender="M" description="*********************************************** &lt;br/&gt;9501, Bench Warrant&lt;br/&gt;3502, Burglary.&lt;br/&gt;3921, Theft by Unlawful Taking or Disposition.&lt;br/&gt;"/><marker lat="40.487823540011732" lng="-79.897614208935366" zone="Zone 5" incidentdate="2015-09-21" incidenttime="15:40:00" incidentnumber="15180405" address="800 block Freeport Rd" type="ARREST" age="42" gender="M" description="*********************************************** &lt;br/&gt;3929, Retail Theft.&lt;br/&gt;"/><marker lat="40.4176288" lng="-79.8915306" zone="Zone OSC" incidentdate="2015-09-21" incidenttime="13:00:00" incidentnumber="15115754" address="6000 block Woodlawn Rd" type="ARREST" age="33" gender="M" description="*********************************************** &lt;br/&gt;9015, Failure To Appear/Arrest on Attachment Order&lt;br/&gt;13(a)(16), Possession of Controlled Substance&lt;br/&gt;1543, Driving While Operating Privilege is Suspended or Revoked.&lt;br/&gt;13(a)(32), Paraphernalia - Use or Possession&lt;br/&gt;3802(a)(1), DUI - General Impairment&lt;br/&gt;"/><marker lat="40.454104396974053" lng="-79.996792124994045" zone="Zone 1" incidentdate="2015-09-21" incidenttime="18:20:00" incidentnumber="15180518" address="Madison Ave &amp; E Ohio St" type="ARREST" age="51" gender="M" description="*********************************************** &lt;br/&gt;13(a)(16), Possession of Controlled Substance&lt;br/&gt;"/><marker lat="40.425535639433569" lng="-80.002978818959178" zone="Zone 3" incidentdate="2015-09-21" incidenttime="17:00:00" incidentnumber="15180442" address="Haberman Ave" type="ARREST" age="44" gender="F" description="*********************************************** &lt;br/&gt;9093, Indirect Criminal Contempt&lt;br/&gt;2701, Simple Assault.&lt;br/&gt;5505, Public Drunkenness&lt;br/&gt;"/><marker lat="40.436829844148086" lng="-79.999640044646654" zone="Zone 2" incidentdate="2015-09-21" incidenttime="09:49:00" incidentnumber="15163487" address="1st Ave" type="ARREST" age="29" gender="F" description="*********************************************** &lt;br/&gt;5510, Abuse of Corpse.&lt;br/&gt;3921(a), Theft by Unlawful Taking or Disposition - Movable item&lt;br/&gt;"/><marker lat="40.419867863106482" lng="-79.93128777594643" zone="Zone 4" incidentdate="2015-09-21" incidenttime="01:35:00" incidentnumber="15180036" address="Hazelwood Ave &amp; Notley St" type="ARREST" age="38" gender="M" description="*********************************************** &lt;br/&gt;9501, Bench Warrant&lt;br/&gt;"/><marker lat="40.470459914974732" lng="-79.908540011902716" zone="Zone 5" incidentdate="2015-09-21" incidenttime="13:30:00" incidentnumber="15165902" address="1400 block Washington Blvd" type="ARREST" age="53" gender="M" description="*********************************************** &lt;br/&gt;2709(b), Stalking&lt;br/&gt;"/><marker lat="40.454948691850667" lng="-80.009640272832598" zone="Zone 1" incidentdate="2015-09-21" incidenttime="11:47:00" incidentnumber="15180177" address="300 block E North Ave" type="ARREST" age="35" gender="M" description="*********************************************** &lt;br/&gt;9501, Bench Warrant&lt;br/&gt;"/><marker lat="40.455880560530979" lng="-79.946666863112242" zone="Zone 5" incidentdate="2015-09-21" incidenttime="02:50:00" incidentnumber="15180075" address="200 block Morewood Ave" type="ARREST" age="30" gender="M" description="*********************************************** &lt;br/&gt;5506, Loitering and Prowling at Night&lt;br/&gt;13(a)(16), Possession of Controlled Substance&lt;br/&gt;901, Criminal Attempt&lt;br/&gt;13(a)(32), Paraphernalia - Use or Possession&lt;br/&gt;9501, Bench Warrant&lt;br/&gt;"/><marker lat="40.436368261960759" lng="-80.048262638386007" zone="Zone 6" incidentdate="2015-09-21" incidenttime="12:00:00" incidentnumber="14177604" address="1100 block Queensbury St" type="ARREST" age="38" gender="M" description="*********************************************** &lt;br/&gt;9015, Failure To Appear/Arrest on Attachment Order&lt;br/&gt;2701(a)(1), Simple Assault - Intent., Know., Reckless.Cause Bod. Injury&lt;br/&gt;"/><marker lat="40.468254975285582" lng="-80.025934680309405" zone="Zone 1" incidentdate="2015-09-21" incidenttime="19:35:00" incidentnumber="15180583" address="Highwood St &amp; Mc Dowell St" type="ARREST" age="33" gender="M" description="*********************************************** &lt;br/&gt;3334, Turning Movements and Required Signals.&lt;br/&gt;6503.1, Habitual Offenders&lt;br/&gt;908, Prohibited Offensive Weapons.&lt;br/&gt;9501, Bench Warrant&lt;br/&gt;"/><marker lat="40.441406159731216" lng="-80.002873255548053" zone="Zone 2" incidentdate="2015-09-21" incidenttime="14:39:00" incidentnumber="15180378" address="100 block 5th Ave" type="ARREST" age="57" gender="F" description="*********************************************** &lt;br/&gt;3929, Retail Theft.&lt;br/&gt;907, Possessing Instruments of Crime.&lt;br/&gt;"/><marker lat="40.428758587531433" lng="-79.980561963586084" zone="Zone 3" incidentdate="2015-09-21" incidenttime="19:30:00" incidentnumber="15169186" address="E Carson St &amp; S 18th St" type="ARREST" age="27" gender="M" description="*********************************************** &lt;br/&gt;2701, Simple Assault.&lt;br/&gt;"/><marker lat="40.434696587775576" lng="-79.996300985228572" zone="Zone 2" incidentdate="2015-09-21" incidenttime="19:00:00" incidentnumber="15169621" address="600 block 1st Ave" type="ARREST" age="31" gender="F" description="*********************************************** &lt;br/&gt;3304, Criminal Mischief.&lt;br/&gt;2701(a)(3), Simple Assault - Attempts by Physical Menace&lt;br/&gt;"/><marker lat="40.434696587775576" lng="-79.996300985228572" zone="Zone 2" incidentdate="2015-09-21" incidenttime="08:55:00" incidentnumber="15155694" address="600 block 1st Ave" type="ARREST" age="30" gender="M" description="*********************************************** &lt;br/&gt;2701, Simple Assault.&lt;br/&gt;2706, Terroristic Threats.&lt;br/&gt;"/><marker lat="40.419350328866692" lng="-79.935939333733572" zone="Zone 4" incidentdate="2015-09-21" incidenttime="18:32:00" incidentnumber="15180548" address="Bigelow St" type="ARREST" age="22" gender="M" description="*********************************************** &lt;br/&gt;100, Fugitive&lt;br/&gt;"/><marker lat="40.401209879076809" lng="-80.018215436912158" zone="Zone 6" incidentdate="2015-09-21" incidenttime="00:47:00" incidentnumber="15155501" address="300 block Bellbrook St" type="ARREST" age="49" gender="M" description="*********************************************** &lt;br/&gt;2701(a)(1), Simple Assault - Intent., Know., Reckless.Cause Bod. Injury&lt;br/&gt;"/><marker lat="40.438687329552188" lng="-79.951832819378694" zone="Zone 4" incidentdate="2015-09-21" incidenttime="11:30:00" incidentnumber="15165621" address="3800 block Dawson St" type="ARREST" age="25" gender="M" description="*********************************************** &lt;br/&gt;3502, Burglary.&lt;br/&gt;"/><marker lat="40.460302578526942" lng="-80.006980071080037" zone="Zone 1" incidentdate="2015-09-21" incidenttime="15:00:00" incidentnumber="15145142" address="1700 block Belleau Dr" type="ARREST" age="29" gender="M" description="*********************************************** &lt;br/&gt;2702, Aggravated Assault.&lt;br/&gt;4304(a)(1), Endangering Welfare of Children - Course of Conduct Enhanced&lt;br/&gt;"/><marker lat="40.435095503606554" lng="-79.993077686753679" zone="Zone 2" incidentdate="2015-09-21" incidenttime="07:30:00" incidentnumber="14252895" address="900 block Second Ave" type="ARREST" age="59" gender="M" description="*********************************************** &lt;br/&gt;3928, Unauthorized Use of Automobile and Other Vehicles.&lt;br/&gt;"/><marker lat="40.451993427634157" lng="-79.914985879770683" zone="Zone 4" incidentdate="2015-09-21" incidenttime="16:30:00" incidentnumber="15180421" address="6700 block Reynolds St" type="ARREST" age="67" gender="F" description="*********************************************** &lt;br/&gt;601.08(a), Alcohol or Liquor Consumption on Streets or Sidewalks&lt;br/&gt;2706, Terroristic Threats.&lt;br/&gt;5104, Resisting Arrest or Other Law Enforcement.&lt;br/&gt;5505, Public Drunkenness&lt;br/&gt;5503(a)(3), DISORDERLY CONDUCT - OBSCENE LANG/GEST&lt;br/&gt;"/><marker lat="40.435095503606554" lng="-79.993077686753679" zone="Zone 2" incidentdate="2015-09-21" incidenttime="10:20:00" incidentnumber="15159988" address="900 block Second Ave" type="ARREST" age="60" gender="M" description="*********************************************** &lt;br/&gt;9015, Failure To Appear/Arrest on Attachment Order&lt;br/&gt;2701, Simple Assault.&lt;br/&gt;1543, Driving While Operating Privilege is Suspended or Revoked.&lt;br/&gt;2705, Recklessly Endangering Another Person.&lt;br/&gt;"/><marker lat="40.447502334719239" lng="-80.051783949854453" zone="Zone 6" incidentdate="2015-09-21" incidenttime="20:12:00" incidentnumber="15180630" address="1600 block Crucible St" type="ARREST" age="23" gender="F" description="*********************************************** &lt;br/&gt;5502, Failure of Disorderly Persons to Disperse&lt;br/&gt;5101, Obstructing Admin. of Law&lt;br/&gt;5503, Disorderly Conduct.&lt;br/&gt;"/><marker lat="40.454080431958992" lng="-80.001938757944643" zone="Zone 1" incidentdate="2015-09-21" incidenttime="00:45:00" incidentnumber="15176180" address="Cedar Ave &amp; Foreland St" type="ARREST" age="42" gender="F" description="*********************************************** &lt;br/&gt;5503(a)(4), DISORDERLY CONDUCT - HAZARDOUS/PHYS. OFF&lt;br/&gt;6501(a)(1), Scattering Rubbish; Any waste, dangerous or detrimental substance upon public property or waters&lt;br/&gt;2707, Propulsion of Missiles&lt;br/&gt;3304(a)(5), CRIMINAL MISCHIEF - Intentionally Damages Real Or Personal Property Of Another&lt;br/&gt;5505, Public Drunkenness&lt;br/&gt;2705, Recklessly Endangering Another Person.&lt;br/&gt;"/><marker lat="40.443230518813948" lng="-80.000259352054542" zone="Zone 2" incidentdate="2015-09-21" incidenttime="11:24:00" incidentnumber="15085228" address="7th St &amp; Penn Ave" type="ARREST" age="22" gender="M" description="*********************************************** &lt;br/&gt;9093, Indirect Criminal Contempt&lt;br/&gt;2701, Simple Assault.&lt;br/&gt;"/><marker lat="40.455880560530979" lng="-79.946666863112242" zone="Zone 5" incidentdate="2015-09-21" incidenttime="02:50:00" incidentnumber="15115918" address="200 block Morewood Ave" type="ARREST" age="30" gender="M" description="*********************************************** &lt;br/&gt;9015, Failure To Appear/Arrest on Attachment Order&lt;br/&gt;13(a)(32), Paraphernalia - Use or Possession&lt;br/&gt;"/><marker lat="40.460302578526942" lng="-80.006980071080037" zone="Zone 1" incidentdate="2015-09-21" incidenttime="11:22:00" incidentnumber="15180246" address="1700 block Belleau Dr" type="ARREST" age="22" gender="M" description="*********************************************** &lt;br/&gt;9093, Indirect Criminal Contempt&lt;br/&gt;"/><marker lat="40.434696587775576" lng="-79.996300985228572" zone="Zone 2" incidentdate="2015-09-21" incidenttime="14:00:00" incidentnumber="15122543" address="600 block 1st Ave" type="ARREST" age="45" gender="M" description="*********************************************** &lt;br/&gt;4304(a)(1) Enhanced, Welfare of Children - Course of Conduct&lt;br/&gt;"/><marker lat="40.434696587775576" lng="-79.996300985228572" zone="Zone 2" incidentdate="2015-09-21" incidenttime="14:00:00" incidentnumber="15122543" address="600 block 1st Ave" type="ARREST" age="38" gender="F" description="*********************************************** &lt;br/&gt;4304(a)(1) Enhanced, Welfare of Children - Course of Conduct&lt;br/&gt;"/><marker lat="40.435095503606554" lng="-79.993077686753679" zone="Zone 2" incidentdate="2015-09-21" incidenttime="10:14:00" incidentnumber="15167612" address="900 block Second Ave" type="ARREST" age="29" gender="M" description="*********************************************** &lt;br/&gt;2701, Simple Assault.&lt;br/&gt;2701(a)(1), Simple Assault - Intent., Know., Reckless.Cause Bod. Injury&lt;br/&gt;2701(a)(3), Simple Assault - Attempts by Physical Menace&lt;br/&gt;"/><marker lat="40.432270215809964" lng="-79.930520005406919" zone="Zone 4" incidentdate="2015-09-21" incidenttime="11:22:00" incidentnumber="15008331" address="Hobart St &amp; Murdoch Rd" type="ARREST" age="22" gender="M" description="*********************************************** &lt;br/&gt;3304, Criminal Mischief.&lt;br/&gt;3745, Accidents Involving Damage to Unattended Veh.or Prop.&lt;br/&gt;3503, Criminal Trespass&lt;br/&gt;"/></markers>
