<?xml version="1.0"?>
<markers><marker lat="40.441228428031053" lng="-80.002073791411135" zone="Zone 2" incidentdate="2016-09-26" incidenttime="16:50:00" incidentnumber="16182303" address="200 block 5th Ave" type="OFFENSE" age="" gender="" description="*********************************************** &lt;br/&gt;2701, Simple Assault.&lt;br/&gt;"/><marker lat="40.472596015636491" lng="-80.012620965900538" zone="Zone 1" incidentdate="2016-09-26" incidenttime="09:25:00" incidentnumber="16182024" address="2700 block Leland St" type="OFFENSE" age="" gender="" description="*********************************************** &lt;br/&gt;3502, Burglary.&lt;br/&gt;"/><marker lat="40.441772984812665" lng="-80.001620450643472" zone="Zone 2" incidentdate="2016-09-26" incidenttime="00:20:00" incidentnumber="16181862" address="600 block Liberty Ave" type="OFFENSE" age="" gender="" description="*********************************************** &lt;br/&gt;3922, Theft by Deception.&lt;br/&gt;"/><marker lat="40.42654918542712" lng="-79.988430671282615" zone="Zone 3" incidentdate="2016-09-26" incidenttime="11:25:00" incidentnumber="16182124" address="1000 block Freyburg St" type="OFFENSE" age="" gender="" description="*********************************************** &lt;br/&gt;3934, Theft from Vehicle&lt;br/&gt;"/><marker lat="40.438308590945255" lng="-79.957718574743282" zone="Zone 4" incidentdate="2016-09-26" incidenttime="02:27:00" incidentnumber="16181899" address="300 block Mc Kee Pl" type="OFFENSE" age="" gender="" description="*********************************************** &lt;br/&gt;5506, Loitering and Prowling at Night&lt;br/&gt;"/><marker lat="40.467691200350032" lng="-79.9799808922766" zone="Zone 1" incidentdate="2016-09-26" incidenttime="20:55:00" incidentnumber="16182396" address="2000 block Lowrie St" type="OFFENSE" age="" gender="" description="*********************************************** &lt;br/&gt;607.03, Discharging Firearm or Airgun&lt;br/&gt;6106, Firearms not to be Carried without a License.&lt;br/&gt;"/><marker lat="40.442587385073011" lng="-80.039038010993011" zone="Zone 6" incidentdate="2016-09-26" incidenttime="02:10:00" incidentnumber="16181881" address="800 block Chartiers Ave" type="OFFENSE" age="" gender="" description="*********************************************** &lt;br/&gt;2701, Simple Assault.&lt;br/&gt;"/><marker lat="40.411024584334392" lng="-79.955523389357523" zone="Zone 3" incidentdate="2016-09-26" incidenttime="13:16:00" incidentnumber="16182136" address="E Carson St &amp; Becks Run Rd" type="OFFENSE" age="" gender="" description="*********************************************** &lt;br/&gt;9999, 9999 - (Misc. Incident):&lt;br/&gt;"/><marker lat="40.460768407974605" lng="-80.054473919507714" zone="Zone 6" incidentdate="2016-09-26" incidenttime="17:00:00" incidentnumber="16182294" address="400 block Stadium St" type="OFFENSE" age="" gender="" description="*********************************************** &lt;br/&gt;3921(a), Theft by Unlawful Taking or Disposition - Movable item&lt;br/&gt;"/><marker lat="40.451840335370044" lng="-80.028530459735663" zone="Zone 1" incidentdate="2016-09-26" incidenttime="07:00:00" incidentnumber="16182261" address="W North Ave &amp; Beaver Ave" type="OFFENSE" age="" gender="" description="*********************************************** &lt;br/&gt;3304, Criminal Mischief.&lt;br/&gt;"/><marker lat="40.431507977134366" lng="-80.008853053939617" zone="Zone 3" incidentdate="2016-09-26" incidenttime="05:30:00" incidentnumber="16181997" address="200 block Maple Ter" type="OFFENSE" age="" gender="" description="*********************************************** &lt;br/&gt;3745, Accidents Involving Damage to Unattended Veh.or Prop.&lt;br/&gt;"/><marker lat="40.446816868047385" lng="-79.908113927545045" zone="Zone 4" incidentdate="2016-09-26" incidenttime="07:00:00" incidentnumber="16181984" address="7000 block Edgerton Ave" type="OFFENSE" age="" gender="" description="*********************************************** &lt;br/&gt;3921, Theft by Unlawful Taking or Disposition.&lt;br/&gt;"/><marker lat="40.456515048695316" lng="-80.016515559088219" zone="Zone 1" incidentdate="2016-09-26" incidenttime="00:27:00" incidentnumber="16181861" address="1500 block Brighton Rd" type="OFFENSE" age="" gender="" description="*********************************************** &lt;br/&gt;9999, 9999 - (Misc. Incident):&lt;br/&gt;"/><marker lat="40.466887128304442" lng="-80.025013063862957" zone="Zone 1" incidentdate="2016-09-26" incidenttime="01:03:00" incidentnumber="16181842" address="Brighton Rd &amp; Marshall Ave" type="OFFENSE" age="" gender="" description="*********************************************** &lt;br/&gt;2701, Simple Assault.&lt;br/&gt;"/><marker lat="40.44511004552583" lng="-80.039246537687731" zone="Zone 6" incidentdate="2016-09-26" incidenttime="08:15:00" incidentnumber="16182013" address="700 block Lorenz Ave" type="OFFENSE" age="" gender="" description="*********************************************** &lt;br/&gt;3934, Theft from Vehicle&lt;br/&gt;"/><marker lat="40.450892721440539" lng="-80.000843891836467" zone="Zone 1" incidentdate="2016-09-26" incidenttime="13:44:00" incidentnumber="16182145" address="300 block Cedar Ave" type="OFFENSE" age="" gender="" description="*********************************************** &lt;br/&gt;3929(a)(1), Retail Theft; takes possession of, carries away, or transfers displayed merchandise&lt;br/&gt;"/><marker lat="40.432068071875968" lng="-79.920262604861492" zone="Zone 4" incidentdate="2016-09-26" incidenttime="21:03:00" incidentnumber="16182410" address="5900 block Phillips Ave" type="OFFENSE" age="" gender="" description="*********************************************** &lt;br/&gt;9497, Aided Case&lt;br/&gt;"/><marker lat="40.4393734" lng="-79.9684101" zone="Zone 2" incidentdate="2016-09-26" incidenttime="00:14:00" incidentnumber="16181845" address="200 block Oak Hill Dr" type="OFFENSE" age="" gender="" description="*********************************************** &lt;br/&gt;2701(a)(1), Simple Assault - Intent., Know., Reckless.Cause Bod. Injury&lt;br/&gt;"/><marker lat="40.459145276613746" lng="-79.946554421656401" zone="Zone 5" incidentdate="2016-09-26" incidenttime="19:30:00" incidentnumber="16182358" address="4900 block Sciota St" type="OFFENSE" age="" gender="" description="*********************************************** &lt;br/&gt;9490, Missing Persons (18 and Over)&lt;br/&gt;"/><marker lat="40.455273086676286" lng="-80.008870414965187" zone="Zone 5" incidentdate="2016-09-26" incidenttime="15:22:00" incidentnumber="16182228" address="200 block N Negley Ave" type="OFFENSE" age="" gender="" description="*********************************************** &lt;br/&gt;9497, Aided Case&lt;br/&gt;"/><marker lat="40.467465940925841" lng="-79.908833274714695" zone="Zone 5" incidentdate="2016-09-26" incidenttime="16:18:00" incidentnumber="16182234" address="1300 block Washington Blvd" type="OFFENSE" age="" gender="" description="*********************************************** &lt;br/&gt;9999, 9999 - (Misc. Incident):&lt;br/&gt;"/><marker lat="40.470024041907024" lng="-79.922019925487149" zone="Zone 5" incidentdate="2016-09-26" incidenttime="18:06:00" incidentnumber="16182316" address="Stanton Ave &amp; N Beatty St" type="OFFENSE" age="" gender="" description="*********************************************** &lt;br/&gt;3802(a)(1), DUI - General Impairment&lt;br/&gt;"/><marker lat="40.458285531789414" lng="-79.911594272179926" zone="Zone 5" incidentdate="2016-09-26" incidenttime="14:00:00" incidentnumber="16182208" address="100 block Julius St" type="OFFENSE" age="" gender="" description="*********************************************** &lt;br/&gt;3304, Criminal Mischief.&lt;br/&gt;3921, Theft by Unlawful Taking or Disposition.&lt;br/&gt;"/><marker lat="40.460770540941056" lng="-79.915653002039789" zone="Zone 5" incidentdate="2016-09-26" incidenttime="23:02:00" incidentnumber="16182448" address="6400 block Frankstown Ave" type="OFFENSE" age="" gender="" description="*********************************************** &lt;br/&gt;5505, Public Drunkenness&lt;br/&gt;4914, False Identification to Law Enforcement Authorities&lt;br/&gt;3929, Retail Theft.&lt;br/&gt;"/><marker lat="40.429912956583365" lng="-79.95398397967142" zone="Zone 4" incidentdate="2016-09-26" incidenttime="09:51:00" incidentnumber="16182032" address="3200 block Dawson St" type="OFFENSE" age="" gender="" description="*********************************************** &lt;br/&gt;9999, 9999 - (Misc. Incident):&lt;br/&gt;"/><marker lat="40.456473594608255" lng="-80.05559691973923" zone="Zone 6" incidentdate="2016-09-26" incidenttime="14:35:00" incidentnumber="16182180" address="3100 block Landis St" type="OFFENSE" age="" gender="" description="*********************************************** &lt;br/&gt;2701, Simple Assault.&lt;br/&gt;"/><marker lat="40.42309122805122" lng="-79.923733084258188" zone="Zone 4" incidentdate="2016-09-26" incidenttime="15:52:00" incidentnumber="16182227" address="6500 block Lilac St" type="OFFENSE" age="" gender="" description="*********************************************** &lt;br/&gt;9999, 9999 - (Misc. Incident):&lt;br/&gt;"/><marker lat="40.427632878641617" lng="-79.988513770823317" zone="Zone 3" incidentdate="2016-09-26" incidenttime="07:25:00" incidentnumber="16182066" address="1000 block Sarah St" type="OFFENSE" age="" gender="" description="*********************************************** &lt;br/&gt;3304, Criminal Mischief.&lt;br/&gt;3934, Theft from Vehicle&lt;br/&gt;"/><marker lat="40.454038272737556" lng="-79.867341042290406" zone="Zone 5" incidentdate="2016-09-26" incidenttime="00:09:00" incidentnumber="16181843" address="2200 block Wilner Dr" type="OFFENSE" age="" gender="" description="*********************************************** &lt;br/&gt;029, Missing Juvenile&lt;br/&gt;"/><marker lat="40.458682962656141" lng="-79.947100993018708" zone="Zone 5" incidentdate="2016-09-26" incidenttime="10:00:00" incidentnumber="16182053" address="4900 block Cypress St" type="OFFENSE" age="" gender="" description="*********************************************** &lt;br/&gt;3304(a)(5), CRIMINAL MISCHIEF - Intentionally Damages Real Or Personal Property Of Another&lt;br/&gt;"/><marker lat="40.4406248" lng="-79.9958864" zone="Zone 3" incidentdate="2016-09-26" incidenttime="14:45:00" incidentnumber="16182205" address="Saw Mill Run Blvd &amp; I-376 Ramp" type="OFFENSE" age="" gender="" description="*********************************************** &lt;br/&gt;3743, Accidents Involving Damage to Attended Veh. or Property&lt;br/&gt;"/><marker lat="40.423266600122631" lng="-79.940409169673913" zone="Zone 4" incidentdate="2016-09-26" incidenttime="18:21:00" incidentnumber="16182345" address="4200 block Shields St" type="OFFENSE" age="" gender="" description="*********************************************** &lt;br/&gt;9498, 302 (Mental)&lt;br/&gt;"/><marker lat="40.397123531939101" lng="-79.9881756213681" zone="Zone 3" incidentdate="2016-09-26" incidenttime="08:00:00" incidentnumber="16182126" address="1800 block Brownsville Rd" type="OFFENSE" age="" gender="" description="*********************************************** &lt;br/&gt;3304, Criminal Mischief.&lt;br/&gt;3921, Theft by Unlawful Taking or Disposition.&lt;br/&gt;"/><marker lat="40.433407688215397" lng="-80.009896325968413" zone="Zone 3" incidentdate="2016-09-26" incidenttime="17:30:00" incidentnumber="16182328" address="300 block Grandview Ave" type="OFFENSE" age="" gender="" description="*********************************************** &lt;br/&gt;3934, Theft from Vehicle&lt;br/&gt;"/><marker lat="40.42195708086561" lng="-79.986432941657682" zone="Zone 3" incidentdate="2016-09-26" incidenttime="16:00:00" incidentnumber="16182249" address="1100 block E Warrington Ave" type="OFFENSE" age="" gender="" description="*********************************************** &lt;br/&gt;3934, Theft from Vehicle&lt;br/&gt;"/><marker lat="40.462766370932492" lng="-79.957250054964803" zone="Zone 5" incidentdate="2016-09-26" incidenttime="17:58:00" incidentnumber="16182308" address="4000 block Liberty Ave" type="OFFENSE" age="" gender="" description="*********************************************** &lt;br/&gt;3304, Criminal Mischief.&lt;br/&gt;"/><marker lat="40.44511004552583" lng="-80.039246537687731" zone="Zone 6" incidentdate="2016-09-26" incidenttime="13:00:00" incidentnumber="16182199" address="700 block Lorenz Ave" type="OFFENSE" age="" gender="" description="*********************************************** &lt;br/&gt;4101, Forgery.&lt;br/&gt;"/><marker lat="40.446816868047385" lng="-79.908113927545045" zone="Zone 4" incidentdate="2016-09-26" incidenttime="07:00:00" incidentnumber="16181991" address="7000 block Edgerton Ave" type="OFFENSE" age="" gender="" description="*********************************************** &lt;br/&gt;3934, Theft from Vehicle&lt;br/&gt;"/><marker lat="40.42695519606621" lng="-80.005599666575392" zone="Zone 3" incidentdate="2016-09-26" incidenttime="14:30:00" incidentnumber="16182161" address="Bailey Ave" type="OFFENSE" age="" gender="" description="*********************************************** &lt;br/&gt;9998, Overdose&lt;br/&gt;"/><marker lat="40.45901010582994" lng="-80.032451148519272" zone="Zone 1" incidentdate="2016-09-26" incidenttime="07:00:00" incidentnumber="16181952" address="Branchport St &amp; Metropolitan St" type="OFFENSE" age="" gender="" description="*********************************************** &lt;br/&gt;3934, Theft from Vehicle&lt;br/&gt;"/><marker lat="40.427051737120287" lng="-79.974773620779999" zone="Zone 3" incidentdate="2016-09-26" incidenttime="07:30:00" incidentnumber="16182005" address="Larkins Way &amp; S 22nd St" type="OFFENSE" age="" gender="" description="*********************************************** &lt;br/&gt;3934, Theft from Vehicle&lt;br/&gt;"/><marker lat="40.456645624737135" lng="-80.016779629911412" zone="Zone 1" incidentdate="2016-09-26" incidenttime="06:15:00" incidentnumber="16182091" address="Jacksonia St" type="OFFENSE" age="" gender="" description="*********************************************** &lt;br/&gt;9999, 9999 - (Misc. Incident):&lt;br/&gt;"/><marker lat="40.444945940991495" lng="-79.977478901660206" zone="Zone 2" incidentdate="2016-09-26" incidenttime="19:00:00" incidentnumber="16182380" address="Elmore St &amp; Centre Ave" type="OFFENSE" age="" gender="" description="*********************************************** &lt;br/&gt;3304, Criminal Mischief.&lt;br/&gt;"/><marker lat="40.369551997868982" lng="-79.91421586379019" zone="Zone 4" incidentdate="2016-09-26" incidenttime="15:45:00" incidentnumber="16182240" address="5400 block Mere St" type="OFFENSE" age="" gender="" description="*********************************************** &lt;br/&gt;3502, Burglary.&lt;br/&gt;2701, Simple Assault.&lt;br/&gt;"/><marker lat="40.425652952938002" lng="-79.934473311105776" zone="Zone 4" incidentdate="2016-09-26" incidenttime="18:00:00" incidentnumber="16182371" address="800 block Mirror St" type="OFFENSE" age="" gender="" description="*********************************************** &lt;br/&gt;9999, 9999 - (Misc. Incident):&lt;br/&gt;"/><marker lat="40.419982102910893" lng="-79.93603023000739" zone="Zone 4" incidentdate="2016-09-26" incidenttime="17:30:00" incidentnumber="16182301" address="600 block Montclair St" type="OFFENSE" age="" gender="" description="*********************************************** &lt;br/&gt;3304, Criminal Mischief.&lt;br/&gt;"/><marker lat="40.4403129" lng="-79.9792859" zone="Zone 2" incidentdate="2016-09-26" incidenttime="11:48:00" incidentnumber="16182080" address="200 block Lombard St" type="OFFENSE" age="" gender="" description="*********************************************** &lt;br/&gt;9090, Recovered Firearm&lt;br/&gt;"/><marker lat="40.447132689806871" lng="-79.89516170186954" zone="Zone 4" incidentdate="2016-09-26" incidenttime="15:27:00" incidentnumber="16182204" address="Penn Ave &amp; S Braddock Ave" type="OFFENSE" age="" gender="" description="*********************************************** &lt;br/&gt;3742, Accidents Involving Death or Personal Injury&lt;br/&gt;"/><marker lat="40.418001484057669" lng="-79.940829722461004" zone="Zone 4" incidentdate="2016-09-26" incidenttime="13:00:00" incidentnumber="16182171" address="400 block Susanna Ct" type="OFFENSE" age="" gender="" description="*********************************************** &lt;br/&gt;9999, 9999 - (Misc. Incident):&lt;br/&gt;"/><marker lat="40.392919925791212" lng="-80.010808816082346" zone="Zone 6" incidentdate="2016-09-26" incidenttime="10:22:00" incidentnumber="16182030" address="1300 block Bellaire Pl" type="OFFENSE" age="" gender="" description="*********************************************** &lt;br/&gt;9496, Dead on Arrival (DOA)&lt;br/&gt;"/><marker lat="40.402531912784838" lng="-80.032146701495677" zone="Zone 6" incidentdate="2016-09-26" incidenttime="15:00:00" incidentnumber="16182241" address="2300 block Candace St" type="OFFENSE" age="" gender="" description="*********************************************** &lt;br/&gt;3745, Accidents Involving Damage to Unattended Veh.or Prop.&lt;br/&gt;"/><marker lat="40.421773212267283" lng="-79.994851626969449" zone="Zone 3" incidentdate="2016-09-26" incidenttime="23:20:00" incidentnumber="16182445" address="100 block Walter St" type="OFFENSE" age="" gender="" description="*********************************************** &lt;br/&gt;13(a)(16), Possession of Controlled Substance&lt;br/&gt;13(a)(32), Paraphernalia - Use or Possession&lt;br/&gt;9501, Bench Warrant&lt;br/&gt;3503, Criminal Trespass&lt;br/&gt;"/><marker lat="40.451138238511099" lng="-79.968993363146012" zone="Zone 2" incidentdate="2016-09-26" incidenttime="21:15:00" incidentnumber="16182412" address="700 block Morgan St" type="OFFENSE" age="" gender="" description="*********************************************** &lt;br/&gt;9998, Overdose&lt;br/&gt;"/><marker lat="40.46677285651247" lng="-79.925276693759685" zone="Zone 5" incidentdate="2016-09-26" incidenttime="22:48:00" incidentnumber="16182442" address="East Liberty Blvd &amp; N Euclid Ave" type="OFFENSE" age="" gender="" description="*********************************************** &lt;br/&gt;13(a)(32), Paraphernalia - Use or Possession&lt;br/&gt;3334, Turning Movements and Required Signals.&lt;br/&gt;3702, Robbery of Motor Vehicle.&lt;br/&gt;"/><marker lat="40.433891542802876" lng="-79.960377840951992" zone="Zone 4" incidentdate="2016-09-26" incidenttime="18:02:00" incidentnumber="16182327" address="3200 block Niagara St" type="OFFENSE" age="" gender="" description="*********************************************** &lt;br/&gt;2709(a)(1), Harassment by Physical Contact, or Attempts or Threats&lt;br/&gt;"/><marker lat="40.464174607992611" lng="-79.900881518378554" zone="Zone 5" incidentdate="2016-09-26" incidenttime="01:54:00" incidentnumber="16181877" address="Deary St &amp; Lincoln Ave" type="OFFENSE" age="" gender="" description="*********************************************** &lt;br/&gt;13(a)(31), Marijuana: Possession Small Amount&lt;br/&gt;1501, Drivers Required to be Licensed.&lt;br/&gt;3925, Receiving Stolen Property.&lt;br/&gt;"/><marker lat="40.453078932067271" lng="-79.89477851667688" zone="Zone 5" incidentdate="2016-09-26" incidenttime="05:10:00" incidentnumber="16182305" address="7400 block Tioga St" type="OFFENSE" age="" gender="" description="*********************************************** &lt;br/&gt;3921, Theft by Unlawful Taking or Disposition.&lt;br/&gt;"/><marker lat="40.39458317783771" lng="-80.021692304865098" zone="Zone 6" incidentdate="2016-09-26" incidenttime="15:42:00" incidentnumber="16182196" address="700 block Brookline Blvd" type="OFFENSE" age="" gender="" description="*********************************************** &lt;br/&gt;5505, Public Drunkenness&lt;br/&gt;"/><marker lat="40.454307782768687" lng="-79.946518733076431" zone="Zone 5" incidentdate="2016-09-26" incidenttime="16:30:00" incidentnumber="16182273" address="4900 block Baum Blvd" type="OFFENSE" age="" gender="" description="*********************************************** &lt;br/&gt;2709, Harassment (Non-Specific)&lt;br/&gt;"/><marker lat="40.459316941946291" lng="-79.937052134891005" zone="Zone 5" incidentdate="2016-09-26" incidenttime="06:50:00" incidentnumber="16182051" address="400 block S Graham St" type="OFFENSE" age="" gender="" description="*********************************************** &lt;br/&gt;3934, Theft from Vehicle&lt;br/&gt;"/><marker lat="40.386011139880388" lng="-79.989166031695731" zone="Zone 3" incidentdate="2016-09-26" incidenttime="15:30:00" incidentnumber="16182313" address="400 block Olivet Ave" type="OFFENSE" age="" gender="" description="*********************************************** &lt;br/&gt;9999, 9999 - (Misc. Incident):&lt;br/&gt;"/><marker lat="40.471522131430149" lng="-79.926277530257337" zone="Zone 5" incidentdate="2016-09-26" incidenttime="16:50:00" incidentnumber="16182255" address="N Negley Ave &amp; Stanton Ave" type="OFFENSE" age="" gender="" description="*********************************************** &lt;br/&gt;9999, 9999 - (Misc. Incident):&lt;br/&gt;"/><marker lat="40.422053862670715" lng="-79.964675354423974" zone="Zone 3" incidentdate="2016-09-26" incidenttime="00:45:00" incidentnumber="16181920" address="3100 block Mary St" type="OFFENSE" age="" gender="" description="*********************************************** &lt;br/&gt;3934, Theft from Vehicle&lt;br/&gt;"/><marker lat="40.394640576664798" lng="-79.987302831142586" zone="Zone 3" incidentdate="2016-09-26" incidenttime="14:00:00" incidentnumber="16182186" address="2000 block Dellrose St" type="OFFENSE" age="" gender="" description="*********************************************** &lt;br/&gt;3921, Theft by Unlawful Taking or Disposition.&lt;br/&gt;"/><marker lat="40.428567965192009" lng="-79.987317884623508" zone="Zone 3" incidentdate="2016-09-26" incidenttime="02:01:00" incidentnumber="16181869" address="1100 block E Carson St" type="OFFENSE" age="" gender="" description="*********************************************** &lt;br/&gt;13(a)(31), Marijuana: Possession Small Amount&lt;br/&gt;"/><marker lat="40.446533001729442" lng="-79.968416866216259" zone="Zone 2" incidentdate="2016-09-26" incidenttime="10:30:00" incidentnumber="16182048" address="2600 block Centre Ave" type="OFFENSE" age="" gender="" description="*********************************************** &lt;br/&gt;9489, Found Property&lt;br/&gt;"/><marker lat="40.420475861630855" lng="-79.898577318129512" zone="Zone 4" incidentdate="2016-09-26" incidenttime="12:30:00" incidentnumber="16182113" address="200 block Blackhawk St" type="OFFENSE" age="" gender="" description="*********************************************** &lt;br/&gt;3503, Criminal Trespass&lt;br/&gt;2709(a)(1), Harassment by Physical Contact, or Attempts or Threats&lt;br/&gt;"/><marker lat="40.417162634988387" lng="-79.975976245510779" zone="Zone 3" incidentdate="2016-09-26" incidenttime="10:00:00" incidentnumber="16182211" address="Arlington Ave &amp; Fernleaf St" type="OFFENSE" age="" gender="" description="*********************************************** &lt;br/&gt;3701, Robbery.&lt;br/&gt;"/><marker lat="40.405564913954258" lng="-80.015276974021162" zone="Zone 6" incidentdate="2016-09-26" incidenttime="19:10:00" incidentnumber="16131468" address="1800 block Pioneer Ave" type="OFFENSE" age="" gender="" description="*********************************************** &lt;br/&gt;13(a)(32), Paraphernalia - Use or Possession&lt;br/&gt;4304(a)(1), Endangering Welfare of Children - Course of Conduct Enhanced&lt;br/&gt;3802(a)(1), DUI - General Impairment&lt;br/&gt;3802(d)(2), DUI - Drug - Impaired Ability&lt;br/&gt;"/><marker lat="40.443580942147605" lng="-79.979979097296493" zone="Zone 2" incidentdate="2016-09-26" incidenttime="11:40:00" incidentnumber="16182084" address="2000 block Centre Ave" type="OFFENSE" age="" gender="" description="*********************************************** &lt;br/&gt;3743, Accidents Involving Damage to Attended Veh. or Property&lt;br/&gt;"/><marker lat="40.3873495" lng="-79.9838314" zone="Zone 3" incidentdate="2016-09-26" incidenttime="06:32:00" incidentnumber="16181946" address="100 block Biscayne Dr" type="OFFENSE" age="" gender="" description="*********************************************** &lt;br/&gt;901, Criminal Attempt&lt;br/&gt;"/><marker lat="40.457062372015514" lng="-79.925283580877647" zone="Zone 4" incidentdate="2016-09-26" incidenttime="16:20:00" incidentnumber="16182271" address="300 block S Highland Ave" type="OFFENSE" age="" gender="" description="*********************************************** &lt;br/&gt;3502, Burglary.&lt;br/&gt;"/><marker lat="40.434856396357922" lng="-80.019514466526374" zone="Zone 3" incidentdate="2016-09-26" incidenttime="06:00:00" incidentnumber="16181950" address="200 block Meridan St" type="OFFENSE" age="" gender="" description="*********************************************** &lt;br/&gt;3921(a), Theft by Unlawful Taking or Disposition - Movable item&lt;br/&gt;"/><marker lat="40.437930304183752" lng="-79.991038081152311" zone="Zone 2" incidentdate="2016-09-26" incidenttime="11:30:00" incidentnumber="16182167" address="Chatham Sq &amp; Forbes Ave" type="OFFENSE" age="" gender="" description="*********************************************** &lt;br/&gt;3743, Accidents Involving Damage to Attended Veh. or Property&lt;br/&gt;"/><marker lat="40.465271214712232" lng="-79.914507693005959" zone="Zone 5" incidentdate="2016-09-26" incidenttime="20:50:00" incidentnumber="16182418" address="Larimer Ave &amp; Meadow St" type="OFFENSE" age="" gender="" description="*********************************************** &lt;br/&gt;9999, 9999 - (Misc. Incident):&lt;br/&gt;"/><marker lat="40.452042212663898" lng="-80.008738896002342" zone="Zone 1" incidentdate="2016-09-26" incidenttime="00:20:00" incidentnumber="16181847" address="200 block Ridge Ave" type="OFFENSE" age="" gender="" description="*********************************************** &lt;br/&gt;029, Missing Juvenile&lt;br/&gt;"/><marker lat="40.428276333917673" lng="-79.97636113605644" zone="Zone 3" incidentdate="2016-09-26" incidenttime="01:05:00" incidentnumber="16182078" address="100 block S 21st St" type="OFFENSE" age="" gender="" description="*********************************************** &lt;br/&gt;3304, Criminal Mischief.&lt;br/&gt;"/><marker lat="40.451840335370044" lng="-80.028530459735663" zone="Zone 1" incidentdate="2016-09-26" incidenttime="03:00:00" incidentnumber="16181887" address="W North Ave &amp; Beaver Ave" type="OFFENSE" age="" gender="" description="*********************************************** &lt;br/&gt;3304(a)(5), CRIMINAL MISCHIEF - Intentionally Damages Real Or Personal Property Of Another&lt;br/&gt;"/><marker lat="40.426744381339141" lng="-80.059227557646295" zone="Zone 6" incidentdate="2016-09-26" incidenttime="17:10:00" incidentnumber="16182276" address="900 block Baldwick Rd" type="OFFENSE" age="" gender="" description="*********************************************** &lt;br/&gt;2705, Recklessly Endangering Another Person.&lt;br/&gt;3743, Accidents Involving Damage to Attended Veh. or Property&lt;br/&gt;"/><marker lat="40.44511004552583" lng="-80.039246537687731" zone="Zone 6" incidentdate="2016-09-26" incidenttime="08:15:00" incidentnumber="16182017" address="700 block Lorenz Ave" type="OFFENSE" age="" gender="" description="*********************************************** &lt;br/&gt;3745, Accidents Involving Damage to Unattended Veh.or Prop.&lt;br/&gt;"/><marker lat="40.4452203863028" lng="-79.985449764795661" zone="Zone 2" incidentdate="2016-09-26" incidenttime="17:05:00" incidentnumber="16182263" address="Bedford Ave &amp; Roberts St" type="OFFENSE" age="" gender="" description="*********************************************** &lt;br/&gt;901, Criminal Attempt&lt;br/&gt;"/><marker lat="40.452042212663898" lng="-80.008738896002342" zone="Zone 1" incidentdate="2016-09-26" incidenttime="20:00:00" incidentnumber="16182444" address="200 block Ridge Ave" type="OFFENSE" age="" gender="" description="*********************************************** &lt;br/&gt;029, Missing Juvenile&lt;br/&gt;"/><marker lat="40.468266131869605" lng="-79.916897371430963" zone="Zone 5" incidentdate="2016-09-26" incidenttime="08:30:00" incidentnumber="16182004" address="Meadow St" type="OFFENSE" age="" gender="" description="*********************************************** &lt;br/&gt;9999, 9999 - (Misc. Incident):&lt;br/&gt;"/><marker lat="40.462160508535106" lng="-79.985693830310481" zone="Zone 1" incidentdate="2016-09-26" incidenttime="03:24:00" incidentnumber="16181902" address="1500 block Hatteras St" type="OFFENSE" age="" gender="" description="*********************************************** &lt;br/&gt;3502, Burglary.&lt;br/&gt;"/><marker lat="40.459356992612612" lng="-79.936435488197006" zone="Zone 5" incidentdate="2016-09-26" incidenttime="08:25:00" incidentnumber="16182008" address="5500 block Harriet St" type="OFFENSE" age="" gender="" description="*********************************************** &lt;br/&gt;3921(a), Theft by Unlawful Taking or Disposition - Movable item&lt;br/&gt;"/><marker lat="40.425624901284124" lng="-79.980879655621692" zone="Zone 3" incidentdate="2016-09-26" incidenttime="06:30:00" incidentnumber="16181970" address="S 18th St &amp; Edwards Way" type="OFFENSE" age="" gender="" description="*********************************************** &lt;br/&gt;3745, Accidents Involving Damage to Unattended Veh.or Prop.&lt;br/&gt;"/><marker lat="40.456473594608255" lng="-80.05559691973923" zone="Zone 6" incidentdate="2016-09-26" incidenttime="14:55:00" incidentnumber="16182180" address="3100 block Landis St" type="ARREST" age="13" gender="M" description="*********************************************** &lt;br/&gt;2701, Simple Assault.&lt;br/&gt;"/><marker lat="40.435095503606554" lng="-79.993077686753679" zone="Zone 2" incidentdate="2016-09-26" incidenttime="22:25:00" incidentnumber="16155429" address="900 block 2nd Ave" type="ARREST" age="23" gender="M" description="*********************************************** &lt;br/&gt;3925, Receiving Stolen Property.&lt;br/&gt;903, Criminal Conspiracy.&lt;br/&gt;3924, Theft of Property Lost, Mislaid or Delivered by Mistake.&lt;br/&gt;7611, Unlawful Use of Computer&lt;br/&gt;7512, Criminal Use of Communication&lt;br/&gt;"/><marker lat="40.428585203983602" lng="-79.981869007680203" zone="Zone 3" incidentdate="2016-09-26" incidenttime="04:44:00" incidentnumber="16171595" address="1700 block E Carson St" type="ARREST" age="20" gender="F" description="*********************************************** &lt;br/&gt;3304, Criminal Mischief.&lt;br/&gt;5503, Disorderly Conduct.&lt;br/&gt;"/><marker lat="40.466887128304442" lng="-80.025013063862957" zone="Zone 1" incidentdate="2016-09-26" incidenttime="01:03:00" incidentnumber="16181842" address="Brighton Rd &amp; Marshall Ave" type="ARREST" age="15" gender="M" description="*********************************************** &lt;br/&gt;2701, Simple Assault.&lt;br/&gt;"/><marker lat="40.467691200350032" lng="-79.9799808922766" zone="Zone 1" incidentdate="2016-09-26" incidenttime="20:55:00" incidentnumber="16182396" address="2000 block Lowrie St" type="ARREST" age="18" gender="M" description="*********************************************** &lt;br/&gt;607.03, Discharging Firearm or Airgun&lt;br/&gt;6106, Firearms not to be Carried without a License.&lt;br/&gt;"/><marker lat="40.464174607992611" lng="-79.900881518378554" zone="Zone 5" incidentdate="2016-09-26" incidenttime="01:59:00" incidentnumber="16181877" address="Deary St &amp; Lincoln Ave" type="ARREST" age="21" gender="M" description="*********************************************** &lt;br/&gt;13(a)(31), Marijuana: Possession Small Amount&lt;br/&gt;1501, Drivers Required to be Licensed.&lt;br/&gt;3925, Receiving Stolen Property.&lt;br/&gt;"/><marker lat="40.450892721440539" lng="-80.000843891836467" zone="Zone 1" incidentdate="2016-09-26" incidenttime="14:00:00" incidentnumber="16182145" address="300 block Cedar Ave" type="ARREST" age="48" gender="F" description="*********************************************** &lt;br/&gt;3929(a)(1), Retail Theft; takes possession of, carries away, or transfers displayed merchandise&lt;br/&gt;"/><marker lat="40.439646251257145" lng="-79.995893890528734" zone="Zone 2" incidentdate="2016-09-26" incidenttime="17:00:00" incidentnumber="16043471" address="500 block Grant St" type="ARREST" age="33" gender="F" description="*********************************************** &lt;br/&gt;3922, Theft by Deception.&lt;br/&gt;4101, Forgery.&lt;br/&gt;4105(a)(1), Bad Checks&lt;br/&gt;"/><marker lat="40.4629498" lng="-79.8923735" zone="Zone 5" incidentdate="2016-09-26" incidenttime="01:59:00" incidentnumber="15006495" address="7100 block Everton St" type="ARREST" age="23" gender="M" description="*********************************************** &lt;br/&gt;4304(a)(1), Endangering Welfare of Children - Course of Conduct Enhanced&lt;br/&gt;"/><marker lat="40.442587385073011" lng="-80.039038010993011" zone="Zone 6" incidentdate="2016-09-26" incidenttime="02:25:00" incidentnumber="16181881" address="800 block Chartiers Ave" type="ARREST" age="52" gender="F" description="*********************************************** &lt;br/&gt;2701, Simple Assault.&lt;br/&gt;"/><marker lat="40.426629192405649" lng="-79.950020484556703" zone="Zone 4" incidentdate="2016-09-26" incidenttime="15:00:00" incidentnumber="16135635" address="3800 block Acorn St" type="ARREST" age="53" gender="F" description="*********************************************** &lt;br/&gt;2705, Recklessly Endangering Another Person.&lt;br/&gt;4304(a)(1), Endangering Welfare of Children - Course of Conduct Enhanced&lt;br/&gt;3503.B1I, DEF. TRESPASS ACTUAL COMMUNICATION&lt;br/&gt;2701(a)(3), Simple Assault - Attempts by Physical Menace&lt;br/&gt;907, Possessing Instruments of Crime.&lt;br/&gt;"/><marker lat="40.439517594123451" lng="-79.95594514096048" zone="Zone 4" incidentdate="2016-09-26" incidenttime="16:00:00" incidentnumber="16176412" address="300 block Atwood St" type="ARREST" age="19" gender="M" description="*********************************************** &lt;br/&gt;6308(a), Underage Purchase, Consume, Possessed or Transport Liquor&lt;br/&gt;6310.1, Selling Liquor to Minors&lt;br/&gt;601.19, Social Host and Underage Drinking&lt;br/&gt;493(1), Furnishing Liquor/Malt to Intox.Persons/Minors.Etc.&lt;br/&gt;"/><marker lat="40.470024041907024" lng="-79.922019925487149" zone="Zone 5" incidentdate="2016-09-26" incidenttime="18:15:00" incidentnumber="16182316" address="Stanton Ave &amp; N Beatty St" type="ARREST" age="26" gender="F" description="*********************************************** &lt;br/&gt;3802(a)(1), DUI - General Impairment&lt;br/&gt;"/><marker lat="40.460770540941056" lng="-79.915653002039789" zone="Zone 5" incidentdate="2016-09-26" incidenttime="23:02:00" incidentnumber="16182448" address="6400 block Frankstown Ave" type="ARREST" age="50" gender="M" description="*********************************************** &lt;br/&gt;5505, Public Drunkenness&lt;br/&gt;4914, False Identification to Law Enforcement Authorities&lt;br/&gt;3929, Retail Theft.&lt;br/&gt;"/><marker lat="40.421773212267283" lng="-79.994851626969449" zone="Zone 3" incidentdate="2016-09-26" incidenttime="23:15:00" incidentnumber="16182445" address="100 block Walter St" type="ARREST" age="32" gender="M" description="*********************************************** &lt;br/&gt;13(a)(16), Possession of Controlled Substance&lt;br/&gt;13(a)(32), Paraphernalia - Use or Possession&lt;br/&gt;9501, Bench Warrant&lt;br/&gt;3503, Criminal Trespass&lt;br/&gt;"/><marker lat="40.464174607992611" lng="-79.900881518378554" zone="Zone 5" incidentdate="2016-09-26" incidenttime="01:59:00" incidentnumber="16181877" address="Deary St &amp; Lincoln Ave" type="ARREST" age="23" gender="M" description="*********************************************** &lt;br/&gt;13(a)(31), Marijuana: Possession Small Amount&lt;br/&gt;1501, Drivers Required to be Licensed.&lt;br/&gt;3925, Receiving Stolen Property.&lt;br/&gt;"/><marker lat="40.434696587775576" lng="-79.996300985228572" zone="Zone 2" incidentdate="2016-09-26" incidenttime="20:15:00" incidentnumber="16179536" address="600 block 1st Ave" type="ARREST" age="22" gender="M" description="*********************************************** &lt;br/&gt;3304, Criminal Mischief.&lt;br/&gt;2701, Simple Assault.&lt;br/&gt;"/><marker lat="40.439646251257145" lng="-79.995893890528734" zone="Zone 2" incidentdate="2016-09-26" incidenttime="18:00:00" incidentnumber="16043471" address="500 block Grant St" type="ARREST" age="35" gender="M" description="*********************************************** &lt;br/&gt;3922, Theft by Deception.&lt;br/&gt;4101, Forgery.&lt;br/&gt;4105(a)(1), Bad Checks&lt;br/&gt;"/><marker lat="40.457708930211595" lng="-79.935327377456005" zone="Zone 5" incidentdate="2016-09-26" incidenttime="11:59:00" incidentnumber="15182606" address="5600 block Baum Blvd" type="ARREST" age="30" gender="M" description="*********************************************** &lt;br/&gt;3929, Retail Theft.&lt;br/&gt;"/><marker lat="40.405564913954258" lng="-80.015276974021162" zone="Zone 6" incidentdate="2016-09-26" incidenttime="18:44:00" incidentnumber="16131468" address="1800 block Pioneer Ave" type="ARREST" age="21" gender="F" description="*********************************************** &lt;br/&gt;13(a)(32), Paraphernalia - Use or Possession&lt;br/&gt;4304(a)(1), Endangering Welfare of Children - Course of Conduct Enhanced&lt;br/&gt;3802(a)(1), DUI - General Impairment&lt;br/&gt;3802(d)(2), DUI - Drug - Impaired Ability&lt;br/&gt;"/><marker lat="40.41136888220619" lng="-79.990299456571108" zone="Zone 3" incidentdate="2016-09-26" incidenttime="11:00:00" incidentnumber="16175498" address="200 block Knox Ave" type="ARREST" age="57" gender="M" description="*********************************************** &lt;br/&gt;2702, Aggravated Assault.&lt;br/&gt;2701, Simple Assault.&lt;br/&gt;"/><marker lat="40.428567965192009" lng="-79.987317884623508" zone="Zone 3" incidentdate="2016-09-26" incidenttime="02:01:00" incidentnumber="16181869" address="1100 block E Carson St" type="ARREST" age="27" gender="F" description="*********************************************** &lt;br/&gt;13(a)(31), Marijuana: Possession Small Amount&lt;br/&gt;"/><marker lat="40.46677285651247" lng="-79.925276693759685" zone="Zone 5" incidentdate="2016-09-26" incidenttime="22:40:00" incidentnumber="16182442" address="East Liberty Blvd &amp; N Euclid Ave" type="ARREST" age="37" gender="M" description="*********************************************** &lt;br/&gt;13(a)(32), Paraphernalia - Use or Possession&lt;br/&gt;3334, Turning Movements and Required Signals.&lt;br/&gt;3702, Robbery of Motor Vehicle.&lt;br/&gt;"/><marker lat="40.4393734" lng="-79.9684101" zone="Zone 2" incidentdate="2016-09-26" incidenttime="00:51:00" incidentnumber="16181845" address="200 block Oak Hill Dr" type="ARREST" age="22" gender="M" description="*********************************************** &lt;br/&gt;2701(a)(1), Simple Assault - Intent., Know., Reckless.Cause Bod. Injury&lt;br/&gt;"/><marker lat="40.434696587775576" lng="-79.996300985228572" zone="Zone 2" incidentdate="2016-09-26" incidenttime="10:30:00" incidentnumber="16152552" address="600 block 1ST Ave" type="ARREST" age="28" gender="M" description="*********************************************** &lt;br/&gt;3921(a), Theft by Unlawful Taking or Disposition - Movable item&lt;br/&gt;2701, Simple Assault.&lt;br/&gt;2709(a)(1), Harassment by Physical Contact, or Attempts or Threats&lt;br/&gt;"/><marker lat="40.434696587775576" lng="-79.996300985228572" zone="Zone 2" incidentdate="2016-09-26" incidenttime="10:20:00" incidentnumber="16176859" address="600 block 1ST Ave" type="ARREST" age="26" gender="M" description="*********************************************** &lt;br/&gt;2701, Simple Assault.&lt;br/&gt;2902, Unlawful Restraint.&lt;br/&gt;"/><marker lat="40.435095503606554" lng="-79.993077686753679" zone="Zone 2" incidentdate="2016-09-26" incidenttime="22:30:00" incidentnumber="16155429" address="900 block 2nd Ave" type="ARREST" age="25" gender="F" description="*********************************************** &lt;br/&gt;3925, Receiving Stolen Property.&lt;br/&gt;903, Criminal Conspiracy.&lt;br/&gt;3924, Theft of Property Lost, Mislaid or Delivered by Mistake.&lt;br/&gt;7611, Unlawful Use of Computer&lt;br/&gt;7512, Criminal Use of Communication&lt;br/&gt;"/></markers>
