<?xml version="1.0"?>
<markers><marker lat="40.400239062824255" lng="-79.966189329634872" zone="Zone 4" incidentdate="2016-06-06" incidenttime="18:31:00" incidentnumber="16104826" address="900 block Agnew Rd" type="OFFENSE" age="" gender="" description="*********************************************** &lt;br/&gt;029, Missing Juvenile&lt;br/&gt;"/><marker lat="40.395888427897539" lng="-79.988508172033775" zone="Zone 3" incidentdate="2016-06-06" incidenttime="07:10:00" incidentnumber="16104400" address="100 block Copperfield Ave" type="OFFENSE" age="" gender="" description="*********************************************** &lt;br/&gt;4106, Access Device Fraud&lt;br/&gt;"/><marker lat="40.400239062824255" lng="-79.966189329634872" zone="Zone 4" incidentdate="2016-06-06" incidenttime="18:31:00" incidentnumber="16104775" address="900 block Agnew Rd" type="OFFENSE" age="" gender="" description="*********************************************** &lt;br/&gt;029, Missing Juvenile&lt;br/&gt;"/><marker lat="40.427034475719758" lng="-79.974703231321115" zone="Zone 3" incidentdate="2016-06-06" incidenttime="17:50:00" incidentnumber="16104736" address="S 22nd St" type="OFFENSE" age="" gender="" description="*********************************************** &lt;br/&gt;3921(a), Theft by Unlawful Taking or Disposition - Movable item&lt;br/&gt;"/><marker lat="40.408659929185475" lng="-80.023692646482203" zone="Zone 6" incidentdate="2016-06-06" incidenttime="09:48:00" incidentnumber="16104465" address="1700 block Fallowfield Ave" type="OFFENSE" age="" gender="" description="*********************************************** &lt;br/&gt;9496, Dead on Arrival (DOA)&lt;br/&gt;"/><marker lat="40.459953890553351" lng="-79.925043274541594" zone="Zone 5" incidentdate="2016-06-06" incidenttime="01:05:00" incidentnumber="16104259" address="S Highland Ave &amp; Centre Ave" type="OFFENSE" age="" gender="" description="*********************************************** &lt;br/&gt;13(a)(31), Marijuana: Possession Small Amount&lt;br/&gt;4303, General Lighting Requirements.&lt;br/&gt;"/><marker lat="40.441688508499325" lng="-80.002700301164367" zone="Zone 2" incidentdate="2016-06-06" incidenttime="08:30:00" incidentnumber="16104478" address="Liberty Ave &amp; 5th Ave" type="OFFENSE" age="" gender="" description="*********************************************** &lt;br/&gt;3701, Robbery.&lt;br/&gt;"/><marker lat="40.466877756870879" lng="-79.994177935104844" zone="Zone 1" incidentdate="2016-06-06" incidenttime="10:30:00" incidentnumber="16104479" address="100 block Rhine Pl" type="OFFENSE" age="" gender="" description="*********************************************** &lt;br/&gt;3921, Theft by Unlawful Taking or Disposition.&lt;br/&gt;"/><marker lat="40.4276365" lng="-79.9664315" zone="Zone 3" incidentdate="2016-06-06" incidenttime="16:23:00" incidentnumber="16104672" address="500 block S 27th St" type="OFFENSE" age="" gender="" description="*********************************************** &lt;br/&gt;3929, Retail Theft.&lt;br/&gt;"/><marker lat="40.389866425132162" lng="-80.016651747568758" zone="Zone 6" incidentdate="2016-06-06" incidenttime="16:45:00" incidentnumber="16104698" address="1100 block Berkshire Ave" type="OFFENSE" age="" gender="" description="*********************************************** &lt;br/&gt;3921, Theft by Unlawful Taking or Disposition.&lt;br/&gt;"/><marker lat="40.461745236574217" lng="-79.899628150552573" zone="Zone 5" incidentdate="2016-06-06" incidenttime="09:00:00" incidentnumber="16104440" address="7000 block Kedron St" type="OFFENSE" age="" gender="" description="*********************************************** &lt;br/&gt;9123, Miscellaneous Fire Other Investigation to Continue&lt;br/&gt;"/><marker lat="40.400239062824255" lng="-79.966189329634872" zone="Zone 4" incidentdate="2016-06-06" incidenttime="18:31:00" incidentnumber="16104824" address="900 block Agnew Rd" type="OFFENSE" age="" gender="" description="*********************************************** &lt;br/&gt;029, Missing Juvenile&lt;br/&gt;"/><marker lat="40.4845255" lng="-79.9081988" zone="Zone 5" incidentdate="2016-06-06" incidenttime="19:15:00" incidentnumber="16104754" address="100 block Washington Blvd &amp; Allegheny River Blvd" type="OFFENSE" age="" gender="" description="*********************************************** &lt;br/&gt;13(a)(16), Possession of Controlled Substance&lt;br/&gt;13(a)(32), Paraphernalia - Use or Possession&lt;br/&gt;"/><marker lat="40.438721756509537" lng="-79.999466085108594" zone="Zone 2" incidentdate="2016-06-06" incidenttime="16:35:00" incidentnumber="16104668" address="400 block Smithfield St" type="OFFENSE" age="" gender="" description="*********************************************** &lt;br/&gt;13(a)(16), Possession of Controlled Substance&lt;br/&gt;3929(a)(1), Retail Theft; takes possession of, carries away, or transfers displayed merchandise&lt;br/&gt;"/><marker lat="40.459241184494772" lng="-80.005548013998464" zone="Zone 1" incidentdate="2016-06-06" incidenttime="15:37:00" incidentnumber="16104628" address="1600 block Sandusky Ct" type="OFFENSE" age="" gender="" description="*********************************************** &lt;br/&gt;3503.B1I, DEF. TRESPASS ACTUAL COMMUNICATION&lt;br/&gt;"/><marker lat="40.405131978183654" lng="-80.030216987433448" zone="Zone 6" incidentdate="2016-06-06" incidenttime="07:00:00" incidentnumber="16104425" address="2100 block Broadway Ave" type="OFFENSE" age="" gender="" description="*********************************************** &lt;br/&gt;3304, Criminal Mischief.&lt;br/&gt;"/><marker lat="40.392365478702068" lng="-80.007850102574906" zone="Zone 6" incidentdate="2016-06-06" incidenttime="10:15:00" incidentnumber="16104516" address="1400 block Brookline Blvd" type="OFFENSE" age="" gender="" description="*********************************************** &lt;br/&gt;3921, Theft by Unlawful Taking or Disposition.&lt;br/&gt;"/><marker lat="40.471460910127306" lng="-79.959794982785183" zone="Zone 2" incidentdate="2016-06-06" incidenttime="18:00:00" incidentnumber="16104763" address="Butler St &amp; 44th St" type="OFFENSE" age="" gender="" description="*********************************************** &lt;br/&gt;3745, Accidents Involving Damage to Unattended Veh.or Prop.&lt;br/&gt;"/><marker lat="40.402179104509891" lng="-80.011905193857018" zone="Zone 6" incidentdate="2016-06-06" incidenttime="05:30:00" incidentnumber="16104488" address="700 block Dunster St" type="OFFENSE" age="" gender="" description="*********************************************** &lt;br/&gt;3934, Theft from Vehicle&lt;br/&gt;"/><marker lat="40.414983296810647" lng="-79.993074408092554" zone="Zone 3" incidentdate="2016-06-06" incidenttime="00:15:00" incidentnumber="16104242" address="300 block Rochelle St" type="OFFENSE" age="" gender="" description="*********************************************** &lt;br/&gt;9999, 9999 - (Misc. Incident):&lt;br/&gt;"/><marker lat="40.469746265016639" lng="-79.960944855115926" zone="Zone 2" incidentdate="2016-06-06" incidenttime="01:50:00" incidentnumber="16104284" address="200 block Main St" type="OFFENSE" age="" gender="" description="*********************************************** &lt;br/&gt;3502, Burglary.&lt;br/&gt;"/><marker lat="40.442832245971218" lng="-80.00726586853169" zone="Zone 2" incidentdate="2016-06-06" incidenttime="16:08:00" incidentnumber="16104639" address="600 block Fort Duquesne Blvd" type="OFFENSE" age="" gender="" description="*********************************************** &lt;br/&gt;3503, Criminal Trespass&lt;br/&gt;"/><marker lat="40.437261487984259" lng="-79.975953918643825" zone="Zone 2" incidentdate="2016-06-06" incidenttime="09:13:00" incidentnumber="16068492" address="Seneca St &amp; Forbes Ave" type="OFFENSE" age="" gender="" description="*********************************************** &lt;br/&gt;3701, Robbery.&lt;br/&gt;"/><marker lat="40.440332076098812" lng="-79.99811615543635" zone="Zone 2" incidentdate="2016-06-06" incidenttime="10:04:00" incidentnumber="16104482" address="500 block Smithfield St" type="OFFENSE" age="" gender="" description="*********************************************** &lt;br/&gt;3934, Theft from Vehicle&lt;br/&gt;"/><marker lat="40.400295745470693" lng="-80.018008243959343" zone="Zone 6" incidentdate="2016-06-06" incidenttime="06:00:00" incidentnumber="16104373" address="300 block La Marido St" type="OFFENSE" age="" gender="" description="*********************************************** &lt;br/&gt;3934, Theft from Vehicle&lt;br/&gt;"/><marker lat="40.408935190915379" lng="-80.00772028733715" zone="Zone 6" incidentdate="2016-06-06" incidenttime="22:10:00" incidentnumber="16104888" address="400 block Linial Ave" type="OFFENSE" age="" gender="" description="*********************************************** &lt;br/&gt;9496, Dead on Arrival (DOA)&lt;br/&gt;"/><marker lat="40.43819611073102" lng="-79.986495470805934" zone="Zone 2" incidentdate="2016-06-06" incidenttime="01:00:00" incidentnumber="16104230" address="Stevenson St &amp; Watson St" type="OFFENSE" age="" gender="" description="*********************************************** &lt;br/&gt;3928, Unauthorized Use of Automobile and Other Vehicles.&lt;br/&gt;"/><marker lat="40.391177102725187" lng="-79.986909728912025" zone="Zone 3" incidentdate="2016-06-06" incidenttime="01:55:00" incidentnumber="16104287" address="2200 block Brownsville Rd" type="OFFENSE" age="" gender="" description="*********************************************** &lt;br/&gt;2709(a)(1), Harassment by Physical Contact, or Attempts or Threats&lt;br/&gt;"/><marker lat="40.400239062824255" lng="-79.966189329634872" zone="Zone 4" incidentdate="2016-06-06" incidenttime="18:31:00" incidentnumber="16104825" address="900 block Agnew Rd" type="OFFENSE" age="" gender="" description="*********************************************** &lt;br/&gt;029, Missing Juvenile&lt;br/&gt;"/><marker lat="40.45639294627604" lng="-79.891902082738156" zone="Zone 5" incidentdate="2016-06-06" incidenttime="04:30:00" incidentnumber="16104369" address="Frankstown Ave &amp; Collier St" type="OFFENSE" age="" gender="" description="*********************************************** &lt;br/&gt;9501, Bench Warrant&lt;br/&gt;4914, False Identification to Law Enforcement Authorities&lt;br/&gt;"/><marker lat="40.45341024139109" lng="-80.060726552584526" zone="Zone 6" incidentdate="2016-06-06" incidenttime="04:30:00" incidentnumber="16104399" address="1100 block Emporia St" type="OFFENSE" age="" gender="" description="*********************************************** &lt;br/&gt;3934, Theft from Vehicle&lt;br/&gt;"/><marker lat="40.466730879688534" lng="-79.944836148798586" zone="Zone 5" incidentdate="2016-06-06" incidenttime="14:30:00" incidentnumber="16104580" address="4900 block Broad St" type="OFFENSE" age="" gender="" description="*********************************************** &lt;br/&gt;2701, Simple Assault.&lt;br/&gt;"/><marker lat="40.453906508972835" lng="-80.056384976774609" zone="Zone 6" incidentdate="2016-06-06" incidenttime="12:30:00" incidentnumber="16104541" address="2900 block Chartiers Ave" type="OFFENSE" age="" gender="" description="*********************************************** &lt;br/&gt;9090, Recovered Firearm&lt;br/&gt;"/><marker lat="40.4154187" lng="-79.9448446" zone="Zone OSC" incidentdate="2016-06-06" incidenttime="15:52:00" incidentnumber="16104641" address="3200 block Grover St" type="OFFENSE" age="" gender="" description="*********************************************** &lt;br/&gt;029, Missing Juvenile&lt;br/&gt;"/><marker lat="40.399568008438834" lng="-79.985619672650458" zone="Zone 3" incidentdate="2016-06-06" incidenttime="15:40:00" incidentnumber="16104663" address="200 block Alries St" type="OFFENSE" age="" gender="" description="*********************************************** &lt;br/&gt;3934, Theft from Vehicle&lt;br/&gt;"/><marker lat="40.437818600399822" lng="-79.963832573222589" zone="Zone 4" incidentdate="2016-06-06" incidenttime="12:09:00" incidentnumber="16104498" address="3300 block 5th Ave" type="OFFENSE" age="" gender="" description="*********************************************** &lt;br/&gt;9489, Found Property&lt;br/&gt;8104, CLASS 1 - Suspicious Package or Device&lt;br/&gt;"/><marker lat="40.458521090086435" lng="-80.015890258192599" zone="Zone 1" incidentdate="2016-06-06" incidenttime="16:05:00" incidentnumber="16104653" address="1700 block Brighton Pl" type="OFFENSE" age="" gender="" description="*********************************************** &lt;br/&gt;607.03, Discharging Firearm or Airgun&lt;br/&gt;"/><marker lat="40.483246555096763" lng="-80.035194746264679" zone="Zone 1" incidentdate="2016-06-06" incidenttime="17:25:00" incidentnumber="16104710" address="3700 block Brighton Rd" type="OFFENSE" age="" gender="" description="*********************************************** &lt;br/&gt;9999, 9999 - (Misc. Incident):&lt;br/&gt;"/><marker lat="40.438808783984314" lng="-80.001618548213528" zone="Zone 2" incidentdate="2016-06-06" incidenttime="19:30:00" incidentnumber="16104790" address="300 block 3rd Ave" type="OFFENSE" age="" gender="" description="*********************************************** &lt;br/&gt;2709(a)(1), Harassment by Physical Contact, or Attempts or Threats&lt;br/&gt;"/><marker lat="40.408420891685942" lng="-79.940042600657335" zone="Zone 4" incidentdate="2016-06-06" incidenttime="18:42:00" incidentnumber="16104740" address="Glenwood Ave &amp; Tipton St" type="OFFENSE" age="" gender="" description="*********************************************** &lt;br/&gt;2702, Aggravated Assault.&lt;br/&gt;3736, Reckless Driving&lt;br/&gt;3925, Receiving Stolen Property.&lt;br/&gt;5121, Escape.&lt;br/&gt;"/><marker lat="40.450892721440539" lng="-80.000843891836467" zone="Zone 1" incidentdate="2016-06-06" incidenttime="17:00:00" incidentnumber="16104675" address="300 block Cedar Ave" type="OFFENSE" age="" gender="" description="*********************************************** &lt;br/&gt;9489, Found Property&lt;br/&gt;"/><marker lat="40.430417751390969" lng="-79.978919924772214" zone="Zone 3" incidentdate="2016-06-06" incidenttime="12:37:00" incidentnumber="16104551" address="1900 block Wharton St" type="OFFENSE" age="" gender="" description="*********************************************** &lt;br/&gt;3929, Retail Theft.&lt;br/&gt;"/><marker lat="40.472022052387963" lng="-80.028728365855599" zone="Zone 1" incidentdate="2016-06-06" incidenttime="20:47:00" incidentnumber="16104793" address="3000 block Vensel Way" type="OFFENSE" age="" gender="" description="*********************************************** &lt;br/&gt;2701, Simple Assault.&lt;br/&gt;3701, Robbery.&lt;br/&gt;"/><marker lat="40.444238976750306" lng="-80.038209914352848" zone="Zone 6" incidentdate="2016-06-06" incidenttime="10:00:00" incidentnumber="16104470" address="900 block Gibson St" type="OFFENSE" age="" gender="" description="*********************************************** &lt;br/&gt;3921(a), Theft by Unlawful Taking or Disposition - Movable item&lt;br/&gt;"/><marker lat="40.41980566691268" lng="-79.929179248138482" zone="Zone 4" incidentdate="2016-06-06" incidenttime="02:51:00" incidentnumber="16104311" address="800 block Hazelwood Ave" type="OFFENSE" age="" gender="" description="*********************************************** &lt;br/&gt;13(a)(16), Possession of Controlled Substance&lt;br/&gt;13(a)(31), Marijuana: Possession Small Amount&lt;br/&gt;9501, Bench Warrant&lt;br/&gt;"/><marker lat="40.482879021356389" lng="-80.04453300763744" zone="Zone 1" incidentdate="2016-06-06" incidenttime="09:15:00" incidentnumber="16104449" address="2000 block Termon Ave" type="OFFENSE" age="" gender="" description="*********************************************** &lt;br/&gt;029, Missing Juvenile&lt;br/&gt;"/><marker lat="40.455856062381834" lng="-80.005663354369645" zone="Zone 1" incidentdate="2016-06-06" incidenttime="06:15:00" incidentnumber="16104380" address="100 block E North Ave" type="OFFENSE" age="" gender="" description="*********************************************** &lt;br/&gt;3502, Burglary.&lt;br/&gt;"/><marker lat="40.402198033708359" lng="-80.009353476327007" zone="Zone 6" incidentdate="2016-06-06" incidenttime="07:50:00" incidentnumber="16104419" address="800 block Dunster St" type="OFFENSE" age="" gender="" description="*********************************************** &lt;br/&gt;901, Criminal Attempt&lt;br/&gt;"/><marker lat="40.418065716007725" lng="-79.990692750844445" zone="Zone 3" incidentdate="2016-06-06" incidenttime="08:30:00" incidentnumber="16104434" address="Orchard Pl &amp; Knox Ave" type="OFFENSE" age="" gender="" description="*********************************************** &lt;br/&gt;2709(a)(1), Harassment by Physical Contact, or Attempts or Threats&lt;br/&gt;"/><marker lat="40.426471744632799" lng="-79.932724988307143" zone="Zone 4" incidentdate="2016-06-06" incidenttime="16:00:00" incidentnumber="16104665" address="900 block Welfer St" type="OFFENSE" age="" gender="" description="*********************************************** &lt;br/&gt;4912, Impersonating a Public Servant.&lt;br/&gt;"/><marker lat="40.3813680" lng="-79.8080860" zone="Zone OSC" incidentdate="2016-06-06" incidenttime="08:00:00" incidentnumber="16104406" address="City of Duquesne" type="OFFENSE" age="" gender="" description="*********************************************** &lt;br/&gt;3921, Theft by Unlawful Taking or Disposition.&lt;br/&gt;"/><marker lat="40.420793968702014" lng="-79.991658368981334" zone="Zone 3" incidentdate="2016-06-06" incidenttime="21:00:00" incidentnumber="16104897" address="900 block Industry St" type="OFFENSE" age="" gender="" description="*********************************************** &lt;br/&gt;3921(a), Theft by Unlawful Taking or Disposition - Movable item&lt;br/&gt;4106, Access Device Fraud&lt;br/&gt;"/><marker lat="40.459241184494772" lng="-80.005548013998464" zone="Zone 1" incidentdate="2016-06-06" incidenttime="15:37:00" incidentnumber="16104635" address="1600 block Sandusky Ct" type="OFFENSE" age="" gender="" description="*********************************************** &lt;br/&gt;3503.B1I, DEF. TRESPASS ACTUAL COMMUNICATION&lt;br/&gt;"/><marker lat="40.461938390813231" lng="-79.931713532761137" zone="Zone 5" incidentdate="2016-06-06" incidenttime="10:37:00" incidentnumber="16104480" address="200 block S Negley Ave" type="OFFENSE" age="" gender="" description="*********************************************** &lt;br/&gt;627.02(b), Possession or Smoking of a Small Amount of Marijuana&lt;br/&gt;"/><marker lat="40.421511012664602" lng="-79.995485385467873" zone="Zone 3" incidentdate="2016-06-06" incidenttime="08:31:00" incidentnumber="16104428" address="700 block E Warrington Ave" type="OFFENSE" age="" gender="" description="*********************************************** &lt;br/&gt;9495, Suicide&lt;br/&gt;"/><marker lat="40.458050197145134" lng="-79.94759002469354" zone="Zone 5" incidentdate="2016-06-06" incidenttime="10:15:00" incidentnumber="16104625" address="4900 block Yew St" type="OFFENSE" age="" gender="" description="*********************************************** &lt;br/&gt;029, Missing Juvenile&lt;br/&gt;"/><marker lat="40.467778633702743" lng="-79.924379771158982" zone="Zone 5" incidentdate="2016-06-06" incidenttime="15:40:00" incidentnumber="16104650" address="600 block N Euclid Ave" type="OFFENSE" age="" gender="" description="*********************************************** &lt;br/&gt;3502, Burglary.&lt;br/&gt;"/><marker lat="40.460655838069158" lng="-79.922722965339091" zone="Zone 5" incidentdate="2016-06-06" incidenttime="17:40:00" incidentnumber="16104703" address="Penn Ave &amp; Centre Ave" type="OFFENSE" age="" gender="" description="*********************************************** &lt;br/&gt;13(a)(32), Paraphernalia - Use or Possession&lt;br/&gt;1786, Required Financial Responsibility.&lt;br/&gt;1543, Driving While Operating Privilege is Suspended or Revoked.&lt;br/&gt;1371, Operation Following Suspension of Registration.&lt;br/&gt;627.02(b), Possession or Smoking of a Small Amount of Marijuana&lt;br/&gt;"/><marker lat="40.448840773567333" lng="-79.973973354239064" zone="Zone 2" incidentdate="2016-06-06" incidenttime="10:15:00" incidentnumber="16104469" address="2400 block Webster Ave" type="OFFENSE" age="" gender="" description="*********************************************** &lt;br/&gt;5104, Resisting Arrest or Other Law Enforcement.&lt;br/&gt;1501, Drivers Required to be Licensed.&lt;br/&gt;3112, Traffic-Control Signals.&lt;br/&gt;3733, Fleeing or Attempting to Elude Police Officer&lt;br/&gt;3323, Stop Signs and Yield Signs.&lt;br/&gt;"/><marker lat="40.481967692777189" lng="-80.041799013511934" zone="Zone 1" incidentdate="2016-06-06" incidenttime="12:16:00" incidentnumber="16104521" address="1700 block Termon Ave" type="OFFENSE" age="" gender="" description="*********************************************** &lt;br/&gt;3304, Criminal Mischief.&lt;br/&gt;"/><marker lat="40.452044453831512" lng="-80.060861038504044" zone="Zone 6" incidentdate="2016-06-06" incidenttime="06:30:00" incidentnumber="16104383" address="1200 block Tyndall St" type="OFFENSE" age="" gender="" description="*********************************************** &lt;br/&gt;3934, Theft from Vehicle&lt;br/&gt;"/><marker lat="40.448630403274692" lng="-79.999358519002143" zone="Zone 1" incidentdate="2016-06-06" incidenttime="19:13:00" incidentnumber="16104783" address="100 block Anderson St" type="OFFENSE" age="" gender="" description="*********************************************** &lt;br/&gt;2709.1, Stalking Conduct or Repeatedly Acts Including Follows&lt;br/&gt;"/><marker lat="40.44399023304031" lng="-80.002630134211415" zone="Zone 2" incidentdate="2016-06-06" incidenttime="21:40:00" incidentnumber="16104864" address="100 block 6th St" type="OFFENSE" age="" gender="" description="*********************************************** &lt;br/&gt;3802(a)(1), DUI - General Impairment&lt;br/&gt;3802(c), DUI - Highest Rate of Alcohol - BAC &gt;= .16%&lt;br/&gt;3743, Accidents Involving Damage to Attended Veh. or Property&lt;br/&gt;"/><marker lat="40.38918036362611" lng="-79.982336731268532" zone="Zone 3" incidentdate="2016-06-06" incidenttime="18:00:00" incidentnumber="16104739" address="100 block Carrick Ave" type="OFFENSE" age="" gender="" description="*********************************************** &lt;br/&gt;029, Missing Juvenile&lt;br/&gt;"/><marker lat="40.461938390813231" lng="-79.931713532761137" zone="Zone 5" incidentdate="2016-06-06" incidenttime="10:37:00" incidentnumber="16104506" address="200 block S Negley Ave" type="OFFENSE" age="" gender="" description="*********************************************** &lt;br/&gt;627.02(b), Possession or Smoking of a Small Amount of Marijuana&lt;br/&gt;"/><marker lat="40.446855033978807" lng="-80.080521456308546" zone="Zone 6" incidentdate="2016-06-06" incidenttime="00:36:00" incidentnumber="16104253" address="3400 block W Prospect Ave" type="OFFENSE" age="" gender="" description="*********************************************** &lt;br/&gt;3304, Criminal Mischief.&lt;br/&gt;2702, Aggravated Assault.&lt;br/&gt;"/><marker lat="40.4668011" lng="-80.0341827" zone="Zone 1" incidentdate="2016-06-06" incidenttime="15:13:00" incidentnumber="16104614" address="2600 block Woodland Ave" type="OFFENSE" age="" gender="" description="*********************************************** &lt;br/&gt;9999, 9999 - (Misc. Incident):&lt;br/&gt;"/><marker lat="40.460655838069158" lng="-79.922722965339091" zone="Zone 5" incidentdate="2016-06-06" incidenttime="17:40:00" incidentnumber="16104703" address="Penn Ave &amp; Centre Ave" type="ARREST" age="26" gender="M" description="*********************************************** &lt;br/&gt;13(a)(32), Paraphernalia - Use or Possession&lt;br/&gt;1786, Required Financial Responsibility.&lt;br/&gt;1543, Driving While Operating Privilege is Suspended or Revoked.&lt;br/&gt;1371, Operation Following Suspension of Registration.&lt;br/&gt;627.02(b), Possession or Smoking of a Small Amount of Marijuana&lt;br/&gt;"/><marker lat="40.434696587775576" lng="-79.996300985228572" zone="Zone 2" incidentdate="2016-06-06" incidenttime="18:21:00" incidentnumber="16103966" address="600 block 1st Ave" type="ARREST" age="31" gender="M" description="*********************************************** &lt;br/&gt;4304(a)(1), Endangering Welfare of Children - Course of Conduct Enhanced&lt;br/&gt;"/><marker lat="40.438808783984314" lng="-80.001618548213528" zone="Zone 2" incidentdate="2016-06-06" incidenttime="01:00:00" incidentnumber="16093356" address="300 block 3rd Ave" type="ARREST" age="34" gender="M" description="*********************************************** &lt;br/&gt;2706, Terroristic Threats.&lt;br/&gt;2701(a)(3), Simple Assault - Attempts by Physical Menace&lt;br/&gt;"/><marker lat="40.472022052387963" lng="-80.028728365855599" zone="Zone 1" incidentdate="2016-06-06" incidenttime="20:47:00" incidentnumber="16104793" address="3000 block Vensel Way" type="ARREST" age="25" gender="F" description="*********************************************** &lt;br/&gt;2701, Simple Assault.&lt;br/&gt;3701, Robbery.&lt;br/&gt;"/><marker lat="40.438721756509537" lng="-79.999466085108594" zone="Zone 2" incidentdate="2016-06-06" incidenttime="16:45:00" incidentnumber="16104668" address="400 block Smithfield St" type="ARREST" age="33" gender="F" description="*********************************************** &lt;br/&gt;13(a)(16), Possession of Controlled Substance&lt;br/&gt;3929(a)(1), Retail Theft; takes possession of, carries away, or transfers displayed merchandise&lt;br/&gt;"/><marker lat="40.405163297103016" lng="-79.944521017205943" zone="Zone 4" incidentdate="2016-06-06" incidenttime="12:50:00" incidentnumber="16094223" address="500 block Courtland St" type="ARREST" age="14" gender="M" description="*********************************************** &lt;br/&gt;3934, Theft from Vehicle&lt;br/&gt;3925, Receiving Stolen Property.&lt;br/&gt;3503(a), Criminal Trespass&lt;br/&gt;"/><marker lat="40.41980566691268" lng="-79.929179248138482" zone="Zone 4" incidentdate="2016-06-06" incidenttime="02:55:00" incidentnumber="16104311" address="800 block Hazelwood Ave" type="ARREST" age="35" gender="M" description="*********************************************** &lt;br/&gt;13(a)(16), Possession of Controlled Substance&lt;br/&gt;13(a)(31), Marijuana: Possession Small Amount&lt;br/&gt;9501, Bench Warrant&lt;br/&gt;"/><marker lat="40.459241184494772" lng="-80.005548013998464" zone="Zone 1" incidentdate="2016-06-06" incidenttime="15:37:00" incidentnumber="16104635" address="1600 block Sandusky Ct" type="ARREST" age="21" gender="M" description="*********************************************** &lt;br/&gt;3503.B1I, DEF. TRESPASS ACTUAL COMMUNICATION&lt;br/&gt;"/><marker lat="40.437261487984259" lng="-79.975953918643825" zone="Zone 2" incidentdate="2016-06-06" incidenttime="09:25:00" incidentnumber="16068492" address="Seneca St &amp; Forbes Ave" type="ARREST" age="25" gender="M" description="*********************************************** &lt;br/&gt;3701, Robbery.&lt;br/&gt;"/><marker lat="40.41980566691268" lng="-79.929179248138482" zone="Zone 4" incidentdate="2016-06-06" incidenttime="02:55:00" incidentnumber="16104311" address="800 block Hazelwood Ave" type="ARREST" age="32" gender="M" description="*********************************************** &lt;br/&gt;13(a)(16), Possession of Controlled Substance&lt;br/&gt;13(a)(31), Marijuana: Possession Small Amount&lt;br/&gt;9501, Bench Warrant&lt;br/&gt;"/><marker lat="40.434696587775576" lng="-79.996300985228572" zone="Zone 2" incidentdate="2016-06-06" incidenttime="16:50:00" incidentnumber="16102528" address="600 block 1st Ave" type="ARREST" age="70" gender="M" description="*********************************************** &lt;br/&gt;3921(a), Theft by Unlawful Taking or Disposition - Movable item&lt;br/&gt;903, Criminal Conspiracy.&lt;br/&gt;"/><marker lat="40.459241184494772" lng="-80.005548013998464" zone="Zone 1" incidentdate="2016-06-06" incidenttime="08:57:00" incidentnumber="16038723" address="1600 block Sandusky Ct" type="ARREST" age="52" gender="M" description="*********************************************** &lt;br/&gt;3503(b)(1)(i), Actual Communication&lt;br/&gt;"/><marker lat="40.438021475291286" lng="-79.923054287889642" zone="Zone 4" incidentdate="2016-06-06" incidenttime="09:30:00" incidentnumber="16081685" address="1700 block Murray Ave" type="ARREST" age="35" gender="F" description="*********************************************** &lt;br/&gt;3921, Theft by Unlawful Taking or Disposition.&lt;br/&gt;903, Criminal Conspiracy.&lt;br/&gt;4106, Access Device Fraud&lt;br/&gt;"/><marker lat="40.45639294627604" lng="-79.891902082738156" zone="Zone 5" incidentdate="2016-06-06" incidenttime="04:45:00" incidentnumber="16104369" address="Frankstown Ave &amp; Collier St" type="ARREST" age="30" gender="F" description="*********************************************** &lt;br/&gt;9501, Bench Warrant&lt;br/&gt;4914, False Identification to Law Enforcement Authorities&lt;br/&gt;"/><marker lat="40.459953890553351" lng="-79.925043274541594" zone="Zone 5" incidentdate="2016-06-06" incidenttime="01:05:00" incidentnumber="16104259" address="S Highland Ave &amp; Centre Ave" type="ARREST" age="18" gender="M" description="*********************************************** &lt;br/&gt;13(a)(31), Marijuana: Possession Small Amount&lt;br/&gt;4303, General Lighting Requirements.&lt;br/&gt;"/><marker lat="40.417669314235489" lng="-79.963417835194747" zone="Zone 3" incidentdate="2016-06-06" incidenttime="11:45:00" incidentnumber="15231350" address="3100 block Cordell Pl" type="ARREST" age="28" gender="M" description="*********************************************** &lt;br/&gt;2701, Simple Assault.&lt;br/&gt;9093, Indirect Criminal Contempt&lt;br/&gt;"/><marker lat="40.4845255" lng="-79.9081988" zone="Zone 5" incidentdate="2016-06-06" incidenttime="19:15:00" incidentnumber="16104754" address="100 block Washington Blvd &amp; Allegheny River Blvd" type="ARREST" age="23" gender="M" description="*********************************************** &lt;br/&gt;13(a)(16), Possession of Controlled Substance&lt;br/&gt;13(a)(32), Paraphernalia - Use or Possession&lt;br/&gt;"/><marker lat="40.45493173032483" lng="-80.010796490212854" zone="Zone 1" incidentdate="2016-06-06" incidenttime="07:49:00" incidentnumber="16090749" address="400 block E North Ave" type="ARREST" age="46" gender="M" description="*********************************************** &lt;br/&gt;2701, Simple Assault.&lt;br/&gt;3701, Robbery.&lt;br/&gt;"/><marker lat="40.459241184494772" lng="-80.005548013998464" zone="Zone 1" incidentdate="2016-06-06" incidenttime="08:57:00" incidentnumber="16016309" address="1600 block Sandusky Ct" type="ARREST" age="52" gender="M" description="*********************************************** &lt;br/&gt;13(a)(32), Paraphernalia - Use or Possession&lt;br/&gt;3503(b)(1)(i), Actual Communication&lt;br/&gt;3503(b)(1)(ii), Defiant Trespass Notice Posted by Sign(s)&lt;br/&gt;"/><marker lat="40.474259937428243" lng="-80.010532705998429" zone="Zone 1" incidentdate="2016-06-06" incidenttime="19:31:00" incidentnumber="16099557" address="200 block Kennedy Ave" type="ARREST" age="35" gender="F" description="*********************************************** &lt;br/&gt;3502, Burglary.&lt;br/&gt;"/><marker lat="40.44399023304031" lng="-80.002630134211415" zone="Zone 2" incidentdate="2016-06-06" incidenttime="21:40:00" incidentnumber="16104864" address="100 block 6th St" type="ARREST" age="56" gender="F" description="*********************************************** &lt;br/&gt;3802(a)(1), DUI - General Impairment&lt;br/&gt;3802(c), DUI - Highest Rate of Alcohol - BAC &gt;= .16%&lt;br/&gt;3743, Accidents Involving Damage to Attended Veh. or Property&lt;br/&gt;"/><marker lat="40.466730879688534" lng="-79.944836148798586" zone="Zone 5" incidentdate="2016-06-06" incidenttime="14:30:00" incidentnumber="16104580" address="4900 block Broad St" type="ARREST" age="56" gender="M" description="*********************************************** &lt;br/&gt;2701, Simple Assault.&lt;br/&gt;"/><marker lat="40.410356742633624" lng="-79.990376092457225" zone="Zone 3" incidentdate="2016-06-06" incidenttime="09:15:00" incidentnumber="15111663" address="200 block Suncrest St" type="ARREST" age="20" gender="M" description="*********************************************** &lt;br/&gt;9488, False  Burglar Alarm&lt;br/&gt;2701, Simple Assault.&lt;br/&gt;"/><marker lat="40.434696587775576" lng="-79.996300985228572" zone="Zone 2" incidentdate="2016-06-06" incidenttime="08:30:00" incidentnumber="16087429" address="600 block 1st Ave" type="ARREST" age="24" gender="F" description="*********************************************** &lt;br/&gt;2701, Simple Assault.&lt;br/&gt;"/><marker lat="40.434696587775576" lng="-79.996300985228572" zone="Zone 2" incidentdate="2016-06-06" incidenttime="16:50:00" incidentnumber="16102528" address="600 block 1st Ave" type="ARREST" age="53" gender="F" description="*********************************************** &lt;br/&gt;3921(a), Theft by Unlawful Taking or Disposition - Movable item&lt;br/&gt;903, Criminal Conspiracy.&lt;br/&gt;"/><marker lat="40.434696587775576" lng="-79.996300985228572" zone="Zone 2" incidentdate="2016-06-06" incidenttime="19:30:00" incidentnumber="16091920" address="600 block 1st Ave" type="ARREST" age="27" gender="M" description="*********************************************** &lt;br/&gt;3304, Criminal Mischief.&lt;br/&gt;2701(a)(3), Simple Assault - Attempts by Physical Menace&lt;br/&gt;"/><marker lat="40.459953890553351" lng="-79.925043274541594" zone="Zone 5" incidentdate="2016-06-06" incidenttime="01:05:00" incidentnumber="16104259" address="S Highland Ave &amp; Centre Ave" type="ARREST" age="19" gender="M" description="*********************************************** &lt;br/&gt;13(a)(31), Marijuana: Possession Small Amount&lt;br/&gt;4303, General Lighting Requirements.&lt;br/&gt;"/><marker lat="40.448840773567333" lng="-79.973973354239064" zone="Zone 2" incidentdate="2016-06-06" incidenttime="10:15:00" incidentnumber="16104469" address="2400 block Webster Ave" type="ARREST" age="18" gender="M" description="*********************************************** &lt;br/&gt;5104, Resisting Arrest or Other Law Enforcement.&lt;br/&gt;1501, Drivers Required to be Licensed.&lt;br/&gt;3112, Traffic-Control Signals.&lt;br/&gt;3733, Fleeing or Attempting to Elude Police Officer&lt;br/&gt;3323, Stop Signs and Yield Signs.&lt;br/&gt;"/><marker lat="40.442832245971218" lng="-80.00726586853169" zone="Zone 2" incidentdate="2016-06-06" incidenttime="16:08:00" incidentnumber="16104639" address="600 block Fort Duquesne Blvd" type="ARREST" age="36" gender="F" description="*********************************************** &lt;br/&gt;3503, Criminal Trespass&lt;br/&gt;"/><marker lat="40.459241184494772" lng="-80.005548013998464" zone="Zone 1" incidentdate="2016-06-06" incidenttime="15:25:00" incidentnumber="16104628" address="1600 block Sandusky Ct" type="ARREST" age="26" gender="M" description="*********************************************** &lt;br/&gt;3503.B1I, DEF. TRESPASS ACTUAL COMMUNICATION&lt;br/&gt;"/><marker lat="40.4845255" lng="-79.9081988" zone="Zone 5" incidentdate="2016-06-06" incidenttime="19:00:00" incidentnumber="16104754" address="100 block Washington Blvd &amp; Allegheny River Blvd" type="ARREST" age="19" gender="F" description="*********************************************** &lt;br/&gt;13(a)(16), Possession of Controlled Substance&lt;br/&gt;13(a)(32), Paraphernalia - Use or Possession&lt;br/&gt;"/></markers>
