<?xml version="1.0"?>
<markers><marker lat="40.41585770010623" lng="-79.988118814925556" zone="Zone 3" incidentdate="2014-11-10" incidenttime="00:17:00" incidentnumber="14223429" address="100 block Zara St" type="OFFENSE" age="" gender="" description="*********************************************** &lt;br/&gt;3502, Burglary.&lt;br/&gt;"/><marker lat="40.399184649147095" lng="-80.025493435297477" zone="Zone 6" incidentdate="2014-11-10" incidenttime="16:30:00" incidentnumber="14223898" address="2500 block West Liberty Ave" type="OFFENSE" age="" gender="" description="*********************************************** &lt;br/&gt;13(a)(16), Possession of Controlled Substance&lt;br/&gt;13(a)(32), Paraphernalia - Use or Possession&lt;br/&gt;"/><marker lat="40.483041135050279" lng="-80.003896194315018" zone="Zone 1" incidentdate="2014-11-10" incidenttime="11:55:00" incidentnumber="14223712" address="500 block Mt Pleasant Rd" type="OFFENSE" age="" gender="" description="*********************************************** &lt;br/&gt;3304, Criminal Mischief.&lt;br/&gt;"/><marker lat="40.441708352815468" lng="-79.969897909261661" zone="Zone 2" incidentdate="2014-11-10" incidenttime="13:35:00" incidentnumber="14223785" address="300 block ECKSTEIN Pl" type="OFFENSE" age="" gender="" description="*********************************************** &lt;br/&gt;9489, Found Property&lt;br/&gt;"/><marker lat="40.440280966182222" lng="-79.993432845850279" zone="Zone 4" incidentdate="2014-11-10" incidenttime="19:25:00" incidentnumber="14224008" address="5500 block Center Ave" type="OFFENSE" age="" gender="" description="*********************************************** &lt;br/&gt;3929, Retail Theft.&lt;br/&gt;"/><marker lat="40.487908699330774" lng="-80.040848479651757" zone="Zone 1" incidentdate="2014-11-10" incidenttime="10:00:00" incidentnumber="14223653" address="4000 block Brighton Rd" type="OFFENSE" age="" gender="" description="*********************************************** &lt;br/&gt;3304, Criminal Mischief.&lt;br/&gt;901, Criminal Attempt&lt;br/&gt;"/><marker lat="40.46527464336846" lng="-79.992123866962856" zone="Zone 1" incidentdate="2014-11-10" incidenttime="02:00:00" incidentnumber="14233477" address="Rhine St &amp; Steine St" type="OFFENSE" age="" gender="" description="*********************************************** &lt;br/&gt;9500, Conversion - Field Contact Report&lt;br/&gt;"/><marker lat="40.456720079183079" lng="-79.965054500017573" zone="Zone 2" incidentdate="2014-11-10" incidenttime="09:40:00" incidentnumber="14223711" address="Brereton St &amp; Hancock St" type="OFFENSE" age="" gender="" description="*********************************************** &lt;br/&gt;3304, Criminal Mischief.&lt;br/&gt;"/><marker lat="40.438227598393112" lng="-79.996055817744775" zone="Zone 2" incidentdate="2014-11-10" incidenttime="08:48:00" incidentnumber="14223626" address="Ross St &amp; Forbes Ave" type="OFFENSE" age="" gender="" description="*********************************************** &lt;br/&gt;3742, Accidents Involving Death or Personal Injury&lt;br/&gt;"/><marker lat="40.410480287734281" lng="-80.027436745382445" zone="Zone 6" incidentdate="2014-11-10" incidenttime="21:01:00" incidentnumber="14224055" address="Belasco Ave &amp; Hampshire Ave" type="OFFENSE" age="" gender="" description="*********************************************** &lt;br/&gt;1543, Driving While Operating Privilege is Suspended or Revoked.&lt;br/&gt;3334, Turning Movements and Required Signals.&lt;br/&gt;3802(a)(1), DUI - General Impairment&lt;br/&gt;3802(c), DUI - Highest Rate of Alcohol - BAC &gt;= .16%&lt;br/&gt;"/><marker lat="40.454374975757673" lng="-80.024820107475946" zone="Zone 1" incidentdate="2014-11-10" incidenttime="11:13:00" incidentnumber="14223690" address="1300 block Pennsylvania Ave" type="OFFENSE" age="" gender="" description="*********************************************** &lt;br/&gt;9488, False  Burglar Alarm&lt;br/&gt;"/><marker lat="40.45947359162308" lng="-79.925007660880965" zone="Zone 4" incidentdate="2014-11-10" incidenttime="13:31:00" incidentnumber="14223779" address="6000 block Stevenson Pl" type="OFFENSE" age="" gender="" description="*********************************************** &lt;br/&gt;9999, 9999 - (Misc. Incident):&lt;br/&gt;"/><marker lat="40.476723646808125" lng="-80.034588663775878" zone="Zone 1" incidentdate="2014-11-10" incidenttime="12:00:00" incidentnumber="14223744" address="1400 block Beckham St" type="OFFENSE" age="" gender="" description="*********************************************** &lt;br/&gt;3502, Burglary.&lt;br/&gt;"/><marker lat="40.45779096751572" lng="-80.072748599372275" zone="Zone 6" incidentdate="2014-11-10" incidenttime="00:35:00" incidentnumber="14223812" address="3700 block Chartiers Ave" type="OFFENSE" age="" gender="" description="*********************************************** &lt;br/&gt;3304, Criminal Mischief.&lt;br/&gt;2707.1, Discharge of a Firearm into Occupied Structure&lt;br/&gt;"/><marker lat="40.447063025872758" lng="-79.947284153477952" zone="Zone 4" incidentdate="2014-11-10" incidenttime="01:20:00" incidentnumber="14223465" address="5th Ave &amp; S Neville St" type="OFFENSE" age="" gender="" description="*********************************************** &lt;br/&gt;13(a)(31), Marijuana: Possession Small Amount&lt;br/&gt;3334, Turning Movements and Required Signals.&lt;br/&gt;1501, Drivers Required to be Licensed.&lt;br/&gt;"/><marker lat="40.460019623031755" lng="-79.897628326527666" zone="Zone 5" incidentdate="2014-11-10" incidenttime="01:30:00" incidentnumber="14223635" address="1100 block N Lang Ave" type="OFFENSE" age="" gender="" description="*********************************************** &lt;br/&gt;3502, Burglary.&lt;br/&gt;"/><marker lat="40.460197926996898" lng="-80.04816980762628" zone="Zone 6" incidentdate="2014-11-10" incidenttime="04:00:00" incidentnumber="14223652" address="W Carson St &amp; Earl St" type="OFFENSE" age="" gender="" description="*********************************************** &lt;br/&gt;3921(a), Theft by Unlawful Taking or Disposition - Movable item&lt;br/&gt;"/><marker lat="40.456515048695316" lng="-80.016515559088219" zone="Zone 1" incidentdate="2014-11-10" incidenttime="15:00:00" incidentnumber="14223808" address="1500 block BRIGHTON Rd" type="OFFENSE" age="" gender="" description="*********************************************** &lt;br/&gt;9489, Found Property&lt;br/&gt;"/><marker lat="40.396286353748302" lng="-79.998231164273008" zone="Zone 3" incidentdate="2014-11-10" incidenttime="17:47:00" incidentnumber="14223934" address="Saw Mill Run Blvd &amp; Whited St" type="OFFENSE" age="" gender="" description="*********************************************** &lt;br/&gt;13(a)(31), Marijuana: Possession Small Amount&lt;br/&gt;3334, Turning Movements and Required Signals.&lt;br/&gt;13(a)(16), Possession of Controlled Substance&lt;br/&gt;13(a)(32), Paraphernalia - Use or Possession&lt;br/&gt;"/><marker lat="40.437846371119946" lng="-79.922805918036218" zone="Zone 4" incidentdate="2014-11-10" incidenttime="17:09:00" incidentnumber="14223902" address="5800 block Forbes Ave" type="OFFENSE" age="" gender="" description="*********************************************** &lt;br/&gt;602.04, Panhandling and Prohibited Conduct&lt;br/&gt;"/><marker lat="40.45156448168715" lng="-80.018949472643925" zone="Zone 1" incidentdate="2014-11-10" incidenttime="06:30:00" incidentnumber="14223691" address="1000 block Western Ave" type="OFFENSE" age="" gender="" description="*********************************************** &lt;br/&gt;3304, Criminal Mischief.&lt;br/&gt;"/><marker lat="40.458256155310288" lng="-80.078722910661085" zone="Zone 6" incidentdate="2014-11-10" incidenttime="14:00:00" incidentnumber="14223820" address="3800 block Windgap Ave" type="OFFENSE" age="" gender="" description="*********************************************** &lt;br/&gt;3934, Theft from Vehicle&lt;br/&gt;"/><marker lat="40.429817964894596" lng="-79.996000577859093" zone="Zone 3" incidentdate="2014-11-10" incidenttime="02:54:00" incidentnumber="14223499" address="400 block Bingham St" type="OFFENSE" age="" gender="" description="*********************************************** &lt;br/&gt;9999, 9999 - (Misc. Incident):&lt;br/&gt;"/><marker lat="40.468693075773288" lng="-79.961677392158549" zone="Zone 2" incidentdate="2014-11-10" incidenttime="19:27:00" incidentnumber="14223998" address="4000 block Butler St" type="OFFENSE" age="" gender="" description="*********************************************** &lt;br/&gt;13(a)(16), Possession of Controlled Substance&lt;br/&gt;4304(a)(1), Endangering Welfare of Children - Course of Conduct Enhanced&lt;br/&gt;13(a)(32), Paraphernalia - Use or Possession&lt;br/&gt;"/><marker lat="40.425586511852678" lng="-80.010454954852008" zone="Zone 3" incidentdate="2014-11-10" incidenttime="15:00:00" incidentnumber="14223860" address="400 block Norton St" type="OFFENSE" age="" gender="" description="*********************************************** &lt;br/&gt;3502, Burglary.&lt;br/&gt;"/><marker lat="40.465775324572782" lng="-80.010108243974955" zone="Zone 1" incidentdate="2014-11-10" incidenttime="00:18:00" incidentnumber="14223448" address="200 block Seabright St" type="OFFENSE" age="" gender="" description="*********************************************** &lt;br/&gt;9490, Missing Persons (18 and Over)&lt;br/&gt;"/><marker lat="40.488081814906529" lng="-79.894317224387123" zone="Zone 5" incidentdate="2014-11-10" incidenttime="12:30:00" incidentnumber="14223735" address="900 block Freeport Rd" type="OFFENSE" age="" gender="" description="*********************************************** &lt;br/&gt;9093, Indirect Criminal Contempt&lt;br/&gt;"/><marker lat="40.462714632076725" lng="-80.017583867319601" zone="Zone 1" incidentdate="2014-11-10" incidenttime="16:54:00" incidentnumber="14223896" address="800 block Brightridge St" type="OFFENSE" age="" gender="" description="*********************************************** &lt;br/&gt;6110.1, Possesion of Firearm by Minor&lt;br/&gt;1501(A), Valid Drivers License Required&lt;br/&gt;6106, Firearms not to be Carried without a License.&lt;br/&gt;9501, Bench Warrant&lt;br/&gt;3334, Turning Movements and Required Signals.&lt;br/&gt;"/><marker lat="40.428686990454359" lng="-79.9835018707046" zone="Zone 3" incidentdate="2014-11-10" incidenttime="08:15:00" incidentnumber="14223594" address="S 15th Bridge" type="OFFENSE" age="" gender="" description="*********************************************** &lt;br/&gt;3304, Criminal Mischief.&lt;br/&gt;"/><marker lat="40.387167963125073" lng="-79.983326314937173" zone="Zone 3" incidentdate="2014-11-10" incidenttime="16:50:00" incidentnumber="14223913" address="Carrick Ave" type="OFFENSE" age="" gender="" description="*********************************************** &lt;br/&gt;029, Missing Juvenile&lt;br/&gt;"/><marker lat="40.487016241050313" lng="-80.037446880989933" zone="Zone 1" incidentdate="2014-11-10" incidenttime="18:50:00" incidentnumber="14223990" address="3900 block Kleber St" type="OFFENSE" age="" gender="" description="*********************************************** &lt;br/&gt;2701, Simple Assault.&lt;br/&gt;"/><marker lat="40.403792286132436" lng="-80.028294586108061" zone="Zone 6" incidentdate="2014-11-10" incidenttime="02:30:00" incidentnumber="14223491" address="2200 block Vodeli St" type="OFFENSE" age="" gender="" description="*********************************************** &lt;br/&gt;2701, Simple Assault.&lt;br/&gt;"/><marker lat="40.417537707319021" lng="-79.926009928476859" zone="Zone 4" incidentdate="2014-11-10" incidenttime="09:21:00" incidentnumber="14223627" address="4600 block Browns Hill Rd" type="OFFENSE" age="" gender="" description="*********************************************** &lt;br/&gt;9488, False  Burglar Alarm&lt;br/&gt;"/><marker lat="40.460019623031755" lng="-79.897628326527666" zone="Zone 5" incidentdate="2014-11-10" incidenttime="01:30:00" incidentnumber="14223696" address="1100 block N Lang Ave" type="OFFENSE" age="" gender="" description="*********************************************** &lt;br/&gt;3502, Burglary.&lt;br/&gt;"/><marker lat="40.421103596071127" lng="-79.985317176382438" zone="Zone 3" incidentdate="2014-11-10" incidenttime="03:34:00" incidentnumber="14223507" address="2600 block S 18th St" type="OFFENSE" age="" gender="" description="*********************************************** &lt;br/&gt;9093, Indirect Criminal Contempt&lt;br/&gt;2701(a)(1), Simple Assault - Intent., Know., Reckless.Cause Bod. Injury&lt;br/&gt;3701, Robbery.&lt;br/&gt;"/><marker lat="40.481723020727152" lng="-80.031149989725932" zone="Zone 1" incidentdate="2014-11-10" incidenttime="08:40:00" incidentnumber="14223610" address="1100 block Davis Ave" type="OFFENSE" age="" gender="" description="*********************************************** &lt;br/&gt;9496, Dead on Arrival (DOA)&lt;br/&gt;"/><marker lat="40.41241362607682" lng="-79.940355780808133" zone="Zone 4" incidentdate="2014-11-10" incidenttime="09:50:00" incidentnumber="14223683" address="300 block Hazelwood Ave" type="OFFENSE" age="" gender="" description="*********************************************** &lt;br/&gt;3502, Burglary.&lt;br/&gt;"/><marker lat="40.464789364476914" lng="-80.012661204169035" zone="Zone 1" incidentdate="2014-11-10" incidenttime="15:33:00" incidentnumber="14223833" address="Wilson Ave &amp; Drum St" type="OFFENSE" age="" gender="" description="*********************************************** &lt;br/&gt;2701, Simple Assault.&lt;br/&gt;"/><marker lat="40.45779096751572" lng="-80.072748599372275" zone="Zone 6" incidentdate="2014-11-10" incidenttime="00:38:00" incidentnumber="14223455" address="3700 block Chartiers Ave" type="OFFENSE" age="" gender="" description="*********************************************** &lt;br/&gt;3304, Criminal Mischief.&lt;br/&gt;607.03, Discharging Firearm or Airgun&lt;br/&gt;"/><marker lat="40.428976850306533" lng="-79.976221380737229" zone="Zone 3" incidentdate="2014-11-10" incidenttime="01:27:00" incidentnumber="14223467" address="S 21st St &amp; Wrights Way" type="OFFENSE" age="" gender="" description="*********************************************** &lt;br/&gt;4303, General Lighting Requirements.&lt;br/&gt;13(a)(31)(i), Marijuana - Possess Small Amt for Personal Use&lt;br/&gt;3323, Stop Signs and Yield Signs.&lt;br/&gt;"/><marker lat="40.459791883188437" lng="-79.902331740764538" zone="Zone 5" incidentdate="2014-11-10" incidenttime="21:07:00" incidentnumber="14224058" address="1000 block Beecher St" type="OFFENSE" age="" gender="" description="*********************************************** &lt;br/&gt;2701, Simple Assault.&lt;br/&gt;"/><marker lat="40.446486196876755" lng="-80.047636863113482" zone="Zone 6" incidentdate="2014-11-10" incidenttime="19:00:00" incidentnumber="14224001" address="1300 block Dickens St" type="OFFENSE" age="" gender="" description="*********************************************** &lt;br/&gt;3928, Unauthorized Use of Automobile and Other Vehicles.&lt;br/&gt;"/><marker lat="40.44445207973979" lng="-79.94195184941762" zone="Zone 4" incidentdate="2014-11-10" incidenttime="17:51:00" incidentnumber="14223936" address="Forbes Ave &amp; Morewood Ave" type="OFFENSE" age="" gender="" description="*********************************************** &lt;br/&gt;2701(a)(1), Simple Assault - Intent., Know., Reckless.Cause Bod. Injury&lt;br/&gt;"/><marker lat="40.458126374895585" lng="-79.968877311922256" zone="Zone 2" incidentdate="2014-11-10" incidenttime="19:42:00" incidentnumber="14224018" address="300 block Harmar St" type="OFFENSE" age="" gender="" description="*********************************************** &lt;br/&gt;9497, Aided Case&lt;br/&gt;"/><marker lat="40.422484759267384" lng="-79.945232944085575" zone="Zone 4" incidentdate="2014-11-10" incidenttime="06:40:00" incidentnumber="14223570" address="4200 block Gladstone St" type="OFFENSE" age="" gender="" description="*********************************************** &lt;br/&gt;3304, Criminal Mischief.&lt;br/&gt;"/><marker lat="40.468266131869605" lng="-79.916897371430963" zone="Zone 5" incidentdate="2014-11-10" incidenttime="09:05:00" incidentnumber="14223921" address="100 block Meadow St" type="OFFENSE" age="" gender="" description="*********************************************** &lt;br/&gt;2709(a)(1), Harassment by Physical Contact, or Attempts or Threats&lt;br/&gt;"/><marker lat="40.42695519606621" lng="-80.005599666575392" zone="Zone 3" incidentdate="2014-11-10" incidenttime="07:35:00" incidentnumber="14223623" address="Bailey Ave" type="OFFENSE" age="" gender="" description="*********************************************** &lt;br/&gt;9489, Found Property&lt;br/&gt;"/><marker lat="40.445821415453004" lng="-80.043480610744254" zone="Zone 6" incidentdate="2014-11-10" incidenttime="17:10:00" incidentnumber="14223899" address="1200 block Chartiers Ave" type="OFFENSE" age="" gender="" description="*********************************************** &lt;br/&gt;9488, False  Burglar Alarm&lt;br/&gt;"/><marker lat="40.442689761955755" lng="-79.996613897174697" zone="Zone 2" incidentdate="2014-11-10" incidenttime="00:40:00" incidentnumber="14223454" address="400 block 7th Ave" type="OFFENSE" age="" gender="" description="*********************************************** &lt;br/&gt;3502, Burglary.&lt;br/&gt;3921(a), Theft by Unlawful Taking or Disposition - Movable item&lt;br/&gt;3925, Receiving Stolen Property.&lt;br/&gt;3304, Criminal Mischief.&lt;br/&gt;"/><marker lat="40.431250626518164" lng="-80.023663323701911" zone="Zone 3" incidentdate="2014-11-10" incidenttime="09:00:00" incidentnumber="14223631" address="500 block Sweetbriar St" type="OFFENSE" age="" gender="" description="*********************************************** &lt;br/&gt;3502, Burglary.&lt;br/&gt;"/><marker lat="40.474046177842993" lng="-80.015618426604462" zone="Zone 1" incidentdate="2014-11-10" incidenttime="18:06:00" incidentnumber="14223949" address="300 block Marshall Ave" type="OFFENSE" age="" gender="" description="*********************************************** &lt;br/&gt;3304, Criminal Mischief.&lt;br/&gt;"/><marker lat="40.381953085250643" lng="-79.988099317612551" zone="Zone 3" incidentdate="2014-11-10" incidenttime="06:30:00" incidentnumber="14223608" address="500 block Horning St" type="OFFENSE" age="" gender="" description="*********************************************** &lt;br/&gt;3934, Theft from Vehicle&lt;br/&gt;"/><marker lat="40.4357527994054" lng="-79.927671499438887" zone="Zone 4" incidentdate="2014-11-10" incidenttime="09:07:00" incidentnumber="14223644" address="Bartlett St &amp; Wightman St" type="OFFENSE" age="" gender="" description="*********************************************** &lt;br/&gt;9999, 9999 - (Misc. Incident):&lt;br/&gt;"/><marker lat="40.439754675673591" lng="-80.052449224076412" zone="Zone 6" incidentdate="2014-11-10" incidenttime="09:30:00" incidentnumber="14223661" address="1200 block Clairhaven St" type="OFFENSE" age="" gender="" description="*********************************************** &lt;br/&gt;3745, Accidents Involving Damage to Unattended Veh.or Prop.&lt;br/&gt;"/><marker lat="40.369184388257381" lng="-79.909784356781017" zone="Zone 4" incidentdate="2014-11-10" incidenttime="09:07:00" incidentnumber="14223619" address="5400 block Halchess St" type="OFFENSE" age="" gender="" description="*********************************************** &lt;br/&gt;9999, 9999 - (Misc. Incident):&lt;br/&gt;"/><marker lat="40.48296876530901" lng="-80.045491198468795" zone="Zone 2" incidentdate="2014-11-10" incidenttime="13:08:00" incidentnumber="14223755" address="3800 block Oswego St" type="OFFENSE" age="" gender="" description="*********************************************** &lt;br/&gt;9488, False  Burglar Alarm&lt;br/&gt;"/><marker lat="40.392014636402834" lng="-80.016549570324813" zone="Zone 6" incidentdate="2014-11-10" incidenttime="17:00:00" incidentnumber="14223910" address="2200 block Starkamp St" type="OFFENSE" age="" gender="" description="*********************************************** &lt;br/&gt;2709(a), Harassment.&lt;br/&gt;"/><marker lat="40.461634090147498" lng="-79.963583437996832" zone="Zone 2" incidentdate="2014-11-10" incidenttime="10:28:00" incidentnumber="14223658" address="3600 block Liberty Ave" type="OFFENSE" age="" gender="" description="*********************************************** &lt;br/&gt;13(a)(16), Possession of Controlled Substance&lt;br/&gt;"/><marker lat="40.420019068985731" lng="-79.990853184377926" zone="Zone 3" incidentdate="2014-11-10" incidenttime="09:00:00" incidentnumber="14223709" address="Knox Ave" type="OFFENSE" age="" gender="" description="*********************************************** &lt;br/&gt;3503, Criminal Trespass&lt;br/&gt;"/><marker lat="40.43658629545979" lng="-79.955497485231362" zone="Zone 4" incidentdate="2014-11-10" incidenttime="21:50:00" incidentnumber="14224086" address="Bates St &amp; Mc Kee Pl" type="OFFENSE" age="" gender="" description="*********************************************** &lt;br/&gt;2701, Simple Assault.&lt;br/&gt;3701, Robbery.&lt;br/&gt;"/><marker lat="40.460223653446562" lng="-80.048234690263186" zone="Zone 6" incidentdate="2014-11-10" incidenttime="14:47:00" incidentnumber="14223806" address="100 block Earl St" type="OFFENSE" age="" gender="" description="*********************************************** &lt;br/&gt;9496, Dead on Arrival (DOA)&lt;br/&gt;"/><marker lat="40.444342604248519" lng="-79.978899285922779" zone="Zone 2" incidentdate="2014-11-10" incidenttime="19:10:00" incidentnumber="14223987" address="Centre Ave &amp; Erin St" type="OFFENSE" age="" gender="" description="*********************************************** &lt;br/&gt;5505, Public Drunkenness&lt;br/&gt;5507, Obstructing Highways and Passages.&lt;br/&gt;"/><marker lat="40.383895276493377" lng="-79.977484593396255" zone="Zone 3" incidentdate="2014-11-10" incidenttime="07:50:00" incidentnumber="14223599" address="Merritt Ave &amp; Brownsville Rd" type="OFFENSE" age="" gender="" description="*********************************************** &lt;br/&gt;3304, Criminal Mischief.&lt;br/&gt;3934, Theft from Vehicle&lt;br/&gt;"/><marker lat="40.425414312145136" lng="-79.966548027660309" zone="Zone 3" incidentdate="2014-11-10" incidenttime="11:40:00" incidentnumber="14223704" address="2800 block Sarah St" type="OFFENSE" age="" gender="" description="*********************************************** &lt;br/&gt;9496, Dead on Arrival (DOA)&lt;br/&gt;"/><marker lat="40.457144393433715" lng="-79.929298619025971" zone="Zone 4" incidentdate="2014-11-10" incidenttime="22:09:00" incidentnumber="14224091" address="Ellsworth Ave &amp; College Ave" type="OFFENSE" age="" gender="" description="*********************************************** &lt;br/&gt;9999, 9999 - (Misc. Incident):&lt;br/&gt;"/><marker lat="40.470000412553418" lng="-79.997737959074854" zone="Zone 1" incidentdate="2014-11-10" incidenttime="20:56:00" incidentnumber="14224054" address="South Side Ave &amp; Luella St" type="OFFENSE" age="" gender="" description="*********************************************** &lt;br/&gt;13(a)(16), Possession of Controlled Substance&lt;br/&gt;1543, Driving While Operating Privilege is Suspended or Revoked.&lt;br/&gt;3323, Stop Signs and Yield Signs.&lt;br/&gt;"/><marker lat="40.4627137134433" lng="-79.897502712280485" zone="Zone 5" incidentdate="2014-11-10" incidenttime="19:35:00" incidentnumber="14224016" address="1500 block N Lang Ave" type="OFFENSE" age="" gender="" description="*********************************************** &lt;br/&gt;3304(a)(1), CRIMINAL MISCHIEF-Prop Damage By Fire, Explosives, or Other Dangerous Means&lt;br/&gt;2707.1, Discharge of a Firearm into Occupied Structure&lt;br/&gt;9999, 9999 - (Misc. Incident):&lt;br/&gt;"/><marker lat="40.454962175101649" lng="-79.981144207651653" zone="Zone 2" incidentdate="2014-11-10" incidenttime="05:00:00" incidentnumber="14223582" address="2900 block Spruce Way" type="OFFENSE" age="" gender="" description="*********************************************** &lt;br/&gt;6501(a)(1), Scattering Rubbish; Any waste, dangerous or detrimental substance upon public property or waters&lt;br/&gt;601.11(a), Littering and Dumping; Any waste, dangerous or detrimental substance upon public property&lt;br/&gt;"/><marker lat="40.444124175924465" lng="-79.993451492617879" zone="Zone 2" incidentdate="2014-11-10" incidenttime="18:32:00" incidentnumber="14223961" address="Liberty Ave &amp; 11th St" type="OFFENSE" age="" gender="" description="*********************************************** &lt;br/&gt;13(a)(16), Possession of Controlled Substance&lt;br/&gt;3736, Reckless Driving&lt;br/&gt;3802(a)(1), DUI - General Impairment&lt;br/&gt;3802(b), DUI - High Rate of Alchol - BAC &gt;=.10% &lt;.16%&lt;br/&gt;"/><marker lat="40.471886844100567" lng="-79.913743898270624" zone="Zone 5" incidentdate="2014-11-10" incidenttime="15:00:00" incidentnumber="14223861" address="1000 block Winterton St" type="OFFENSE" age="" gender="" description="*********************************************** &lt;br/&gt;2709(a), Harassment.&lt;br/&gt;"/><marker lat="40.468266131869605" lng="-79.916897371430963" zone="Zone 5" incidentdate="2014-11-10" incidenttime="17:17:00" incidentnumber="14223874" address="100 block Meadow St" type="OFFENSE" age="" gender="" description="*********************************************** &lt;br/&gt;13(a)(31), Marijuana: Possession Small Amount&lt;br/&gt;2701(a)(3), Simple Assault - Attempts by Physical Menace&lt;br/&gt;3502, Burglary.&lt;br/&gt;"/><marker lat="40.441391902103199" lng="-79.958100619016861" zone="Zone 4" incidentdate="2014-11-10" incidenttime="19:06:00" incidentnumber="14223984" address="200 block Atwood St" type="OFFENSE" age="" gender="" description="*********************************************** &lt;br/&gt;2702, Aggravated Assault.&lt;br/&gt;2706, Terroristic Threats.&lt;br/&gt;3304(a)(5), CRIMINAL MISCHIEF - Intentionally Damages Real Or Personal Property Of Another&lt;br/&gt;5503(a)(4), DISORDERLY CONDUCT - HAZARDOUS/PHYS. OFF&lt;br/&gt;"/><marker lat="40.453539170738004" lng="-80.000575279128412" zone="Zone 1" incidentdate="2014-11-10" incidenttime="14:40:00" incidentnumber="14223870" address="500 block East Ohio St" type="OFFENSE" age="" gender="" description="*********************************************** &lt;br/&gt;3921(a), Theft by Unlawful Taking or Disposition - Movable item&lt;br/&gt;"/><marker lat="40.456645972111147" lng="-79.906649432588011" zone="Zone 5" incidentdate="2014-11-10" incidenttime="16:18:00" incidentnumber="14223864" address="6800 block Hamilton Ave" type="OFFENSE" age="" gender="" description="*********************************************** &lt;br/&gt;3934, Theft from Vehicle&lt;br/&gt;"/><marker lat="40.400352802216602" lng="-80.029863380695019" zone="Zone 6" incidentdate="2014-11-10" incidenttime="15:00:00" incidentnumber="14024100" address="Mackinaw Ave &amp; Bensonia Ave" type="OFFENSE" age="" gender="" description="*********************************************** &lt;br/&gt;3304, Criminal Mischief.&lt;br/&gt;"/><marker lat="40.441730122618281" lng="-79.961093442895944" zone="Zone 4" incidentdate="2014-11-10" incidenttime="12:00:00" incidentnumber="14223714" address="200 block Lothrop St" type="OFFENSE" age="" gender="" description="*********************************************** &lt;br/&gt;3921, Theft by Unlawful Taking or Disposition.&lt;br/&gt;"/><marker lat="40.483569326520737" lng="-79.955509236285224" zone="Zone 2" incidentdate="2014-11-10" incidenttime="07:00:00" incidentnumber="14223586" address="McCandless Ave" type="OFFENSE" age="" gender="" description="*********************************************** &lt;br/&gt;3921, Theft by Unlawful Taking or Disposition.&lt;br/&gt;"/><marker lat="40.444342604248519" lng="-79.978899285922779" zone="Zone 2" incidentdate="2014-11-10" incidenttime="18:10:00" incidentnumber="14223988" address="Centre Ave &amp; Erin St" type="OFFENSE" age="" gender="" description="*********************************************** &lt;br/&gt;5507, Obstructing Highways and Passages.&lt;br/&gt;"/><marker lat="40.440479716215464" lng="-79.965333815773448" zone="Zone 4" incidentdate="2014-11-10" incidenttime="16:17:00" incidentnumber="14223863" address="200 block Robinson St" type="OFFENSE" age="" gender="" description="*********************************************** &lt;br/&gt;9488, False  Burglar Alarm&lt;br/&gt;"/><marker lat="40.453083606013678" lng="-80.009016805191777" zone="Zone 1" incidentdate="2014-11-10" incidenttime="06:03:00" incidentnumber="14223558" address="800 block Arch St" type="OFFENSE" age="" gender="" description="*********************************************** &lt;br/&gt;9488, False  Burglar Alarm&lt;br/&gt;"/><marker lat="40.417496938718543" lng="-79.977956973440669" zone="Zone 3" incidentdate="2014-11-10" incidenttime="00:30:00" incidentnumber="14223692" address="2000 block Norte Way" type="OFFENSE" age="" gender="" description="*********************************************** &lt;br/&gt;3921, Theft by Unlawful Taking or Disposition.&lt;br/&gt;"/><marker lat="40.461630806852277" lng="-79.926784260450063" zone="Zone 4" incidentdate="2014-11-10" incidenttime="12:51:00" incidentnumber="14223760" address="5900 block Penn Cir S" type="OFFENSE" age="" gender="" description="*********************************************** &lt;br/&gt;3929, Retail Theft.&lt;br/&gt;"/><marker lat="40.449606365527259" lng="-79.974270684591801" zone="Zone 2" incidentdate="2014-11-10" incidenttime="16:28:00" incidentnumber="14223876" address="2400 block Bedford Ave" type="OFFENSE" age="" gender="" description="*********************************************** &lt;br/&gt;2701, Simple Assault.&lt;br/&gt;"/><marker lat="40.428408899123312" lng="-80.05663829423716" zone="Zone 6" incidentdate="2014-11-10" incidenttime="08:15:00" incidentnumber="14223601" address="1400 block Poplar St" type="OFFENSE" age="" gender="" description="*********************************************** &lt;br/&gt;3304, Criminal Mischief.&lt;br/&gt;"/><marker lat="40.491171083037642" lng="-80.019869774112294" zone="Zone 1" incidentdate="2014-11-10" incidenttime="21:20:00" incidentnumber="14224066" address="4000 block Perrysville Ave" type="OFFENSE" age="" gender="" description="*********************************************** &lt;br/&gt;9490, Missing Persons (18 and Over)&lt;br/&gt;"/><marker lat="40.449168406138391" lng="-79.887243108883368" zone="Zone 5" incidentdate="2014-11-10" incidenttime="09:00:00" incidentnumber="14223612" address="7900 block Susquehanna St" type="OFFENSE" age="" gender="" description="*********************************************** &lt;br/&gt;029, Missing Juvenile&lt;br/&gt;"/><marker lat="40.443580942147605" lng="-79.979979097296493" zone="Zone 2" incidentdate="2014-11-10" incidenttime="15:24:00" incidentnumber="14223821" address="2000 block Centre Ave" type="OFFENSE" age="" gender="" description="*********************************************** &lt;br/&gt;9501, Bench Warrant&lt;br/&gt;13(a)(16), Possession of Controlled Substance&lt;br/&gt;13(a)(32), Paraphernalia - Use or Possession&lt;br/&gt;"/><marker lat="40.45938850124044" lng="-80.014854424000518" zone="Zone 1" incidentdate="2014-11-10" incidenttime="20:16:00" incidentnumber="14224036" address="Ehlers Way &amp; Redknap St" type="OFFENSE" age="" gender="" description="*********************************************** &lt;br/&gt;13(a)(16), Possession of Controlled Substance&lt;br/&gt;13(a)(30), Possession w/ Intent to Del. Controlled Substance&lt;br/&gt;"/><marker lat="40.453360717234645" lng="-80.003927241484959" zone="Zone 1" incidentdate="2014-11-10" incidenttime="17:33:00" incidentnumber="14223881" address="Allegheny Sq E" type="OFFENSE" age="" gender="" description="*********************************************** &lt;br/&gt;9999, 9999 - (Misc. Incident):&lt;br/&gt;"/><marker lat="40.450349551044347" lng="-79.870079209367304" zone="Zone 5" incidentdate="2014-11-10" incidenttime="17:55:00" incidentnumber="14223943" address="2000 block Fairlawn St" type="OFFENSE" age="" gender="" description="*********************************************** &lt;br/&gt;2701, Simple Assault.&lt;br/&gt;"/><marker lat="40.459754172232486" lng="-79.92480766252595" zone="Zone 5" incidentdate="2014-11-10" incidenttime="15:30:00" incidentnumber="14223838" address="6000 block Centre Ave" type="OFFENSE" age="" gender="" description="*********************************************** &lt;br/&gt;9999, 9999 - (Misc. Incident):&lt;br/&gt;"/><marker lat="40.480858116611401" lng="-79.92827077277876" zone="Zone 5" incidentdate="2014-11-10" incidenttime="10:30:00" incidentnumber="14223681" address="Vetter St &amp; Chislett St" type="OFFENSE" age="" gender="" description="*********************************************** &lt;br/&gt;9999, 9999 - (Misc. Incident):&lt;br/&gt;"/><marker lat="40.466762577302909" lng="-79.928236271605783" zone="Zone 5" incidentdate="2014-11-10" incidenttime="11:00:00" incidentnumber="14223686" address="400 block N Negley Ave" type="OFFENSE" age="" gender="" description="*********************************************** &lt;br/&gt;9490, Missing Persons (18 and Over)&lt;br/&gt;"/><marker lat="40.444461939123833" lng="-80.03989466275489" zone="Zone 6" incidentdate="2014-11-10" incidenttime="00:45:00" incidentnumber="14197212" address="Lorenz Ave &amp; Ainsworth St" type="ARREST" age="33" gender="M" description="*********************************************** &lt;br/&gt;2701, Simple Assault.&lt;br/&gt;"/><marker lat="40.470000412553418" lng="-79.997737959074854" zone="Zone 1" incidentdate="2014-11-10" incidenttime="20:56:00" incidentnumber="14224054" address="South Side Ave &amp; Luella St" type="ARREST" age="35" gender="M" description="*********************************************** &lt;br/&gt;13(a)(16), Possession of Controlled Substance&lt;br/&gt;1543, Driving While Operating Privilege is Suspended or Revoked.&lt;br/&gt;3323, Stop Signs and Yield Signs.&lt;br/&gt;"/><marker lat="40.434696587775576" lng="-79.996300985228572" zone="Zone 2" incidentdate="2014-11-10" incidenttime="13:00:00" incidentnumber="14218467" address="600 block 1st Ave" type="ARREST" age="36" gender="M" description="*********************************************** &lt;br/&gt;2709(a)(1), Harassment by Physical Contact, or Attempts or Threats&lt;br/&gt;2706, Terroristic Threats.&lt;br/&gt;"/><marker lat="40.428976850306533" lng="-79.976221380737229" zone="Zone 3" incidentdate="2014-11-10" incidenttime="01:29:00" incidentnumber="14223467" address="S 21st St &amp; Wrights Way" type="ARREST" age="24" gender="F" description="*********************************************** &lt;br/&gt;4303, General Lighting Requirements.&lt;br/&gt;13(a)(31)(i), Marijuana - Possess Small Amt for Personal Use&lt;br/&gt;3323, Stop Signs and Yield Signs.&lt;br/&gt;"/><marker lat="40.44445207973979" lng="-79.94195184941762" zone="Zone 4" incidentdate="2014-11-10" incidenttime="18:25:00" incidentnumber="14223936" address="Forbes Ave &amp; Morewood Ave" type="ARREST" age="23" gender="F" description="*********************************************** &lt;br/&gt;2701(a)(1), Simple Assault - Intent., Know., Reckless.Cause Bod. Injury&lt;br/&gt;"/><marker lat="40.450349551044347" lng="-79.870079209367304" zone="Zone 5" incidentdate="2014-11-10" incidenttime="18:28:00" incidentnumber="14223943" address="2000 block Fairlawn St" type="ARREST" age="17" gender="M" description="*********************************************** &lt;br/&gt;2701, Simple Assault.&lt;br/&gt;"/><marker lat="40.468714702119144" lng="-79.927005027242316" zone="Zone 5" incidentdate="2014-11-10" incidenttime="11:05:00" incidentnumber="14221071" address="600 block N Negley Ave" type="ARREST" age="33" gender="F" description="*********************************************** &lt;br/&gt;4905, False Alarms to Agencies of Public Safety.&lt;br/&gt;"/><marker lat="40.449920330979076" lng="-79.974597253786143" zone="Zone 2" incidentdate="2014-11-10" incidenttime="15:00:00" incidentnumber="14190032" address="2400 block Chauncey Dr" type="ARREST" age="55" gender="M" description="*********************************************** &lt;br/&gt;2701, Simple Assault.&lt;br/&gt;2709(a)(1), Harassment by Physical Contact, or Attempts or Threats&lt;br/&gt;"/><marker lat="40.444124175924465" lng="-79.993451492617879" zone="Zone 2" incidentdate="2014-11-10" incidenttime="18:50:00" incidentnumber="14223961" address="Liberty Ave &amp; 11th St" type="ARREST" age="40" gender="M" description="*********************************************** &lt;br/&gt;13(a)(16), Possession of Controlled Substance&lt;br/&gt;3736, Reckless Driving&lt;br/&gt;3802(a)(1), DUI - General Impairment&lt;br/&gt;3802(b), DUI - High Rate of Alchol - BAC &gt;=.10% &lt;.16%&lt;br/&gt;"/><marker lat="40.487016241050313" lng="-80.037446880989933" zone="Zone 1" incidentdate="2014-11-10" incidenttime="19:25:00" incidentnumber="14223990" address="3900 block Kleber St" type="ARREST" age="26" gender="F" description="*********************************************** &lt;br/&gt;2701, Simple Assault.&lt;br/&gt;"/><marker lat="40.468266131869605" lng="-79.916897371430963" zone="Zone 5" incidentdate="2014-11-10" incidenttime="17:17:00" incidentnumber="14223874" address="100 block Meadow St" type="ARREST" age="32" gender="M" description="*********************************************** &lt;br/&gt;13(a)(31), Marijuana: Possession Small Amount&lt;br/&gt;2701(a)(3), Simple Assault - Attempts by Physical Menace&lt;br/&gt;3502, Burglary.&lt;br/&gt;"/><marker lat="40.447063025872758" lng="-79.947284153477952" zone="Zone 4" incidentdate="2014-11-10" incidenttime="01:20:00" incidentnumber="14223465" address="5th Ave &amp; S Neville St" type="ARREST" age="35" gender="F" description="*********************************************** &lt;br/&gt;13(a)(31), Marijuana: Possession Small Amount&lt;br/&gt;3334, Turning Movements and Required Signals.&lt;br/&gt;1501, Drivers Required to be Licensed.&lt;br/&gt;"/><marker lat="40.465878895844689" lng="-79.971028164418385" zone="Zone 2" incidentdate="2014-11-10" incidenttime="09:53:00" incidentnumber="14219077" address="35th St" type="ARREST" age="50" gender="M" description="*********************************************** &lt;br/&gt;3922, Theft by Deception.&lt;br/&gt;"/><marker lat="40.434696587775576" lng="-79.996300985228572" zone="Zone 2" incidentdate="2014-11-10" incidenttime="16:40:00" incidentnumber="14221323" address="600 block First Ave" type="ARREST" age="39" gender="M" description="*********************************************** &lt;br/&gt;2701, Simple Assault.&lt;br/&gt;"/><marker lat="40.461634090147498" lng="-79.963583437996832" zone="Zone 2" incidentdate="2014-11-10" incidenttime="10:35:00" incidentnumber="14223658" address="3600 block Liberty Ave" type="ARREST" age="52" gender="M" description="*********************************************** &lt;br/&gt;13(a)(16), Possession of Controlled Substance&lt;br/&gt;"/><marker lat="40.442689761955755" lng="-79.996613897174697" zone="Zone 2" incidentdate="2014-11-10" incidenttime="00:40:00" incidentnumber="14223454" address="400 block 7th Ave" type="ARREST" age="51" gender="M" description="*********************************************** &lt;br/&gt;3502, Burglary.&lt;br/&gt;3921(a), Theft by Unlawful Taking or Disposition - Movable item&lt;br/&gt;3925, Receiving Stolen Property.&lt;br/&gt;3304, Criminal Mischief.&lt;br/&gt;"/><marker lat="40.468693075773288" lng="-79.961677392158549" zone="Zone 2" incidentdate="2014-11-10" incidenttime="19:30:00" incidentnumber="14223998" address="4000 block Butler St" type="ARREST" age="37" gender="F" description="*********************************************** &lt;br/&gt;13(a)(16), Possession of Controlled Substance&lt;br/&gt;4304(a)(1), Endangering Welfare of Children - Course of Conduct Enhanced&lt;br/&gt;13(a)(32), Paraphernalia - Use or Possession&lt;br/&gt;"/><marker lat="40.396286353748302" lng="-79.998231164273008" zone="Zone 3" incidentdate="2014-11-10" incidenttime="17:47:00" incidentnumber="14223934" address="Saw Mill Run Blvd &amp; Whited St" type="ARREST" age="25" gender="F" description="*********************************************** &lt;br/&gt;13(a)(31), Marijuana: Possession Small Amount&lt;br/&gt;3334, Turning Movements and Required Signals.&lt;br/&gt;13(a)(16), Possession of Controlled Substance&lt;br/&gt;13(a)(32), Paraphernalia - Use or Possession&lt;br/&gt;"/><marker lat="40.399184649147095" lng="-80.025493435297477" zone="Zone 6" incidentdate="2014-11-10" incidenttime="16:30:00" incidentnumber="14223898" address="2500 block West Liberty Ave" type="ARREST" age="20" gender="F" description="*********************************************** &lt;br/&gt;13(a)(16), Possession of Controlled Substance&lt;br/&gt;13(a)(32), Paraphernalia - Use or Possession&lt;br/&gt;"/><marker lat="40.45147201895437" lng="-79.882470302843942" zone="Zone 5" incidentdate="2014-11-10" incidenttime="16:00:00" incidentnumber="14214183" address="600 block Sickles St" type="ARREST" age="57" gender="M" description="*********************************************** &lt;br/&gt;4915, Failure to Comply with Megans Law&lt;br/&gt;"/><marker lat="40.396286353748302" lng="-79.998231164273008" zone="Zone 3" incidentdate="2014-11-10" incidenttime="17:47:00" incidentnumber="14223934" address="Saw Mill Run Blvd &amp; Whited St" type="ARREST" age="25" gender="M" description="*********************************************** &lt;br/&gt;13(a)(31), Marijuana: Possession Small Amount&lt;br/&gt;3334, Turning Movements and Required Signals.&lt;br/&gt;13(a)(16), Possession of Controlled Substance&lt;br/&gt;13(a)(32), Paraphernalia - Use or Possession&lt;br/&gt;"/><marker lat="40.449606365527259" lng="-79.974270684591801" zone="Zone 2" incidentdate="2014-11-10" incidenttime="16:35:00" incidentnumber="14223876" address="2400 block Bedford Ave" type="ARREST" age="27" gender="M" description="*********************************************** &lt;br/&gt;2701, Simple Assault.&lt;br/&gt;"/><marker lat="40.449235901494198" lng="-79.985743331673092" zone="Zone 2" incidentdate="2014-11-10" incidenttime="03:38:00" incidentnumber="14212836" address="1600 block Liberty Ave" type="ARREST" age="53" gender="M" description="*********************************************** &lt;br/&gt;2706, Terroristic Threats.&lt;br/&gt;2709(a)(1), Harassment by Physical Contact, or Attempts or Threats&lt;br/&gt;"/><marker lat="40.459791883188437" lng="-79.902331740764538" zone="Zone 5" incidentdate="2014-11-10" incidenttime="21:58:00" incidentnumber="14224058" address="1000 block Beecher St" type="ARREST" age="27" gender="M" description="*********************************************** &lt;br/&gt;2701, Simple Assault.&lt;br/&gt;"/><marker lat="40.443580942147605" lng="-79.979979097296493" zone="Zone 2" incidentdate="2014-11-10" incidenttime="15:26:00" incidentnumber="14223821" address="2000 block Centre Ave" type="ARREST" age="53" gender="M" description="*********************************************** &lt;br/&gt;9501, Bench Warrant&lt;br/&gt;13(a)(16), Possession of Controlled Substance&lt;br/&gt;13(a)(32), Paraphernalia - Use or Possession&lt;br/&gt;"/><marker lat="40.443315554772433" lng="-79.959560343748407" zone="Zone 4" incidentdate="2014-11-10" incidenttime="13:30:00" incidentnumber="14220577" address="3800 block O Hara St" type="ARREST" age="31" gender="F" description="*********************************************** &lt;br/&gt;3921, Theft by Unlawful Taking or Disposition.&lt;br/&gt;4106, Access Device Fraud&lt;br/&gt;"/><marker lat="40.44599173581787" lng="-79.979351690280666" zone="Zone 2" incidentdate="2014-11-10" incidenttime="15:26:00" incidentnumber="14161003" address="100 block Trent St" type="ARREST" age="53" gender="M" description="*********************************************** &lt;br/&gt;601.08(a), Alcohol or Liquor Consumption on Streets or Sidewalks&lt;br/&gt;13(a)(16), Possession of Controlled Substance&lt;br/&gt;13(a)(32), Paraphernalia - Use or Possession&lt;br/&gt;601.11(a), Littering and Dumping; Any waste, dangerous or detrimental substance upon public property&lt;br/&gt;"/><marker lat="40.399184649147095" lng="-80.025493435297477" zone="Zone 6" incidentdate="2014-11-10" incidenttime="16:24:00" incidentnumber="14223898" address="2500 block West Liberty Ave" type="ARREST" age="27" gender="M" description="*********************************************** &lt;br/&gt;13(a)(16), Possession of Controlled Substance&lt;br/&gt;13(a)(32), Paraphernalia - Use or Possession&lt;br/&gt;"/><marker lat="40.440280966182222" lng="-79.993432845850279" zone="Zone 4" incidentdate="2014-11-10" incidenttime="19:30:00" incidentnumber="14224008" address="5500 block Center Ave" type="ARREST" age="35" gender="F" description="*********************************************** &lt;br/&gt;3929, Retail Theft.&lt;br/&gt;"/><marker lat="40.455049993558632" lng="-80.058271587803674" zone="Zone 6" incidentdate="2014-11-10" incidenttime="17:27:00" incidentnumber="14215700" address="800 block Citadel St" type="ARREST" age="43" gender="M" description="*********************************************** &lt;br/&gt;2701, Simple Assault.&lt;br/&gt;"/><marker lat="40.45938850124044" lng="-80.014854424000518" zone="Zone 1" incidentdate="2014-11-10" incidenttime="20:16:00" incidentnumber="14224036" address="Ehlers Way &amp; Redknap St" type="ARREST" age="20" gender="M" description="*********************************************** &lt;br/&gt;13(a)(16), Possession of Controlled Substance&lt;br/&gt;13(a)(30), Possession w/ Intent to Del. Controlled Substance&lt;br/&gt;"/><marker lat="40.462714632076725" lng="-80.017583867319601" zone="Zone 1" incidentdate="2014-11-10" incidenttime="16:54:00" incidentnumber="14223896" address="800 block Brightridge St" type="ARREST" age="17" gender="M" description="*********************************************** &lt;br/&gt;6110.1, Possesion of Firearm by Minor&lt;br/&gt;1501(A), Valid Drivers License Required&lt;br/&gt;6106, Firearms not to be Carried without a License.&lt;br/&gt;9501, Bench Warrant&lt;br/&gt;3334, Turning Movements and Required Signals.&lt;br/&gt;"/><marker lat="40.417329124689701" lng="-79.990657521906542" zone="Zone 3" incidentdate="2014-11-10" incidenttime="09:50:00" incidentnumber="14146459" address="Jucunda St &amp; Knox Ave" type="ARREST" age="38" gender="M" description="*********************************************** &lt;br/&gt;13(a)(31), Marijuana: Possession Small Amount&lt;br/&gt;3334, Turning Movements and Required Signals.&lt;br/&gt;13(a)(32), Paraphernalia - Use or Possession&lt;br/&gt;9501, Bench Warrant&lt;br/&gt;"/><marker lat="40.410480287734281" lng="-80.027436745382445" zone="Zone 6" incidentdate="2014-11-10" incidenttime="21:01:00" incidentnumber="14224055" address="Belasco Ave &amp; Hampshire Ave" type="ARREST" age="30" gender="M" description="*********************************************** &lt;br/&gt;1543, Driving While Operating Privilege is Suspended or Revoked.&lt;br/&gt;3334, Turning Movements and Required Signals.&lt;br/&gt;3802(a)(1), DUI - General Impairment&lt;br/&gt;3802(c), DUI - Highest Rate of Alcohol - BAC &gt;= .16%&lt;br/&gt;"/></markers>
