<?xml version="1.0"?>
<markers><marker lat="40.441772984812665" lng="-80.001620450643472" zone="Zone 2" incidentdate="2015-03-30" incidenttime="02:55:00" incidentnumber="15054472" address="600 block Liberty Ave" type="OFFENSE" age="" gender="" description="*********************************************** &lt;br/&gt;9497, Aided Case&lt;br/&gt;"/><marker lat="40.468038013634285" lng="-79.925100351039873" zone="Zone 5" incidentdate="2015-03-30" incidenttime="13:40:00" incidentnumber="15054707" address="600 block N St Clair St" type="OFFENSE" age="" gender="" description="*********************************************** &lt;br/&gt;9093, Indirect Criminal Contempt&lt;br/&gt;"/><marker lat="40.427437615691389" lng="-79.982143994013811" zone="Zone 3" incidentdate="2015-03-30" incidenttime="03:15:00" incidentnumber="15054598" address="1700 block Larkins Way" type="OFFENSE" age="" gender="" description="*********************************************** &lt;br/&gt;2701, Simple Assault.&lt;br/&gt;"/><marker lat="40.4589746" lng="-79.9146639" zone="Zone 5" incidentdate="2015-03-30" incidenttime="10:05:00" incidentnumber="15054626" address="100 block Enterprise St" type="OFFENSE" age="" gender="" description="*********************************************** &lt;br/&gt;9501, Bench Warrant&lt;br/&gt;"/><marker lat="40.421531877189601" lng="-79.993577564166102" zone="Zone 3" incidentdate="2015-03-30" incidenttime="17:00:00" incidentnumber="15054796" address="800 block E Warrington Ave" type="OFFENSE" age="" gender="" description="*********************************************** &lt;br/&gt;13(a)(16), Possession of Controlled Substance&lt;br/&gt;13(a)(30)*, Delivery of Controlled Substance&lt;br/&gt;13(a)(30), Possession w/ Intent to Del. Controlled Substance&lt;br/&gt;"/><marker lat="40.45235120150376" lng="-79.960240045529005" zone="Zone 2" incidentdate="2015-03-30" incidenttime="20:07:00" incidentnumber="15054994" address="800 block Bryn Mawr Rd" type="OFFENSE" age="" gender="" description="*********************************************** &lt;br/&gt;2702, Aggravated Assault.&lt;br/&gt;2705, Recklessly Endangering Another Person.&lt;br/&gt;"/><marker lat="40.468674296551669" lng="-80.019410650093789" zone="Zone 1" incidentdate="2015-03-30" incidenttime="16:15:00" incidentnumber="15054809" address="Irwin Ave &amp; Marshall Ave" type="OFFENSE" age="" gender="" description="*********************************************** &lt;br/&gt;13(a)(16), Possession of Controlled Substance&lt;br/&gt;4910, Tampering with or Fabricating Physical Evidence.&lt;br/&gt;13(a)(30), Possession w/ Intent to Del. Controlled Substance&lt;br/&gt;5121, Escape.&lt;br/&gt;5126, Flight to Avoid Apprehension, Trial or Punishment.&lt;br/&gt;5104, Resisting Arrest or Other Law Enforcement.&lt;br/&gt;"/><marker lat="40.437778047215012" lng="-80.000179900212117" zone="Zone 2" incidentdate="2015-03-30" incidenttime="20:25:00" incidentnumber="15054987" address="Blvd Of The Allies &amp; Smithfield St" type="OFFENSE" age="" gender="" description="*********************************************** &lt;br/&gt;601.08(a), Alcohol or Liquor Consumption on Streets or Sidewalks&lt;br/&gt;5503, Disorderly Conduct.&lt;br/&gt;5505, Public Drunkenness&lt;br/&gt;5503(a)(3), DISORDERLY CONDUCT - OBSCENE LANG/GEST&lt;br/&gt;"/><marker lat="40.429369378144116" lng="-79.986184210410613" zone="Zone 3" incidentdate="2015-03-30" incidenttime="09:45:00" incidentnumber="15054658" address="1200 block Bingham St" type="OFFENSE" age="" gender="" description="*********************************************** &lt;br/&gt;3304, Criminal Mischief.&lt;br/&gt;"/><marker lat="40.455109037149178" lng="-80.0010590994724" zone="Zone 1" incidentdate="2015-03-30" incidenttime="16:32:00" incidentnumber="15054825" address="900 block James St" type="OFFENSE" age="" gender="" description="*********************************************** &lt;br/&gt;5503(a)(3), DISORDERLY CONDUCT - OBSCENE LANG/GEST&lt;br/&gt;"/><marker lat="40.45959345546428" lng="-80.008617887384787" zone="Zone 1" incidentdate="2015-03-30" incidenttime="06:50:00" incidentnumber="15054607" address="100 block E Jefferson Ave" type="OFFENSE" age="" gender="" description="*********************************************** &lt;br/&gt;029, Missing Juvenile&lt;br/&gt;"/><marker lat="40.443610698976059" lng="-79.998043561602501" zone="Zone 2" incidentdate="2015-03-30" incidenttime="03:17:00" incidentnumber="15054515" address="900 block Penn Ave" type="OFFENSE" age="" gender="" description="*********************************************** &lt;br/&gt;2701, Simple Assault.&lt;br/&gt;"/><marker lat="40.482879021356389" lng="-80.04453300763744" zone="Zone 1" incidentdate="2015-03-30" incidenttime="23:21:00" incidentnumber="15055075" address="2000 block Termon Ave" type="OFFENSE" age="" gender="" description="*********************************************** &lt;br/&gt;9490, Missing Persons (18 and Over)&lt;br/&gt;"/><marker lat="40.448391484108782" lng="-80.019990367623521" zone="Zone 1" incidentdate="2015-03-30" incidenttime="16:00:00" incidentnumber="15054871" address="1200 block Reedsdale St" type="OFFENSE" age="" gender="" description="*********************************************** &lt;br/&gt;3745, Accidents Involving Damage to Unattended Veh.or Prop.&lt;br/&gt;"/><marker lat="40.428988497790407" lng="-80.006372571736293" zone="Zone 3" incidentdate="2015-03-30" incidenttime="16:02:00" incidentnumber="15054799" address="Wyoming St &amp; Virginia Ave" type="OFFENSE" age="" gender="" description="*********************************************** &lt;br/&gt;9999, 9999 - (Misc. Incident):&lt;br/&gt;"/><marker lat="40.443717440034348" lng="-79.975007974965493" zone="Zone 2" incidentdate="2015-03-30" incidenttime="09:00:00" incidentnumber="15054762" address="200 block Kirkpatrick St" type="OFFENSE" age="" gender="" description="*********************************************** &lt;br/&gt;3921, Theft by Unlawful Taking or Disposition.&lt;br/&gt;"/><marker lat="40.425454291250588" lng="-80.001881098716694" zone="Zone 3" incidentdate="2015-03-30" incidenttime="20:56:00" incidentnumber="15055025" address="300 block Kathleen St" type="OFFENSE" age="" gender="" description="*********************************************** &lt;br/&gt;029, Missing Juvenile&lt;br/&gt;"/><marker lat="40.410402283250804" lng="-80.003448550673156" zone="Zone 3" incidentdate="2015-03-30" incidenttime="11:00:00" incidentnumber="15054651" address="Bon Air Ave &amp; Roseton Ave" type="OFFENSE" age="" gender="" description="*********************************************** &lt;br/&gt;3503, Criminal Trespass&lt;br/&gt;"/><marker lat="40.45979691938664" lng="-79.930077083856162" zone="Zone 5" incidentdate="2015-03-30" incidenttime="13:00:00" incidentnumber="15054782" address="5700 block Friendship Ave" type="OFFENSE" age="" gender="" description="*********************************************** &lt;br/&gt;3304, Criminal Mischief.&lt;br/&gt;"/><marker lat="40.451886064859721" lng="-79.893623533834429" zone="Zone 5" incidentdate="2015-03-30" incidenttime="17:35:00" incidentnumber="15054885" address="N Richland St &amp; Susquehanna St" type="OFFENSE" age="" gender="" description="*********************************************** &lt;br/&gt;13(a)(31), Marijuana: Possession Small Amount&lt;br/&gt;3925, Receiving Stolen Property.&lt;br/&gt;13(a)(32), Paraphernalia - Use or Possession&lt;br/&gt;6106, Firearms not to be Carried without a License.&lt;br/&gt;"/><marker lat="40.459241184494772" lng="-80.005548013998464" zone="Zone 1" incidentdate="2015-03-30" incidenttime="18:38:00" incidentnumber="15054947" address="1600 block Sandusky Ct" type="OFFENSE" age="" gender="" description="*********************************************** &lt;br/&gt;3925, Receiving Stolen Property.&lt;br/&gt;"/><marker lat="40.410583483136172" lng="-79.990322206466757" zone="Zone 3" incidentdate="2015-03-30" incidenttime="20:10:00" incidentnumber="15054990" address="Knox Ave &amp; Brownsville Rd" type="OFFENSE" age="" gender="" description="*********************************************** &lt;br/&gt;3334, Turning Movements and Required Signals.&lt;br/&gt;1543, Driving While Operating Privilege is Suspended or Revoked.&lt;br/&gt;3309, Driving on Roadways Laned for Traffic.&lt;br/&gt;3802(a)(1), DUI - General Impairment&lt;br/&gt;"/><marker lat="40.463033445993744" lng="-80.017561220276207" zone="Zone 1" incidentdate="2015-03-30" incidenttime="00:01:00" incidentnumber="15054920" address="800 block Melrose Ave" type="OFFENSE" age="" gender="" description="*********************************************** &lt;br/&gt;9999, 9999 - (Misc. Incident):&lt;br/&gt;"/><marker lat="40.45493173032483" lng="-80.010796490212854" zone="Zone 5" incidentdate="2015-03-30" incidenttime="18:30:00" incidentnumber="15054967" address="400 block N.Fairmount St" type="OFFENSE" age="" gender="" description="*********************************************** &lt;br/&gt;029, Missing Juvenile&lt;br/&gt;"/><marker lat="40.420581504706846" lng="-79.927044846152171" zone="Zone 4" incidentdate="2015-03-30" incidenttime="07:00:00" incidentnumber="15054563" address="3400 block Beechwood Blvd" type="OFFENSE" age="" gender="" description="*********************************************** &lt;br/&gt;3934, Theft from Vehicle&lt;br/&gt;"/><marker lat="40.396478532897227" lng="-80.015610049594798" zone="Zone 6" incidentdate="2015-03-30" incidenttime="15:00:00" incidentnumber="15054786" address="2300 block Glenarm Ave" type="OFFENSE" age="" gender="" description="*********************************************** &lt;br/&gt;9504, Lost Property&lt;br/&gt;"/><marker lat="40.438724717539678" lng="-79.999543937630378" zone="Zone 2" incidentdate="2015-03-30" incidenttime="13:50:00" incidentnumber="15054750" address="Smithfield St &amp; 4th Ave" type="OFFENSE" age="" gender="" description="*********************************************** &lt;br/&gt;9093, Indirect Criminal Contempt&lt;br/&gt;"/><marker lat="40.44608960903679" lng="-79.893619929343828" zone="Zone 4" incidentdate="2015-03-30" incidenttime="19:52:00" incidentnumber="15054991" address="7700 block Penn Ave" type="OFFENSE" age="" gender="" description="*********************************************** &lt;br/&gt;3929(a)(1), Retail Theft; takes possession of, carries away, or transfers displayed merchandise&lt;br/&gt;"/><marker lat="40.465578462020446" lng="-80.033501723369454" zone="Zone 1" incidentdate="2015-03-30" incidenttime="02:00:00" incidentnumber="15054877" address="2600 block California Ave" type="OFFENSE" age="" gender="" description="*********************************************** &lt;br/&gt;3922, Theft by Deception.&lt;br/&gt;4101, Forgery.&lt;br/&gt;"/><marker lat="40.471174791499628" lng="-80.008447805705202" zone="Zone 1" incidentdate="2015-03-30" incidenttime="15:26:00" incidentnumber="15054768" address="2600 block Perrysville Ave" type="OFFENSE" age="" gender="" description="*********************************************** &lt;br/&gt;9496, Dead on Arrival (DOA)&lt;br/&gt;"/><marker lat="40.456857731813045" lng="-79.97561394965723" zone="Zone 2" incidentdate="2015-03-30" incidenttime="00:15:00" incidentnumber="15054443" address="28th St &amp; Penn Ave" type="OFFENSE" age="" gender="" description="*********************************************** &lt;br/&gt;9122, Miscellaneous Fire Vehicle Investigation to Continue&lt;br/&gt;"/><marker lat="40.469746045416137" lng="-79.992561977376411" zone="Zone 1" incidentdate="2015-03-30" incidenttime="13:30:00" incidentnumber="15054711" address="1300 block Romanhoff St" type="OFFENSE" age="" gender="" description="*********************************************** &lt;br/&gt;3304, Criminal Mischief.&lt;br/&gt;3503, Criminal Trespass&lt;br/&gt;"/><marker lat="40.484550069346753" lng="-80.035692783449747" zone="Zone 1" incidentdate="2015-03-30" incidenttime="09:44:00" incidentnumber="15054603" address="3800 block Brighton Rd" type="OFFENSE" age="" gender="" description="*********************************************** &lt;br/&gt;029, Missing Juvenile&lt;br/&gt;"/><marker lat="40.486117473705356" lng="-80.033424857721329" zone="Zone 1" incidentdate="2015-03-30" incidenttime="14:18:00" incidentnumber="15054726" address="1200 block Benton Ave" type="OFFENSE" age="" gender="" description="*********************************************** &lt;br/&gt;9496, Dead on Arrival (DOA)&lt;br/&gt;"/><marker lat="40.4274771168228" lng="-79.969817626401067" zone="Zone 3" incidentdate="2015-03-30" incidenttime="01:23:00" incidentnumber="15054465" address="2500 block E Carson St" type="OFFENSE" age="" gender="" description="*********************************************** &lt;br/&gt;2701, Simple Assault.&lt;br/&gt;"/><marker lat="40.393515742313681" lng="-80.020021227154487" zone="Zone 6" incidentdate="2015-03-30" incidenttime="16:14:00" incidentnumber="15054805" address="800 block Brookline Blvd" type="OFFENSE" age="" gender="" description="*********************************************** &lt;br/&gt;3922, Theft by Deception.&lt;br/&gt;"/><marker lat="40.413244662079144" lng="-79.989125551697001" zone="Zone 3" incidentdate="2015-03-30" incidenttime="16:15:00" incidentnumber="15054822" address="400 block Brownsville Rd" type="OFFENSE" age="" gender="" description="*********************************************** &lt;br/&gt;3701, Robbery.&lt;br/&gt;"/><marker lat="40.450901096519573" lng="-79.930622154707279" zone="Zone 5" incidentdate="2015-03-30" incidenttime="18:21:00" incidentnumber="15054927" address="900 block N Negley Ave" type="OFFENSE" age="" gender="" description="*********************************************** &lt;br/&gt;029, Missing Juvenile&lt;br/&gt;"/><marker lat="40.464774823811233" lng="-79.942733938845166" zone="Zone 5" incidentdate="2015-03-30" incidenttime="19:18:00" incidentnumber="15054964" address="5100 block Penn Ave" type="OFFENSE" age="" gender="" description="*********************************************** &lt;br/&gt;13(a)(32), Paraphernalia - Use or Possession&lt;br/&gt;1543, Driving While Operating Privilege is Suspended or Revoked.&lt;br/&gt;"/><marker lat="40.481037596329635" lng="-79.951073224510111" zone="Zone 2" incidentdate="2015-03-30" incidenttime="21:34:00" incidentnumber="15055039" address="500 block 53rd St" type="OFFENSE" age="" gender="" description="*********************************************** &lt;br/&gt;2702, Aggravated Assault.&lt;br/&gt;2706, Terroristic Threats.&lt;br/&gt;5104, Resisting Arrest or Other Law Enforcement.&lt;br/&gt;907, Possessing Instruments of Crime.&lt;br/&gt;"/><marker lat="40.435311914472358" lng="-80.013016379716703" zone="Zone 3" incidentdate="2015-03-30" incidenttime="03:00:00" incidentnumber="15054645" address="100 block Merrimac St" type="OFFENSE" age="" gender="" description="*********************************************** &lt;br/&gt;3304, Criminal Mischief.&lt;br/&gt;"/><marker lat="40.477537517009949" lng="-80.011960473615261" zone="Zone 1" incidentdate="2015-03-30" incidenttime="22:43:00" incidentnumber="15055065" address="3100 block Perrysville Ave" type="OFFENSE" age="" gender="" description="*********************************************** &lt;br/&gt;029, Missing Juvenile&lt;br/&gt;"/><marker lat="40.428774956879735" lng="-79.985327098327147" zone="Zone 3" incidentdate="2015-03-30" incidenttime="17:55:00" incidentnumber="15054907" address="S 13th St &amp; E Carson St" type="OFFENSE" age="" gender="" description="*********************************************** &lt;br/&gt;5505, Public Drunkenness&lt;br/&gt;"/><marker lat="40.458644278048141" lng="-79.935291901990524" zone="Zone 5" incidentdate="2015-03-30" incidenttime="21:15:00" incidentnumber="15055034" address="400 block Roup Ave" type="OFFENSE" age="" gender="" description="*********************************************** &lt;br/&gt;3503(b.1)(1)(iii), Criminal Trespass/Simple Trespasser - Defacing or Damaging the Premises&lt;br/&gt;"/><marker lat="40.476263858787377" lng="-80.01145044242233" zone="Zone 1" incidentdate="2015-03-30" incidenttime="21:15:00" incidentnumber="15055031" address="3000 block Viola St" type="OFFENSE" age="" gender="" description="*********************************************** &lt;br/&gt;2701, Simple Assault.&lt;br/&gt;"/><marker lat="40.468580624202609" lng="-79.931567288462247" zone="Zone 5" incidentdate="2015-03-30" incidenttime="13:25:00" incidentnumber="15054691" address="5000 block Columbo St" type="OFFENSE" age="" gender="" description="*********************************************** &lt;br/&gt;2707.1, Discharge of a Firearm into Occupied Structure&lt;br/&gt;3925, Receiving Stolen Property.&lt;br/&gt;6105(a)(1), Persons not to possess, use, manufacture, control, sell or transfer firearms: Former convict enumerated in subsection (b)&lt;br/&gt;"/><marker lat="40.439140768201945" lng="-80.0011699789804" zone="Zone 2" incidentdate="2015-03-30" incidenttime="16:22:00" incidentnumber="15054798" address="300 block 4th Ave" type="OFFENSE" age="" gender="" description="*********************************************** &lt;br/&gt;3304, Criminal Mischief.&lt;br/&gt;3503, Criminal Trespass&lt;br/&gt;"/><marker lat="40.438721756509537" lng="-79.999466085108594" zone="Zone 2" incidentdate="2015-03-30" incidenttime="10:15:00" incidentnumber="15054605" address="400 block Smithfield St" type="OFFENSE" age="" gender="" description="*********************************************** &lt;br/&gt;7513, Restriction on Alcoholic Beverages - Open Container&lt;br/&gt;5505, Public Drunkenness&lt;br/&gt;"/><marker lat="40.464593109711267" lng="-80.01674321254275" zone="Zone 1" incidentdate="2015-03-30" incidenttime="15:45:00" incidentnumber="15054878" address="600 block Chautauqua St" type="OFFENSE" age="" gender="" description="*********************************************** &lt;br/&gt;029, Missing Juvenile&lt;br/&gt;"/><marker lat="40.442888113190847" lng="-79.997936520552642" zone="Zone 2" incidentdate="2015-03-30" incidenttime="21:50:00" incidentnumber="15055048" address="900 block Liberty Ave" type="OFFENSE" age="" gender="" description="*********************************************** &lt;br/&gt;2702, Aggravated Assault.&lt;br/&gt;"/><marker lat="40.459688465567837" lng="-80.021704305270404" zone="Zone 1" incidentdate="2015-03-30" incidenttime="15:40:00" incidentnumber="15054790" address="1000 block kirkbride St" type="OFFENSE" age="" gender="" description="*********************************************** &lt;br/&gt;2709(a)(3), Harassment No Legitimate Purpose&lt;br/&gt;"/><marker lat="40.4533782" lng="-80.0011095" zone="Zone 1" incidentdate="2015-03-30" incidenttime="19:10:00" incidentnumber="15054942" address="East Ohio St &amp; Moravian St" type="OFFENSE" age="" gender="" description="*********************************************** &lt;br/&gt;5503, Disorderly Conduct.&lt;br/&gt;5505, Public Drunkenness&lt;br/&gt;"/><marker lat="40.4524095" lng="-80.0708178" zone="Zone 6" incidentdate="2015-03-30" incidenttime="19:54:00" incidentnumber="15054981" address="1300 block Evanston St" type="OFFENSE" age="" gender="" description="*********************************************** &lt;br/&gt;8106, Shots Fired&lt;br/&gt;"/><marker lat="40.4782375" lng="-79.9026873" zone="Zone 5" incidentdate="2015-03-30" incidenttime="14:05:00" incidentnumber="15054751" address="7000 block Highland Dr" type="OFFENSE" age="" gender="" description="*********************************************** &lt;br/&gt;9999, 9999 - (Misc. Incident):&lt;br/&gt;"/><marker lat="40.397051463780805" lng="-79.989229526609222" zone="Zone 3" incidentdate="2015-03-30" incidenttime="19:56:00" incidentnumber="15054983" address="100 block Newett St" type="OFFENSE" age="" gender="" description="*********************************************** &lt;br/&gt;3502, Burglary.&lt;br/&gt;"/><marker lat="40.464957273895322" lng="-80.011286115045522" zone="Zone 1" incidentdate="2015-03-30" incidenttime="21:30:00" incidentnumber="15055018" address="2200 block Perrysville Ave" type="OFFENSE" age="" gender="" description="*********************************************** &lt;br/&gt;3304, Criminal Mischief.&lt;br/&gt;"/><marker lat="40.4703628" lng="-80.0291956" zone="Zone 1" incidentdate="2015-03-30" incidenttime="08:00:00" incidentnumber="15054660" address="3800 block Breker St" type="OFFENSE" age="" gender="" description="*********************************************** &lt;br/&gt;3304, Criminal Mischief.&lt;br/&gt;"/><marker lat="40.484550069346753" lng="-80.035692783449747" zone="Zone 1" incidentdate="2015-03-30" incidenttime="09:44:00" incidentnumber="15054604" address="3800 block Brighton Rd" type="OFFENSE" age="" gender="" description="*********************************************** &lt;br/&gt;9490, Missing Persons (18 and Over)&lt;br/&gt;"/><marker lat="40.466922169053831" lng="-80.01885858168292" zone="Zone 1" incidentdate="2015-03-30" incidenttime="16:30:00" incidentnumber="15055122" address="2500 block N Charles St" type="OFFENSE" age="" gender="" description="*********************************************** &lt;br/&gt;029, Missing Juvenile&lt;br/&gt;"/><marker lat="40.459241184494772" lng="-80.005548013998464" zone="Zone 1" incidentdate="2015-03-30" incidenttime="18:55:00" incidentnumber="15054947" address="1600 block Sandusky Ct" type="ARREST" age="31" gender="M" description="*********************************************** &lt;br/&gt;3925, Receiving Stolen Property.&lt;br/&gt;"/><marker lat="40.410583483136172" lng="-79.990322206466757" zone="Zone 3" incidentdate="2015-03-30" incidenttime="20:10:00" incidentnumber="15054990" address="Knox Ave &amp; Brownsville Rd" type="ARREST" age="47" gender="M" description="*********************************************** &lt;br/&gt;3334, Turning Movements and Required Signals.&lt;br/&gt;1543, Driving While Operating Privilege is Suspended or Revoked.&lt;br/&gt;3309, Driving on Roadways Laned for Traffic.&lt;br/&gt;3802(a)(1), DUI - General Impairment&lt;br/&gt;"/><marker lat="40.468580624202609" lng="-79.931567288462247" zone="Zone 5" incidentdate="2015-03-30" incidenttime="13:28:00" incidentnumber="15054691" address="5000 block Columbo St" type="ARREST" age="30" gender="M" description="*********************************************** &lt;br/&gt;2707.1, Discharge of a Firearm into Occupied Structure&lt;br/&gt;3925, Receiving Stolen Property.&lt;br/&gt;6105(a)(1), Persons not to possess, use, manufacture, control, sell or transfer firearms: Former convict enumerated in subsection (b)&lt;br/&gt;"/><marker lat="40.464774823811233" lng="-79.942733938845166" zone="Zone 5" incidentdate="2015-03-30" incidenttime="19:30:00" incidentnumber="15054964" address="5100 block Penn Ave" type="ARREST" age="26" gender="M" description="*********************************************** &lt;br/&gt;13(a)(32), Paraphernalia - Use or Possession&lt;br/&gt;1543, Driving While Operating Privilege is Suspended or Revoked.&lt;br/&gt;"/><marker lat="40.434696587775576" lng="-79.996300985228572" zone="Zone 2" incidentdate="2015-03-30" incidenttime="09:25:00" incidentnumber="15024414" address="600 block 1st Ave" type="ARREST" age="32" gender="F" description="*********************************************** &lt;br/&gt;3802(a)(1), DUI - General Impairment&lt;br/&gt;"/><marker lat="40.434696587775576" lng="-79.996300985228572" zone="Zone 2" incidentdate="2015-03-30" incidenttime="16:30:00" incidentnumber="15045479" address="600 block 1st Ave" type="ARREST" age="25" gender="M" description="*********************************************** &lt;br/&gt;2701, Simple Assault.&lt;br/&gt;2902, Unlawful Restraint.&lt;br/&gt;"/><marker lat="40.468038013634285" lng="-79.925100351039873" zone="Zone 5" incidentdate="2015-03-30" incidenttime="13:50:00" incidentnumber="15054707" address="600 block N St Clair St" type="ARREST" age="30" gender="F" description="*********************************************** &lt;br/&gt;9093, Indirect Criminal Contempt&lt;br/&gt;"/><marker lat="40.474302923037143" lng="-80.010427541459791" zone="Zone 1" incidentdate="2015-03-30" incidenttime="21:43:00" incidentnumber="15051653" address="Perrysville Ave &amp; Kennedy Ave" type="ARREST" age="18" gender="M" description="*********************************************** &lt;br/&gt;3743, Accidents Involving Damage to Attended Veh. or Property&lt;br/&gt;"/><marker lat="40.481037596329635" lng="-79.951073224510111" zone="Zone 2" incidentdate="2015-03-30" incidenttime="21:41:00" incidentnumber="15055039" address="500 block 53rd St" type="ARREST" age="27" gender="M" description="*********************************************** &lt;br/&gt;2702, Aggravated Assault.&lt;br/&gt;2706, Terroristic Threats.&lt;br/&gt;5104, Resisting Arrest or Other Law Enforcement.&lt;br/&gt;907, Possessing Instruments of Crime.&lt;br/&gt;"/><marker lat="40.468674296551669" lng="-80.019410650093789" zone="Zone 1" incidentdate="2015-03-30" incidenttime="16:17:00" incidentnumber="15054809" address="Irwin Ave &amp; Marshall Ave" type="ARREST" age="15" gender="M" description="*********************************************** &lt;br/&gt;13(a)(16), Possession of Controlled Substance&lt;br/&gt;4910, Tampering with or Fabricating Physical Evidence.&lt;br/&gt;13(a)(30), Possession w/ Intent to Del. Controlled Substance&lt;br/&gt;5121, Escape.&lt;br/&gt;5126, Flight to Avoid Apprehension, Trial or Punishment.&lt;br/&gt;5104, Resisting Arrest or Other Law Enforcement.&lt;br/&gt;"/><marker lat="40.451886064859721" lng="-79.893623533834429" zone="Zone 5" incidentdate="2015-03-30" incidenttime="17:35:00" incidentnumber="15054885" address="N Richland St &amp; Susquehanna St" type="ARREST" age="20" gender="M" description="*********************************************** &lt;br/&gt;13(a)(31), Marijuana: Possession Small Amount&lt;br/&gt;3925, Receiving Stolen Property.&lt;br/&gt;13(a)(32), Paraphernalia - Use or Possession&lt;br/&gt;6106, Firearms not to be Carried without a License.&lt;br/&gt;"/><marker lat="40.442888113190847" lng="-79.997936520552642" zone="Zone 2" incidentdate="2015-03-30" incidenttime="22:00:00" incidentnumber="15055048" address="900 block Liberty Ave" type="ARREST" age="15" gender="F" description="*********************************************** &lt;br/&gt;2702, Aggravated Assault.&lt;br/&gt;"/><marker lat="40.455273086676286" lng="-80.008870414965187" zone="Zone 1" incidentdate="2015-03-30" incidenttime="08:55:00" incidentnumber="15044342" address="200 block North Shore Dr" type="ARREST" age="21" gender="F" description="*********************************************** &lt;br/&gt;2702, Aggravated Assault.&lt;br/&gt;"/><marker lat="40.434696587775576" lng="-79.996300985228572" zone="Zone 2" incidentdate="2015-03-30" incidenttime="10:00:00" incidentnumber="15051570" address="600 block 1st Ave" type="ARREST" age="25" gender="M" description="*********************************************** &lt;br/&gt;4304(a)(1) Enhanced, Welfare of Children - Course of Conduct&lt;br/&gt;13(a)(16), Possession of Controlled Substance&lt;br/&gt;"/><marker lat="40.4589746" lng="-79.9146639" zone="Zone 5" incidentdate="2015-03-30" incidenttime="10:05:00" incidentnumber="15054626" address="100 block Enterprise St" type="ARREST" age="64" gender="M" description="*********************************************** &lt;br/&gt;9501, Bench Warrant&lt;br/&gt;"/><marker lat="40.4274771168228" lng="-79.969817626401067" zone="Zone 3" incidentdate="2015-03-30" incidenttime="23:10:00" incidentnumber="15054465" address="2500 block E Carson St" type="ARREST" age="51" gender="F" description="*********************************************** &lt;br/&gt;2701, Simple Assault.&lt;br/&gt;"/><marker lat="40.437778047215012" lng="-80.000179900212117" zone="Zone 2" incidentdate="2015-03-30" incidenttime="20:25:00" incidentnumber="15054987" address="Blvd Of The Allies &amp; Smithfield St" type="ARREST" age="41" gender="M" description="*********************************************** &lt;br/&gt;601.08(a), Alcohol or Liquor Consumption on Streets or Sidewalks&lt;br/&gt;5503, Disorderly Conduct.&lt;br/&gt;5505, Public Drunkenness&lt;br/&gt;5503(a)(3), DISORDERLY CONDUCT - OBSCENE LANG/GEST&lt;br/&gt;"/><marker lat="40.403292274900615" lng="-79.99407497602995" zone="Zone 3" incidentdate="2015-03-30" incidenttime="10:15:00" incidentnumber="14208042" address="200 block Minooka St" type="ARREST" age="28" gender="F" description="*********************************************** &lt;br/&gt;2701, Simple Assault.&lt;br/&gt;"/><marker lat="40.4384089" lng="-80.0018784" zone="Zone 2" incidentdate="2015-03-30" incidenttime="09:00:00" incidentnumber="15050937" address="300 block Boulevard of Allies" type="ARREST" age="34" gender="M" description="*********************************************** &lt;br/&gt;13(a)(31), Marijuana: Possession Small Amount&lt;br/&gt;5123, Contraband.&lt;br/&gt;"/><marker lat="40.426505484586301" lng="-79.930912010893039" zone="Zone 4" incidentdate="2015-03-30" incidenttime="19:50:00" incidentnumber="15051159" address="1000 block Mirror St" type="ARREST" age="23" gender="M" description="*********************************************** &lt;br/&gt;13(a)(31)(i), Marijuana - Possess Small Amt for Personal Use&lt;br/&gt;13(a)(32), Paraphernalia - Use or Possession&lt;br/&gt;9999, 9999 - (Misc. Incident):&lt;br/&gt;"/></markers>
