<?xml version="1.0"?>
<markers><marker lat="40.459241184494772" lng="-80.005548013998464" zone="Zone 1" incidentdate="2015-06-22" incidenttime="19:51:00" incidentnumber="15113730" address="1600 block Sandusky Ct" type="OFFENSE" age="" gender="" description="*********************************************** &lt;br/&gt;13(a)(32), Paraphernalia - Use or Possession&lt;br/&gt;13(a)(16), Possession of Controlled Substance&lt;br/&gt;"/><marker lat="40.41863377449144" lng="-80.003960554189277" zone="Zone 3" incidentdate="2015-06-22" incidenttime="10:45:00" incidentnumber="15009179" address="200 block Freeland St" type="OFFENSE" age="" gender="" description="*********************************************** &lt;br/&gt;9490, Missing Persons (18 and Over)&lt;br/&gt;"/><marker lat="40.472345075125851" lng="-79.924095312047569" zone="Zone 5" incidentdate="2015-06-22" incidenttime="20:25:00" incidentnumber="15113763" address="900 block Mellon St" type="OFFENSE" age="" gender="" description="*********************************************** &lt;br/&gt;9093, Indirect Criminal Contempt&lt;br/&gt;"/><marker lat="40.470459852290823" lng="-80.0111378348073" zone="Zone 1" incidentdate="2015-06-22" incidenttime="03:50:00" incidentnumber="14040139" address="2900 block N Charles St" type="OFFENSE" age="" gender="" description="*********************************************** &lt;br/&gt;13(a)(32), Paraphernalia - Use or Possession&lt;br/&gt;13(a)(16), Possession of Controlled Substance&lt;br/&gt;"/><marker lat="40.459059014785993" lng="-80.006851098890138" zone="Zone 1" incidentdate="2015-06-22" incidenttime="15:50:00" incidentnumber="15113560" address="Henderson St &amp; Fountain St" type="OFFENSE" age="" gender="" description="*********************************************** &lt;br/&gt;9501, Bench Warrant&lt;br/&gt;"/><marker lat="40.454307782768687" lng="-79.946518733076431" zone="Zone 5" incidentdate="2015-06-22" incidenttime="10:22:00" incidentnumber="15113406" address="4900 block Baum Blvd" type="OFFENSE" age="" gender="" description="*********************************************** &lt;br/&gt;3934, Theft from Vehicle&lt;br/&gt;3304, Criminal Mischief.&lt;br/&gt;"/><marker lat="40.452540751571284" lng="-80.054392458016892" zone="Zone 6" incidentdate="2015-06-22" incidenttime="07:52:00" incidentnumber="15113318" address="2800 block Chartiers Ave" type="OFFENSE" age="" gender="" description="*********************************************** &lt;br/&gt;9488, False  Burglar Alarm&lt;br/&gt;"/><marker lat="40.393515742313681" lng="-80.020021227154487" zone="Zone 6" incidentdate="2015-06-22" incidenttime="03:35:00" incidentnumber="15113336" address="800 block Brookline Blvd" type="OFFENSE" age="" gender="" description="*********************************************** &lt;br/&gt;2707, Propulsion of Missiles&lt;br/&gt;3304, Criminal Mischief.&lt;br/&gt;"/><marker lat="40.443610698976059" lng="-79.998043561602501" zone="Zone 2" incidentdate="2015-06-22" incidenttime="10:30:00" incidentnumber="15113459" address="900 block Penn Ave" type="OFFENSE" age="" gender="" description="*********************************************** &lt;br/&gt;3304, Criminal Mischief.&lt;br/&gt;"/><marker lat="40.405564913954258" lng="-80.015276974021162" zone="Zone 6" incidentdate="2015-06-22" incidenttime="17:08:00" incidentnumber="15113592" address="1800 block Pioneer Ave" type="OFFENSE" age="" gender="" description="*********************************************** &lt;br/&gt;5503, Disorderly Conduct.&lt;br/&gt;"/><marker lat="40.430837591444103" lng="-80.00741602085877" zone="Zone 3" incidentdate="2015-06-22" incidenttime="20:00:00" incidentnumber="15113761" address="100 block W Sycamore St" type="OFFENSE" age="" gender="" description="*********************************************** &lt;br/&gt;3502, Burglary.&lt;br/&gt;"/><marker lat="40.425836022877668" lng="-79.935679325983173" zone="Zone 4" incidentdate="2015-06-22" incidenttime="08:00:00" incidentnumber="15113525" address="800 block Flemington St" type="OFFENSE" age="" gender="" description="*********************************************** &lt;br/&gt;3934, Theft from Vehicle&lt;br/&gt;"/><marker lat="40.385749622973748" lng="-79.978257668573164" zone="Zone 3" incidentdate="2015-06-22" incidenttime="11:00:00" incidentnumber="15113434" address="Kirk Ave &amp; Churchview Ave" type="OFFENSE" age="" gender="" description="*********************************************** &lt;br/&gt;3921(a), Theft by Unlawful Taking or Disposition - Movable item&lt;br/&gt;"/><marker lat="40.5290761" lng="-80.0255770" zone="Zone 4" incidentdate="2015-06-22" incidenttime="07:30:00" incidentnumber="15113327" address="Hot Metal St Brg &amp; 2nd Ave" type="OFFENSE" age="" gender="" description="*********************************************** &lt;br/&gt;3743, Accidents Involving Damage to Attended Veh. or Property&lt;br/&gt;"/><marker lat="40.46661657932281" lng="-79.995544826762455" zone="Zone 1" incidentdate="2015-06-22" incidenttime="00:09:00" incidentnumber="15113156" address="1100 block Buente St" type="OFFENSE" age="" gender="" description="*********************************************** &lt;br/&gt;9093, Indirect Criminal Contempt&lt;br/&gt;"/><marker lat="40.444154918874105" lng="-80.042742082396941" zone="Zone 6" incidentdate="2015-06-22" incidenttime="10:40:00" incidentnumber="13217245" address="1100 block Crucible St" type="OFFENSE" age="" gender="" description="*********************************************** &lt;br/&gt;029, Missing Juvenile&lt;br/&gt;"/><marker lat="40.456733576465041" lng="-80.062211577627664" zone="Zone 6" incidentdate="2015-06-22" incidenttime="12:00:00" incidentnumber="15113590" address="3300 block Allendale St" type="OFFENSE" age="" gender="" description="*********************************************** &lt;br/&gt;3503, Criminal Trespass&lt;br/&gt;"/><marker lat="40.453542019097064" lng="-80.024666624688436" zone="Zone 1" incidentdate="2015-06-22" incidenttime="08:00:00" incidentnumber="15113334" address="1300 block Sheffield St" type="OFFENSE" age="" gender="" description="*********************************************** &lt;br/&gt;3934, Theft from Vehicle&lt;br/&gt;"/><marker lat="40.4539247715024" lng="-79.997839351546148" zone="Zone 1" incidentdate="2015-06-22" incidenttime="20:25:00" incidentnumber="15113784" address="East St &amp; East Ohio St" type="OFFENSE" age="" gender="" description="*********************************************** &lt;br/&gt;5902(a)(2), Prostitution - Loitering for purpose of&lt;br/&gt;13(a)(16), Possession of Controlled Substance&lt;br/&gt;13(a)(30), Possession w/ Intent to Del. Controlled Substance&lt;br/&gt;13(a)(32), Paraphernalia - Use or Possession&lt;br/&gt;"/><marker lat="40.453147354990151" lng="-79.906889970418121" zone="Zone 4" incidentdate="2015-06-22" incidenttime="20:15:00" incidentnumber="15113741" address="6900 block Thomas St" type="OFFENSE" age="" gender="" description="*********************************************** &lt;br/&gt;3503, Criminal Trespass&lt;br/&gt;"/><marker lat="40.46478538934133" lng="-80.011461117060747" zone="Zone 1" incidentdate="2015-06-22" incidenttime="14:04:00" incidentnumber="15113501" address="100 block Lafayette Ave" type="OFFENSE" age="" gender="" description="*********************************************** &lt;br/&gt;2701, Simple Assault.&lt;br/&gt;"/><marker lat="40.484360562326486" lng="-79.947991867765452" zone="Zone 2" incidentdate="2015-06-22" incidenttime="10:40:00" incidentnumber="13232551" address="5600 block Butler St" type="OFFENSE" age="" gender="" description="*********************************************** &lt;br/&gt;029, Missing Juvenile&lt;br/&gt;"/><marker lat="40.423181653741167" lng="-79.928733488981621" zone="Zone 4" incidentdate="2015-06-22" incidenttime="14:41:00" incidentnumber="15113568" address="4200 block Murray Ave" type="OFFENSE" age="" gender="" description="*********************************************** &lt;br/&gt;4101, Forgery.&lt;br/&gt;"/><marker lat="40.460932831144461" lng="-79.91656706740406" zone="Zone 5" incidentdate="2015-06-22" incidenttime="07:30:00" incidentnumber="15113320" address="400 block Enright Ct" type="OFFENSE" age="" gender="" description="*********************************************** &lt;br/&gt;3745, Accidents Involving Damage to Unattended Veh.or Prop.&lt;br/&gt;"/><marker lat="40.4582470" lng="-79.9977748" zone="Zone 1" incidentdate="2015-06-22" incidenttime="00:30:00" incidentnumber="15113181" address="800 block Vista St" type="OFFENSE" age="" gender="" description="*********************************************** &lt;br/&gt;3502, Burglary.&lt;br/&gt;"/><marker lat="40.469797519042622" lng="-79.960911566729536" zone="Zone 2" incidentdate="2015-06-22" incidenttime="01:44:00" incidentnumber="15113200" address="Butler St &amp; Main St" type="OFFENSE" age="" gender="" description="*********************************************** &lt;br/&gt;2701, Simple Assault.&lt;br/&gt;2709(a)(1), Harassment by Physical Contact, or Attempts or Threats&lt;br/&gt;5505, Public Drunkenness&lt;br/&gt;"/><marker lat="40.46855136676831" lng="-79.906391023787634" zone="Zone 5" incidentdate="2015-06-22" incidenttime="03:01:00" incidentnumber="15113236" address="6400 block Apple Ave" type="OFFENSE" age="" gender="" description="*********************************************** &lt;br/&gt;9999, 9999 - (Misc. Incident):&lt;br/&gt;"/><marker lat="40.439534165811146" lng="-79.99836772444668" zone="Zone 2" incidentdate="2015-06-22" incidenttime="12:40:00" incidentnumber="15113480" address="400 block 5th Ave" type="OFFENSE" age="" gender="" description="*********************************************** &lt;br/&gt;3929, Retail Theft.&lt;br/&gt;"/><marker lat="40.467088856684526" lng="-79.926169592858798" zone="Zone 5" incidentdate="2015-06-22" incidenttime="11:00:00" incidentnumber="15113847" address="500 block N St Clair St" type="OFFENSE" age="" gender="" description="*********************************************** &lt;br/&gt;029, Missing Juvenile&lt;br/&gt;"/><marker lat="40.465131129353267" lng="-79.919856268206942" zone="Zone 5" incidentdate="2015-06-22" incidenttime="20:05:00" incidentnumber="15113774" address="Negley Run Blvd &amp; East Liberty Blvd" type="OFFENSE" age="" gender="" description="*********************************************** &lt;br/&gt;9501, Bench Warrant&lt;br/&gt;"/><marker lat="40.465217896802983" lng="-79.919894241917731" zone="Zone 5" incidentdate="2015-06-22" incidenttime="01:15:00" incidentnumber="15113146" address="500 block Collins Ave" type="OFFENSE" age="" gender="" description="*********************************************** &lt;br/&gt;9123, Miscellaneous Fire Other Investigation to Continue&lt;br/&gt;"/><marker lat="40.462878492620852" lng="-79.921208520586887" zone="Zone 5" incidentdate="2015-06-22" incidenttime="09:30:00" incidentnumber="15113365" address="6400 block Centre Ave" type="OFFENSE" age="" gender="" description="*********************************************** &lt;br/&gt;2701, Simple Assault.&lt;br/&gt;"/><marker lat="40.444136782158047" lng="-80.000993475333104" zone="Zone 2" incidentdate="2015-06-22" incidenttime="11:34:00" incidentnumber="15113413" address="100 block 7th St" type="OFFENSE" age="" gender="" description="*********************************************** &lt;br/&gt;9488, False  Burglar Alarm&lt;br/&gt;"/><marker lat="40.396473733791389" lng="-80.02661767156647" zone="Zone 6" incidentdate="2015-06-22" incidenttime="23:29:00" incidentnumber="15113882" address="2800 block Fitzhugh Way" type="OFFENSE" age="" gender="" description="*********************************************** &lt;br/&gt;9999, 9999 - (Misc. Incident):&lt;br/&gt;"/><marker lat="40.4196090" lng="-79.9271423" zone="Zone 4" incidentdate="2015-06-22" incidenttime="11:00:00" incidentnumber="15113425" address="4400 block Browns Hill Rd" type="OFFENSE" age="" gender="" description="*********************************************** &lt;br/&gt;3924, Theft of Property Lost, Mislaid or Delivered by Mistake.&lt;br/&gt;"/><marker lat="40.458984469829907" lng="-79.914262427093618" zone="Zone 5" incidentdate="2015-06-22" incidenttime="15:50:00" incidentnumber="15113550" address="6500 block Hamilton Ave" type="OFFENSE" age="" gender="" description="*********************************************** &lt;br/&gt;3304(a)(2), CRIMINAL MISCHIEF- Tamper With Property (So As To Endanger Person or Property)&lt;br/&gt;2702, Aggravated Assault.&lt;br/&gt;3701, Robbery.&lt;br/&gt;2701, Simple Assault.&lt;br/&gt;2706, Terroristic Threats.&lt;br/&gt;"/><marker lat="40.450252629605522" lng="-79.948415670713459" zone="Zone 4" incidentdate="2015-06-22" incidenttime="16:30:00" incidentnumber="15113760" address="4700 block Bayard St" type="OFFENSE" age="" gender="" description="*********************************************** &lt;br/&gt;3921(a), Theft by Unlawful Taking or Disposition - Movable item&lt;br/&gt;"/><marker lat="40.474443657749802" lng="-80.038342227771452" zone="Zone 1" incidentdate="2015-06-22" incidenttime="00:15:00" incidentnumber="15113141" address="Hybla St" type="OFFENSE" age="" gender="" description="*********************************************** &lt;br/&gt;9497, Aided Case&lt;br/&gt;"/><marker lat="40.385442305756953" lng="-79.978801061800922" zone="Zone 3" incidentdate="2015-06-22" incidenttime="14:12:00" incidentnumber="15113521" address="2600 block Brownsville Rd" type="OFFENSE" age="" gender="" description="*********************************************** &lt;br/&gt;9999, 9999 - (Misc. Incident):&lt;br/&gt;"/><marker lat="40.460706790003542" lng="-79.923780776230444" zone="Zone 5" incidentdate="2015-06-22" incidenttime="10:00:00" incidentnumber="15113382" address="6100 block Penn Ave" type="OFFENSE" age="" gender="" description="*********************************************** &lt;br/&gt;3304(a)(4), CRIMINAL MISCHIEF- Intentionally Damage Property (By Graffiti, Aerosol Spray Paint, Broad Tip Marker, or Similar)&lt;br/&gt;"/><marker lat="40.37592381998715" lng="-80.00489856833849" zone="Zone 3" incidentdate="2015-06-22" incidenttime="16:32:00" incidentnumber="15113587" address="2900 block Library Rd" type="OFFENSE" age="" gender="" description="*********************************************** &lt;br/&gt;3929, Retail Theft.&lt;br/&gt;"/><marker lat="40.420658714863414" lng="-79.984906453210314" zone="Zone 3" incidentdate="2015-06-22" incidenttime="19:30:00" incidentnumber="15113723" address="2600 block Quarry St" type="OFFENSE" age="" gender="" description="*********************************************** &lt;br/&gt;9490, Missing Persons (18 and Over)&lt;br/&gt;"/><marker lat="40.463941389966493" lng="-80.028365155940136" zone="Zone 1" incidentdate="2015-06-22" incidenttime="17:00:00" incidentnumber="15113615" address="1300 block Marshall Ave" type="OFFENSE" age="" gender="" description="*********************************************** &lt;br/&gt;3304, Criminal Mischief.&lt;br/&gt;"/><marker lat="40.389098844158625" lng="-80.020097161583493" zone="Zone 6" incidentdate="2015-06-22" incidenttime="21:30:00" incidentnumber="15113840" address="1000 block Fordham St" type="OFFENSE" age="" gender="" description="*********************************************** &lt;br/&gt;029, Missing Juvenile&lt;br/&gt;"/><marker lat="40.457993760545435" lng="-79.904347923055653" zone="Zone 5" incidentdate="2015-06-22" incidenttime="21:16:00" incidentnumber="15113801" address="6900 block Bennett St" type="OFFENSE" age="" gender="" description="*********************************************** &lt;br/&gt;029, Missing Juvenile&lt;br/&gt;"/><marker lat="40.46156778419882" lng="-79.923362577996812" zone="Zone 5" incidentdate="2015-06-22" incidenttime="19:30:00" incidentnumber="15113712" address="Kirkwood St &amp; Sheridan Ave" type="OFFENSE" age="" gender="" description="*********************************************** &lt;br/&gt;5502, Failure of Disorderly Persons to Disperse&lt;br/&gt;2707, Propulsion of Missiles&lt;br/&gt;5503, Disorderly Conduct.&lt;br/&gt;"/><marker lat="40.474216187473878" lng="-79.90827518828867" zone="Zone 5" incidentdate="2015-06-22" incidenttime="07:15:00" incidentnumber="15113307" address="Washington Blvd &amp; Highland Dr" type="OFFENSE" age="" gender="" description="*********************************************** &lt;br/&gt;9501, Bench Warrant&lt;br/&gt;"/><marker lat="40.422869758303747" lng="-79.985528035484521" zone="Zone 3" incidentdate="2015-06-22" incidenttime="02:45:00" incidentnumber="15113222" address="Regina St" type="OFFENSE" age="" gender="" description="*********************************************** &lt;br/&gt;2701, Simple Assault.&lt;br/&gt;"/><marker lat="40.426686767989011" lng="-79.99981738467028" zone="Zone 3" incidentdate="2015-06-22" incidenttime="06:45:00" incidentnumber="15113315" address="400 block Bailey Ave" type="OFFENSE" age="" gender="" description="*********************************************** &lt;br/&gt;3502, Burglary.&lt;br/&gt;"/><marker lat="40.469943169341747" lng="-80.025613240227955" zone="Zone 1" incidentdate="2015-06-22" incidenttime="10:05:00" incidentnumber="15113372" address="Woodland Ave &amp; Brighton Rd" type="OFFENSE" age="" gender="" description="*********************************************** &lt;br/&gt;9999, 9999 - (Misc. Incident):&lt;br/&gt;"/><marker lat="40.4576041" lng="-80.0693392" zone="Zone 6" incidentdate="2015-06-22" incidenttime="17:10:00" incidentnumber="15113641" address="3500 block Centralia St" type="OFFENSE" age="" gender="" description="*********************************************** &lt;br/&gt;3921(a), Theft by Unlawful Taking or Disposition - Movable item&lt;br/&gt;"/><marker lat="40.455211336366823" lng="-79.944202946805945" zone="Zone 4" incidentdate="2015-06-22" incidenttime="01:30:00" incidentnumber="15113199" address="5100 block Baum Blvd" type="OFFENSE" age="" gender="" description="*********************************************** &lt;br/&gt;3502, Burglary.&lt;br/&gt;3921(a), Theft by Unlawful Taking or Disposition - Movable item&lt;br/&gt;"/><marker lat="40.438943794278437" lng="-79.956702987700893" zone="Zone 4" incidentdate="2015-06-22" incidenttime="07:00:00" incidentnumber="15113421" address="300 block Meyran Ave" type="OFFENSE" age="" gender="" description="*********************************************** &lt;br/&gt;3502, Burglary.&lt;br/&gt;"/><marker lat="40.410356742633624" lng="-79.990376092457225" zone="Zone 3" incidentdate="2015-06-22" incidenttime="19:30:00" incidentnumber="15113876" address="200 block Suncrest St" type="OFFENSE" age="" gender="" description="*********************************************** &lt;br/&gt;3502, Burglary.&lt;br/&gt;"/><marker lat="40.426214164942266" lng="-79.967493404707056" zone="Zone 3" incidentdate="2015-06-22" incidenttime="14:15:00" incidentnumber="15113504" address="Sarah St &amp; S 27th St" type="OFFENSE" age="" gender="" description="*********************************************** &lt;br/&gt;3736, Reckless Driving&lt;br/&gt;2705, Recklessly Endangering Another Person.&lt;br/&gt;"/><marker lat="40.453576650351422" lng="-80.026185240772534" zone="Zone 1" incidentdate="2015-06-22" incidenttime="17:41:00" incidentnumber="15113627" address="Manhattan St &amp; Stedman St" type="OFFENSE" age="" gender="" description="*********************************************** &lt;br/&gt;4910, Tampering with or Fabricating Physical Evidence.&lt;br/&gt;13(a)(16), Possession of Controlled Substance&lt;br/&gt;13(a)(32), Paraphernalia - Use or Possession&lt;br/&gt;5507, Obstructing Highways and Passages.&lt;br/&gt;"/><marker lat="40.427189474343436" lng="-79.962488818809746" zone="Zone 3" incidentdate="2015-06-22" incidenttime="07:25:00" incidentnumber="15113389" address="Hot Metal St &amp; S Water St" type="OFFENSE" age="" gender="" description="*********************************************** &lt;br/&gt;3743, Accidents Involving Damage to Attended Veh. or Property&lt;br/&gt;"/><marker lat="40.410441886301861" lng="-80.024947612351937" zone="Zone 6" incidentdate="2015-06-22" incidenttime="14:13:00" incidentnumber="15112843" address="1600 block Broadway Ave" type="OFFENSE" age="" gender="" description="*********************************************** &lt;br/&gt;2709(a)(1), Harassment by Physical Contact, or Attempts or Threats&lt;br/&gt;"/><marker lat="40.441406159731216" lng="-80.002873255548053" zone="Zone 2" incidentdate="2015-06-22" incidenttime="09:52:00" incidentnumber="15113419" address="100 block 5th Ave" type="OFFENSE" age="" gender="" description="*********************************************** &lt;br/&gt;3921(a), Theft by Unlawful Taking or Disposition - Movable item&lt;br/&gt;"/><marker lat="40.4642764" lng="-79.9802776" zone="Zone 1" incidentdate="2015-06-22" incidenttime="17:30:00" incidentnumber="15113632" address="200 block East Ohio St" type="OFFENSE" age="" gender="" description="*********************************************** &lt;br/&gt;3745, Accidents Involving Damage to Unattended Veh.or Prop.&lt;br/&gt;"/><marker lat="40.443469776336613" lng="-80.039682900388073" zone="Zone 6" incidentdate="2015-06-22" incidenttime="12:55:00" incidentnumber="15113465" address="900 block Chartiers Ave" type="OFFENSE" age="" gender="" description="*********************************************** &lt;br/&gt;9488, False  Burglar Alarm&lt;br/&gt;"/><marker lat="40.456731447697983" lng="-80.006873141930313" zone="Zone 1" incidentdate="2015-06-22" incidenttime="15:49:00" incidentnumber="15113598" address="1300 block Federal St N" type="OFFENSE" age="" gender="" description="*********************************************** &lt;br/&gt;9488, False  Burglar Alarm&lt;br/&gt;"/><marker lat="40.42331038902784" lng="-79.94676020586337" zone="Zone 4" incidentdate="2015-06-22" incidenttime="01:03:00" incidentnumber="15113184" address="300 block Kaercher St" type="OFFENSE" age="" gender="" description="*********************************************** &lt;br/&gt;029, Missing Juvenile&lt;br/&gt;"/><marker lat="40.446263051038443" lng="-80.012336576772157" zone="Zone 1" incidentdate="2015-06-22" incidenttime="06:18:00" incidentnumber="15113299" address="400 block North Shore Dr" type="OFFENSE" age="" gender="" description="*********************************************** &lt;br/&gt;9488, False  Burglar Alarm&lt;br/&gt;"/><marker lat="40.440089158070052" lng="-80.000826612356661" zone="Zone 2" incidentdate="2015-06-22" incidenttime="15:00:00" incidentnumber="15113541" address="Wood St &amp; Forbes Ave" type="OFFENSE" age="" gender="" description="*********************************************** &lt;br/&gt;3921, Theft by Unlawful Taking or Disposition.&lt;br/&gt;"/><marker lat="40.457630716648048" lng="-79.891207360257809" zone="Zone 5" incidentdate="2015-06-22" incidenttime="15:00:00" incidentnumber="15113515" address="7400 block Race St" type="OFFENSE" age="" gender="" description="*********************************************** &lt;br/&gt;4120, Identity Theft&lt;br/&gt;"/><marker lat="40.466963717775521" lng="-79.946116121207581" zone="Zone 5" incidentdate="2015-06-22" incidenttime="13:25:00" incidentnumber="15113754" address="Broad St &amp; N Mathilda St" type="OFFENSE" age="" gender="" description="*********************************************** &lt;br/&gt;3745, Accidents Involving Damage to Unattended Veh.or Prop.&lt;br/&gt;"/><marker lat="40.457279218250953" lng="-80.007226502710267" zone="Zone 1" incidentdate="2015-06-22" incidenttime="01:00:00" incidentnumber="15113123" address="Federal St N &amp; Hemlock St" type="OFFENSE" age="" gender="" description="*********************************************** &lt;br/&gt;3323, Stop Signs and Yield Signs.&lt;br/&gt;3322, Vehicle Turning Left.&lt;br/&gt;"/><marker lat="40.4698103" lng="-79.9008370" zone="Zone 5" incidentdate="2015-06-22" incidenttime="11:50:00" incidentnumber="15113430" address="1300 block Nelson St" type="OFFENSE" age="" gender="" description="*********************************************** &lt;br/&gt;9999, 9999 - (Misc. Incident):&lt;br/&gt;"/><marker lat="40.465073165755378" lng="-79.919928417953017" zone="Zone 5" incidentdate="2015-06-22" incidenttime="10:45:00" incidentnumber="15031892" address="6100 block East Liberty Blvd" type="OFFENSE" age="" gender="" description="*********************************************** &lt;br/&gt;2908, Missing Children.&lt;br/&gt;"/><marker lat="40.398115731050765" lng="-79.988481656170734" zone="Zone 3" incidentdate="2015-06-22" incidenttime="19:10:00" incidentnumber="15113713" address="Brownsville Rd &amp; W Cherryhill St" type="OFFENSE" age="" gender="" description="*********************************************** &lt;br/&gt;9999, 9999 - (Misc. Incident):&lt;br/&gt;"/><marker lat="40.425035797063522" lng="-79.938145264191888" zone="Zone 4" incidentdate="2015-06-22" incidenttime="05:00:00" incidentnumber="15113323" address="700 block Greenfield Ave" type="OFFENSE" age="" gender="" description="*********************************************** &lt;br/&gt;3934, Theft from Vehicle&lt;br/&gt;"/><marker lat="40.450892721440539" lng="-80.000843891836467" zone="Zone 1" incidentdate="2015-06-22" incidenttime="14:47:00" incidentnumber="15113535" address="300 block Cedar Ave" type="OFFENSE" age="" gender="" description="*********************************************** &lt;br/&gt;3701, Robbery.&lt;br/&gt;"/><marker lat="40.417639198922828" lng="-79.986391930520824" zone="Zone 3" incidentdate="2015-06-22" incidenttime="17:15:00" incidentnumber="15113648" address="1700 block Arlington Ave" type="OFFENSE" age="" gender="" description="*********************************************** &lt;br/&gt;3502, Burglary.&lt;br/&gt;"/><marker lat="40.417182592784442" lng="-79.991048921847749" zone="Zone 3" incidentdate="2015-06-22" incidenttime="23:45:00" incidentnumber="15113896" address="200 block Jucunda St" type="OFFENSE" age="" gender="" description="*********************************************** &lt;br/&gt;9999, 9999 - (Misc. Incident):&lt;br/&gt;"/><marker lat="40.483410482113293" lng="-80.033613150744969" zone="Zone 1" incidentdate="2015-06-22" incidenttime="08:30:00" incidentnumber="15113721" address="3700 block ATKINS St" type="OFFENSE" age="" gender="" description="*********************************************** &lt;br/&gt;3934, Theft from Vehicle&lt;br/&gt;"/><marker lat="40.459190603440391" lng="-79.927408851895919" zone="Zone 4" incidentdate="2015-06-22" incidenttime="17:28:00" incidentnumber="15113664" address="5900 block Centre Ave" type="OFFENSE" age="" gender="" description="*********************************************** &lt;br/&gt;3929, Retail Theft.&lt;br/&gt;"/><marker lat="40.456633448414188" lng="-79.936435139782176" zone="Zone 5" incidentdate="2015-06-22" incidenttime="04:00:00" incidentnumber="15113352" address="5500 block Centre Ave" type="OFFENSE" age="" gender="" description="*********************************************** &lt;br/&gt;3304, Criminal Mischief.&lt;br/&gt;"/><marker lat="40.421749759775459" lng="-79.93374693375597" zone="Zone 4" incidentdate="2015-06-22" incidenttime="09:00:00" incidentnumber="15113803" address="700 block Melbourne St" type="OFFENSE" age="" gender="" description="*********************************************** &lt;br/&gt;3934, Theft from Vehicle&lt;br/&gt;"/><marker lat="40.45914267315402" lng="-79.909914610137562" zone="Zone 5" incidentdate="2015-06-22" incidenttime="03:16:00" incidentnumber="15113243" address="Frankstown Ave &amp; Finley St" type="OFFENSE" age="" gender="" description="*********************************************** &lt;br/&gt;6106, Firearms not to be Carried without a License.&lt;br/&gt;3334, Turning Movements and Required Signals.&lt;br/&gt;3925, Receiving Stolen Property.&lt;br/&gt;"/><marker lat="40.398934513298627" lng="-79.986221234010259" zone="Zone 3" incidentdate="2015-06-22" incidenttime="23:00:00" incidentnumber="15113924" address="1700 block Leolyn St" type="OFFENSE" age="" gender="" description="*********************************************** &lt;br/&gt;029, Missing Juvenile&lt;br/&gt;"/><marker lat="40.427549072232289" lng="-79.965627057289325" zone="Zone 3" incidentdate="2015-06-22" incidenttime="14:25:00" incidentnumber="15113511" address="2700 block Sidney St" type="OFFENSE" age="" gender="" description="*********************************************** &lt;br/&gt;9999, 9999 - (Misc. Incident):&lt;br/&gt;"/><marker lat="40.425851075405767" lng="-79.935826934054475" zone="Zone 4" incidentdate="2015-06-22" incidenttime="08:00:00" incidentnumber="15113333" address="Flemington St &amp; Graphic St" type="OFFENSE" age="" gender="" description="*********************************************** &lt;br/&gt;3934, Theft from Vehicle&lt;br/&gt;"/><marker lat="40.454937295405998" lng="-80.063695524465615" zone="Zone 6" incidentdate="2015-06-22" incidenttime="06:20:00" incidentnumber="15113298" address="1200 block Faulkner St" type="OFFENSE" age="" gender="" description="*********************************************** &lt;br/&gt;9488, False  Burglar Alarm&lt;br/&gt;"/><marker lat="40.478363988687164" lng="-79.955435483733993" zone="Zone 2" incidentdate="2015-06-22" incidenttime="01:10:00" incidentnumber="15113186" address="5100 block Butler St" type="OFFENSE" age="" gender="" description="*********************************************** &lt;br/&gt;2701, Simple Assault.&lt;br/&gt;"/><marker lat="40.473695455013036" lng="-79.929562941677332" zone="Zone 5" incidentdate="2015-06-22" incidenttime="08:00:00" incidentnumber="15113343" address="5400 block Jackson St" type="OFFENSE" age="" gender="" description="*********************************************** &lt;br/&gt;3934, Theft from Vehicle&lt;br/&gt;"/><marker lat="40.420019068985731" lng="-79.990853184377926" zone="Zone 3" incidentdate="2015-06-22" incidenttime="12:46:00" incidentnumber="15113451" address="Knox Ave" type="OFFENSE" age="" gender="" description="*********************************************** &lt;br/&gt;3304, Criminal Mischief.&lt;br/&gt;"/><marker lat="40.472345075125851" lng="-79.924095312047569" zone="Zone 5" incidentdate="2015-06-22" incidenttime="20:25:00" incidentnumber="15113763" address="900 block Mellon St" type="ARREST" age="53" gender="M" description="*********************************************** &lt;br/&gt;9093, Indirect Criminal Contempt&lt;br/&gt;"/><marker lat="40.453576650351422" lng="-80.026185240772534" zone="Zone 1" incidentdate="2015-06-22" incidenttime="17:41:00" incidentnumber="15113627" address="Manhattan St &amp; Stedman St" type="ARREST" age="31" gender="M" description="*********************************************** &lt;br/&gt;4910, Tampering with or Fabricating Physical Evidence.&lt;br/&gt;13(a)(16), Possession of Controlled Substance&lt;br/&gt;13(a)(32), Paraphernalia - Use or Possession&lt;br/&gt;5507, Obstructing Highways and Passages.&lt;br/&gt;"/><marker lat="40.465963701173017" lng="-80.031894305569097" zone="Zone 1" incidentdate="2015-06-22" incidenttime="14:00:00" incidentnumber="15091534" address="2400 block Toner St" type="ARREST" age="32" gender="F" description="*********************************************** &lt;br/&gt;2701, Simple Assault.&lt;br/&gt;"/><marker lat="40.4405456" lng="-80.0043914" zone="Zone 2" incidentdate="2015-06-22" incidenttime="14:30:00" incidentnumber="15095198" address="600 block Stanwix St" type="ARREST" age="21" gender="F" description="*********************************************** &lt;br/&gt;4106, Access Device Fraud&lt;br/&gt;3921, Theft by Unlawful Taking or Disposition.&lt;br/&gt;"/><marker lat="40.46661657932281" lng="-79.995544826762455" zone="Zone 1" incidentdate="2015-06-22" incidenttime="00:29:00" incidentnumber="15113156" address="1100 block Buente St" type="ARREST" age="30" gender="M" description="*********************************************** &lt;br/&gt;9093, Indirect Criminal Contempt&lt;br/&gt;"/><marker lat="40.46156778419882" lng="-79.923362577996812" zone="Zone 5" incidentdate="2015-06-22" incidenttime="19:36:00" incidentnumber="15113712" address="Kirkwood St &amp; Sheridan Ave" type="ARREST" age="15" gender="M" description="*********************************************** &lt;br/&gt;5502, Failure of Disorderly Persons to Disperse&lt;br/&gt;2707, Propulsion of Missiles&lt;br/&gt;5503, Disorderly Conduct.&lt;br/&gt;"/><marker lat="40.461353731915985" lng="-79.92481731514026" zone="Zone 5" incidentdate="2015-06-22" incidenttime="13:05:00" incidentnumber="15106185" address="6000 block Penn Ave" type="ARREST" age="44" gender="M" description="*********************************************** &lt;br/&gt;5505, Public Drunkenness&lt;br/&gt;2701(a)(3), Simple Assault - Attempts by Physical Menace&lt;br/&gt;"/><marker lat="40.46478538934133" lng="-80.011461117060747" zone="Zone 1" incidentdate="2015-06-22" incidenttime="14:15:00" incidentnumber="15113501" address="100 block Lafayette Ave" type="ARREST" age="21" gender="F" description="*********************************************** &lt;br/&gt;2701, Simple Assault.&lt;br/&gt;"/><marker lat="40.465131129353267" lng="-79.919856268206942" zone="Zone 5" incidentdate="2015-06-22" incidenttime="20:02:00" incidentnumber="15113774" address="Negley Run Blvd &amp; East Liberty Blvd" type="ARREST" age="57" gender="M" description="*********************************************** &lt;br/&gt;9501, Bench Warrant&lt;br/&gt;"/><marker lat="40.450689032019206" lng="-79.935519933188644" zone="Zone OSC" incidentdate="2015-06-22" incidenttime="08:45:00" incidentnumber="14197887" address="400 block Walnut St" type="ARREST" age="53" gender="M" description="*********************************************** &lt;br/&gt;13(a)(31), Marijuana: Possession Small Amount&lt;br/&gt;13(a)(16), Possession of Controlled Substance&lt;br/&gt;13(a)(30), Possession w/ Intent to Del. Controlled Substance&lt;br/&gt;13(a)(32), Paraphernalia - Use or Possession&lt;br/&gt;"/><marker lat="40.45914267315402" lng="-79.909914610137562" zone="Zone 5" incidentdate="2015-06-22" incidenttime="03:16:00" incidentnumber="15113243" address="Frankstown Ave &amp; Finley St" type="ARREST" age="30" gender="M" description="*********************************************** &lt;br/&gt;6106, Firearms not to be Carried without a License.&lt;br/&gt;3334, Turning Movements and Required Signals.&lt;br/&gt;3925, Receiving Stolen Property.&lt;br/&gt;"/><marker lat="40.459406141426165" lng="-80.0520885988266" zone="Zone 6" incidentdate="2015-06-22" incidenttime="13:00:00" incidentnumber="15019253" address="3200 block Sacramento Ave" type="ARREST" age="59" gender="M" description="*********************************************** &lt;br/&gt;3302, Causing or Risking Catastrophe.&lt;br/&gt;9498, 302 (Mental)&lt;br/&gt;901, Criminal Attempt&lt;br/&gt;"/><marker lat="40.46661657932281" lng="-79.995544826762455" zone="Zone 1" incidentdate="2015-06-22" incidenttime="00:29:00" incidentnumber="15110779" address="1100 block Buente St" type="ARREST" age="30" gender="M" description="*********************************************** &lt;br/&gt;2702, Aggravated Assault.&lt;br/&gt;3701, Robbery.&lt;br/&gt;2706, Terroristic Threats.&lt;br/&gt;9093, Indirect Criminal Contempt&lt;br/&gt;"/><marker lat="40.4539247715024" lng="-79.997839351546148" zone="Zone 1" incidentdate="2015-06-22" incidenttime="20:30:00" incidentnumber="15113784" address="East St &amp; East Ohio St" type="ARREST" age="30" gender="F" description="*********************************************** &lt;br/&gt;5902(a)(2), Prostitution - Loitering for purpose of&lt;br/&gt;13(a)(16), Possession of Controlled Substance&lt;br/&gt;13(a)(30), Possession w/ Intent to Del. Controlled Substance&lt;br/&gt;13(a)(32), Paraphernalia - Use or Possession&lt;br/&gt;"/><marker lat="40.470459852290823" lng="-80.0111378348073" zone="Zone 1" incidentdate="2015-06-22" incidenttime="03:40:00" incidentnumber="14040139" address="2900 block N Charles St" type="ARREST" age="59" gender="M" description="*********************************************** &lt;br/&gt;13(a)(32), Paraphernalia - Use or Possession&lt;br/&gt;13(a)(16), Possession of Controlled Substance&lt;br/&gt;"/><marker lat="40.450892721440539" lng="-80.000843891836467" zone="Zone 1" incidentdate="2015-06-22" incidenttime="13:00:00" incidentnumber="15091341" address="300 block Cedar Ave" type="ARREST" age="35" gender="F" description="*********************************************** &lt;br/&gt;13(a)(16), Possession of Controlled Substance&lt;br/&gt;3503(a), Criminal Trespass&lt;br/&gt;13(a)(32), Paraphernalia - Use or Possession&lt;br/&gt;"/><marker lat="40.439534165811146" lng="-79.99836772444668" zone="Zone 2" incidentdate="2015-06-22" incidenttime="13:05:00" incidentnumber="15113480" address="400 block 5th Ave" type="ARREST" age="27" gender="M" description="*********************************************** &lt;br/&gt;3929, Retail Theft.&lt;br/&gt;"/><marker lat="40.388036529985499" lng="-80.005805382712907" zone="Zone 3" incidentdate="2015-06-22" incidenttime="09:30:00" incidentnumber="15110832" address="2100 block Parklyn St" type="ARREST" age="24" gender="M" description="*********************************************** &lt;br/&gt;2702, Aggravated Assault.&lt;br/&gt;3701, Robbery.&lt;br/&gt;901, Criminal Attempt&lt;br/&gt;2706, Terroristic Threats.&lt;br/&gt;3304(a)(5), CRIMINAL MISCHIEF - Intentionally Damages Real Or Personal Property Of Another&lt;br/&gt;3736, Reckless Driving&lt;br/&gt;2705, Recklessly Endangering Another Person.&lt;br/&gt;"/><marker lat="40.474216187473878" lng="-79.90827518828867" zone="Zone 5" incidentdate="2015-06-22" incidenttime="07:46:00" incidentnumber="15113307" address="Washington Blvd &amp; Highland Dr" type="ARREST" age="30" gender="M" description="*********************************************** &lt;br/&gt;9501, Bench Warrant&lt;br/&gt;"/><marker lat="40.41136888220619" lng="-79.990299456571108" zone="Zone 3" incidentdate="2015-06-22" incidenttime="22:42:00" incidentnumber="15113852" address="200 block Knox Ave" type="ARREST" age="35" gender="M" description="*********************************************** &lt;br/&gt;9093, Indirect Criminal Contempt&lt;br/&gt;"/><marker lat="40.444238976750306" lng="-80.038209914352848" zone="Zone 6" incidentdate="2015-06-22" incidenttime="03:57:00" incidentnumber="15090031" address="900 block Gibson St" type="ARREST" age="22" gender="M" description="*********************************************** &lt;br/&gt;2701, Simple Assault.&lt;br/&gt;"/><marker lat="40.46156778419882" lng="-79.923362577996812" zone="Zone 5" incidentdate="2015-06-22" incidenttime="19:36:00" incidentnumber="15113712" address="Kirkwood St &amp; Sheridan Ave" type="ARREST" age="14" gender="M" description="*********************************************** &lt;br/&gt;5502, Failure of Disorderly Persons to Disperse&lt;br/&gt;2707, Propulsion of Missiles&lt;br/&gt;5503, Disorderly Conduct.&lt;br/&gt;"/><marker lat="40.470459914974732" lng="-79.908540011902716" zone="Zone 5" incidentdate="2015-06-22" incidenttime="15:08:00" incidentnumber="15098480" address="1400 block Washington Blvd" type="ARREST" age="25" gender="F" description="*********************************************** &lt;br/&gt;13(a)(31), Marijuana: Possession Small Amount&lt;br/&gt;13(a)(16), Possession of Controlled Substance&lt;br/&gt;13(a)(30), Possession w/ Intent to Del. Controlled Substance&lt;br/&gt;901, Criminal Attempt&lt;br/&gt;3304, Criminal Mischief.&lt;br/&gt;"/><marker lat="40.4406248" lng="-79.9958864" zone="Zone 1" incidentdate="2015-06-22" incidenttime="14:05:00" incidentnumber="15098635" address="Pa Rt 28 Ramp &amp; 31st St Brg" type="ARREST" age="39" gender="M" description="*********************************************** &lt;br/&gt;3742.1, Accident Involv. Death/Inj. While not Licensed&lt;br/&gt;3743, Accidents Involving Damage to Attended Veh. or Property&lt;br/&gt;"/><marker lat="40.459241184494772" lng="-80.005548013998464" zone="Zone 1" incidentdate="2015-06-22" incidenttime="19:51:00" incidentnumber="15113730" address="1600 block Sandusky Ct" type="ARREST" age="42" gender="M" description="*********************************************** &lt;br/&gt;13(a)(32), Paraphernalia - Use or Possession&lt;br/&gt;13(a)(16), Possession of Controlled Substance&lt;br/&gt;"/><marker lat="40.459059014785993" lng="-80.006851098890138" zone="Zone 1" incidentdate="2015-06-22" incidenttime="15:50:00" incidentnumber="15113560" address="Henderson St &amp; Fountain St" type="ARREST" age="26" gender="M" description="*********************************************** &lt;br/&gt;9501, Bench Warrant&lt;br/&gt;"/><marker lat="40.4554213138425" lng="-80.021434236115738" zone="Zone 1" incidentdate="2015-06-22" incidenttime="19:30:00" incidentnumber="15086721" address="Warlo St &amp; Bidwell St" type="ARREST" age="15" gender="M" description="*********************************************** &lt;br/&gt;2701, Simple Assault.&lt;br/&gt;3701, Robbery.&lt;br/&gt;4101, Forgery.&lt;br/&gt;4106, Access Device Fraud&lt;br/&gt;3925, Receiving Stolen Property.&lt;br/&gt;"/><marker lat="40.422869758303747" lng="-79.985528035484521" zone="Zone 3" incidentdate="2015-06-22" incidenttime="03:00:00" incidentnumber="15113222" address="Regina St" type="ARREST" age="40" gender="M" description="*********************************************** &lt;br/&gt;2701, Simple Assault.&lt;br/&gt;"/><marker lat="40.4539247715024" lng="-79.997839351546148" zone="Zone 1" incidentdate="2015-06-22" incidenttime="20:30:00" incidentnumber="15113784" address="East St &amp; East Ohio St" type="ARREST" age="32" gender="M" description="*********************************************** &lt;br/&gt;5902(a)(2), Prostitution - Loitering for purpose of&lt;br/&gt;13(a)(16), Possession of Controlled Substance&lt;br/&gt;13(a)(30), Possession w/ Intent to Del. Controlled Substance&lt;br/&gt;13(a)(32), Paraphernalia - Use or Possession&lt;br/&gt;"/><marker lat="40.465963701173017" lng="-80.031894305569097" zone="Zone 1" incidentdate="2015-06-22" incidenttime="14:00:00" incidentnumber="15091534" address="2400 block Toner St" type="ARREST" age="49" gender="F" description="*********************************************** &lt;br/&gt;2701, Simple Assault.&lt;br/&gt;"/></markers>
