<?xml version="1.0"?>
<markers><marker lat="40.442888113190847" lng="-79.997936520552642" zone="Zone 2" incidentdate="2016-02-01" incidenttime="16:35:00" incidentnumber="16019323" address="900 block Liberty Ave" type="OFFENSE" age="" gender="" description="*********************************************** &lt;br/&gt;3701, Robbery.&lt;br/&gt;"/><marker lat="40.457698005382937" lng="-79.997501382853997" zone="Zone 1" incidentdate="2016-02-01" incidenttime="00:34:00" incidentnumber="16018956" address="Concord St &amp; Turtle Way" type="OFFENSE" age="" gender="" description="*********************************************** &lt;br/&gt;1786, Required Financial Responsibility.&lt;br/&gt;3802(a)(1), DUI - General Impairment&lt;br/&gt;3802(c), DUI - Highest Rate of Alcohol - BAC &gt;= .16%&lt;br/&gt;3334, Turning Movements and Required Signals.&lt;br/&gt;1301, Registration and Certificate of Title Required.&lt;br/&gt;"/><marker lat="40.454797078822551" lng="-79.92997660670575" zone="Zone 4" incidentdate="2016-02-01" incidenttime="06:45:00" incidentnumber="16019111" address="5800 block Holden St" type="OFFENSE" age="" gender="" description="*********************************************** &lt;br/&gt;3934, Theft from Vehicle&lt;br/&gt;"/><marker lat="40.462802636584733" lng="-80.055493454783274" zone="Zone 6" incidentdate="2016-02-01" incidenttime="11:48:00" incidentnumber="16019181" address="200 block Radcliffe St" type="OFFENSE" age="" gender="" description="*********************************************** &lt;br/&gt;3304, Criminal Mischief.&lt;br/&gt;"/><marker lat="40.458118677265396" lng="-79.934597267839095" zone="Zone 5" incidentdate="2016-02-01" incidenttime="18:40:00" incidentnumber="16019420" address="Baum Blvd &amp; Roup Ave" type="OFFENSE" age="" gender="" description="*********************************************** &lt;br/&gt;3743, Accidents Involving Damage to Attended Veh. or Property&lt;br/&gt;"/><marker lat="40.454797078822551" lng="-79.92997660670575" zone="Zone 4" incidentdate="2016-02-01" incidenttime="06:00:00" incidentnumber="16019388" address="5800 block Holden St" type="OFFENSE" age="" gender="" description="*********************************************** &lt;br/&gt;3934, Theft from Vehicle&lt;br/&gt;"/><marker lat="40.410409269177919" lng="-79.990349653188431" zone="Zone 3" incidentdate="2016-02-01" incidenttime="16:46:00" incidentnumber="16019339" address="Suncrest St &amp; Brownsville Rd" type="OFFENSE" age="" gender="" description="*********************************************** &lt;br/&gt;13(a)(16), Possession of Controlled Substance&lt;br/&gt;13(a)(31), Marijuana: Possession Small Amount&lt;br/&gt;13(a)(32), Paraphernalia - Use or Possession&lt;br/&gt;1543, Driving While Operating Privilege is Suspended or Revoked.&lt;br/&gt;4524, Windshield Obstructions and Wipers.&lt;br/&gt;"/><marker lat="40.455476062589561" lng="-80.062724877265879" zone="Zone 6" incidentdate="2016-02-01" incidenttime="17:35:00" incidentnumber="16019370" address="1100 block Faulkner St" type="OFFENSE" age="" gender="" description="*********************************************** &lt;br/&gt;3503(b.1), Criminal Trespass - Simple Trespasser&lt;br/&gt;"/><marker lat="40.422435853658691" lng="-79.920374884838978" zone="Zone 4" incidentdate="2016-02-01" incidenttime="15:00:00" incidentnumber="16019285" address="6600 block Rosemoor St" type="OFFENSE" age="" gender="" description="*********************************************** &lt;br/&gt;2709(a)(4), Harassment Communicates Prohibited Acts&lt;br/&gt;2706, Terroristic Threats.&lt;br/&gt;"/><marker lat="40.460672464720588" lng="-79.988541430999106" zone="Zone 1" incidentdate="2016-02-01" incidenttime="11:00:00" incidentnumber="16019168" address="1300 block Tell St" type="OFFENSE" age="" gender="" description="*********************************************** &lt;br/&gt;3921, Theft by Unlawful Taking or Disposition.&lt;br/&gt;"/><marker lat="40.474224026628001" lng="-80.03171943386775" zone="Zone 1" incidentdate="2016-02-01" incidenttime="08:00:00" incidentnumber="16019564" address="Davis Row" type="OFFENSE" age="" gender="" description="*********************************************** &lt;br/&gt;9504, Lost Property&lt;br/&gt;"/><marker lat="40.462467752250426" lng="-80.030224841217816" zone="Zone 1" incidentdate="2016-02-01" incidenttime="17:29:00" incidentnumber="16019371" address="2300 block Atmore St" type="OFFENSE" age="" gender="" description="*********************************************** &lt;br/&gt;2709(a)(1), Harassment by Physical Contact, or Attempts or Threats&lt;br/&gt;"/><marker lat="40.394583101227212" lng="-79.986363827932976" zone="Zone 3" incidentdate="2016-02-01" incidenttime="04:00:00" incidentnumber="16019147" address="Hornaday Rd" type="OFFENSE" age="" gender="" description="*********************************************** &lt;br/&gt;3921(a), Theft by Unlawful Taking or Disposition - Movable item&lt;br/&gt;"/><marker lat="40.391198193262376" lng="-80.010698728486844" zone="Zone 6" incidentdate="2016-02-01" incidenttime="16:50:00" incidentnumber="16019332" address="1300 block Breining St" type="OFFENSE" age="" gender="" description="*********************************************** &lt;br/&gt;9129, Miscellaneous Investigation&lt;br/&gt;"/><marker lat="40.421531877189601" lng="-79.993577564166102" zone="Zone 3" incidentdate="2016-02-01" incidenttime="10:00:00" incidentnumber="16019123" address="800 block E Warrington Ave" type="OFFENSE" age="" gender="" description="*********************************************** &lt;br/&gt;3929(a)(4), Theft; under-rings merchandise&lt;br/&gt;"/><marker lat="40.4361489861545" lng="-79.997071532084945" zone="Zone 2" incidentdate="2016-02-01" incidenttime="08:00:00" incidentnumber="16019108" address="100 block Ross St" type="OFFENSE" age="" gender="" description="*********************************************** &lt;br/&gt;3304, Criminal Mischief.&lt;br/&gt;"/><marker lat="40.456633448414188" lng="-79.936435139782176" zone="Zone 4" incidentdate="2016-02-01" incidenttime="14:15:00" incidentnumber="16019261" address="5500 block Centre Ave" type="OFFENSE" age="" gender="" description="*********************************************** &lt;br/&gt;2701, Simple Assault.&lt;br/&gt;"/><marker lat="40.454163523653428" lng="-79.999258175009913" zone="Zone 1" incidentdate="2016-02-01" incidenttime="21:21:00" incidentnumber="16019506" address="Emlin St &amp; Middle St" type="OFFENSE" age="" gender="" description="*********************************************** &lt;br/&gt;3736, Reckless Driving&lt;br/&gt;1543, Driving While Operating Privilege is Suspended or Revoked.&lt;br/&gt;3802(a)(1), DUI - General Impairment&lt;br/&gt;3802(b), DUI - High Rate of Alchol - BAC &gt;=.10% &lt;.16%&lt;br/&gt;"/><marker lat="40.421484546680631" lng="-79.942537541110468" zone="Zone 4" incidentdate="2016-02-01" incidenttime="18:00:00" incidentnumber="16019398" address="4300 block Haldane St" type="OFFENSE" age="" gender="" description="*********************************************** &lt;br/&gt;3921(a), Theft by Unlawful Taking or Disposition - Movable item&lt;br/&gt;"/><marker lat="40.449606365527259" lng="-79.974270684591801" zone="Zone 2" incidentdate="2016-02-01" incidenttime="15:36:00" incidentnumber="16019309" address="2400 block Bedford Ave" type="OFFENSE" age="" gender="" description="*********************************************** &lt;br/&gt;4304(a)(1), Endangering Welfare of Children - Course of Conduct Enhanced&lt;br/&gt;"/><marker lat="40.428721548626939" lng="-80.024476588326735" zone="Zone 3" incidentdate="2016-02-01" incidenttime="10:40:00" incidentnumber="16019158" address="1500 block Woodruff St" type="OFFENSE" age="" gender="" description="*********************************************** &lt;br/&gt;2709, Harassment (Non-Specific)&lt;br/&gt;"/><marker lat="40.455842893773692" lng="-80.004565100523507" zone="Zone 1" incidentdate="2016-02-01" incidenttime="15:42:00" incidentnumber="16019296" address="E North Ave &amp; Sandusky St N" type="OFFENSE" age="" gender="" description="*********************************************** &lt;br/&gt;13(a)(16), Possession of Controlled Substance&lt;br/&gt;13(a)(32), Paraphernalia - Use or Possession&lt;br/&gt;1543, Driving While Operating Privilege is Suspended or Revoked.&lt;br/&gt;"/><marker lat="40.403450893354268" lng="-80.00325737793959" zone="Zone 6" incidentdate="2016-02-01" incidenttime="08:30:00" incidentnumber="16019161" address="900 block Timberland Ave" type="OFFENSE" age="" gender="" description="*********************************************** &lt;br/&gt;3304(a)(6), CRIMINAL MISCHIEF- Intentionally Damage Property (By Paintball Gun or Paintball Marker)&lt;br/&gt;"/><marker lat="40.442072886159224" lng="-80.035669709980681" zone="Zone 6" incidentdate="2016-02-01" incidenttime="19:25:00" incidentnumber="16019449" address="Elliott St &amp; Planet St" type="OFFENSE" age="" gender="" description="*********************************************** &lt;br/&gt;13(a)(32), Paraphernalia - Use or Possession&lt;br/&gt;1543, Driving While Operating Privilege is Suspended or Revoked.&lt;br/&gt;3802(d)(2), DUI - Drug - Impaired Ability&lt;br/&gt;"/><marker lat="40.451236976438757" lng="-79.888738894109935" zone="Zone 5" incidentdate="2016-02-01" incidenttime="16:50:00" incidentnumber="16019416" address="300 block Fram St" type="OFFENSE" age="" gender="" description="*********************************************** &lt;br/&gt;3502, Burglary.&lt;br/&gt;"/><marker lat="40.468598033821102" lng="-80.000394630575286" zone="Zone 1" incidentdate="2016-02-01" incidenttime="20:39:00" incidentnumber="16019485" address="Luella St" type="OFFENSE" age="" gender="" description="*********************************************** &lt;br/&gt;2701, Simple Assault.&lt;br/&gt;"/><marker lat="40.455921176209607" lng="-80.027004941714608" zone="Zone 1" incidentdate="2016-02-01" incidenttime="10:15:00" incidentnumber="16019154" address="1400 block N Franklin St" type="OFFENSE" age="" gender="" description="*********************************************** &lt;br/&gt;029, Missing Juvenile&lt;br/&gt;"/><marker lat="40.438721756509537" lng="-79.999466085108594" zone="Zone 2" incidentdate="2016-02-01" incidenttime="15:20:00" incidentnumber="16019441" address="400 block Smithfield St" type="OFFENSE" age="" gender="" description="*********************************************** &lt;br/&gt;3502, Burglary.&lt;br/&gt;3921(a), Theft by Unlawful Taking or Disposition - Movable item&lt;br/&gt;4914, False Identification to Law Enforcement Authorities&lt;br/&gt;3925, Receiving Stolen Property.&lt;br/&gt;"/><marker lat="40.389050371782872" lng="-80.015502482507387" zone="Zone 6" incidentdate="2016-02-01" incidenttime="11:56:00" incidentnumber="16019183" address="1200 block Berkshire Ave" type="OFFENSE" age="" gender="" description="*********************************************** &lt;br/&gt;029, Missing Juvenile&lt;br/&gt;"/><marker lat="40.481903120722876" lng="-80.041764242183035" zone="Zone 1" incidentdate="2016-02-01" incidenttime="13:00:00" incidentnumber="16019218" address="Brighton Heights Blvd &amp; California Ave" type="OFFENSE" age="" gender="" description="*********************************************** &lt;br/&gt;3743, Accidents Involving Damage to Attended Veh. or Property&lt;br/&gt;"/><marker lat="40.385416107782461" lng="-79.992055697114139" zone="Zone 3" incidentdate="2016-02-01" incidenttime="06:45:00" incidentnumber="16019058" address="500 block Overbrook Blvd" type="OFFENSE" age="" gender="" description="*********************************************** &lt;br/&gt;3304, Criminal Mischief.&lt;br/&gt;"/><marker lat="40.385416107782461" lng="-79.992055697114139" zone="Zone 3" incidentdate="2016-02-01" incidenttime="09:00:00" incidentnumber="16019122" address="500 block Overbrook Blvd" type="OFFENSE" age="" gender="" description="*********************************************** &lt;br/&gt;3304, Criminal Mischief.&lt;br/&gt;"/><marker lat="40.4200158" lng="-79.9908024" zone="Zone 3" incidentdate="2016-02-01" incidenttime="08:00:00" incidentnumber="16019093" address="900 block Blk. Climax St" type="OFFENSE" age="" gender="" description="*********************************************** &lt;br/&gt;9489, Found Property&lt;br/&gt;"/><marker lat="40.454717368887557" lng="-80.010595196019793" zone="Zone 1" incidentdate="2016-02-01" incidenttime="18:00:00" incidentnumber="16019397" address="W North Ave &amp; Palo Alto St" type="OFFENSE" age="" gender="" description="*********************************************** &lt;br/&gt;9999, 9999 - (Misc. Incident):&lt;br/&gt;"/><marker lat="40.456473594608255" lng="-80.05559691973923" zone="Zone 6" incidentdate="2016-02-01" incidenttime="15:57:00" incidentnumber="16019390" address="3100 block Landis St" type="OFFENSE" age="" gender="" description="*********************************************** &lt;br/&gt;029, Missing Juvenile&lt;br/&gt;"/><marker lat="40.403721311123562" lng="-80.024790418129029" zone="Zone 6" incidentdate="2016-02-01" incidenttime="12:28:00" incidentnumber="16019204" address="2200 block Pauline Ave" type="OFFENSE" age="" gender="" description="*********************************************** &lt;br/&gt;9488, False  Burglar Alarm&lt;br/&gt;"/><marker lat="40.461630806852277" lng="-79.926784260450063" zone="Zone 5" incidentdate="2016-02-01" incidenttime="10:00:00" incidentnumber="16003756" address="5900 block Penn Ave" type="OFFENSE" age="" gender="" description="*********************************************** &lt;br/&gt;3304(a)(4), CRIMINAL MISCHIEF- Intentionally Damage Property (By Graffiti, Aerosol Spray Paint, Broad Tip Marker, or Similar)&lt;br/&gt;"/><marker lat="40.443019322714761" lng="-79.986136738626598" zone="Zone 2" incidentdate="2016-02-01" incidenttime="15:15:00" incidentnumber="16019314" address="1600 block Wylie Ave" type="OFFENSE" age="" gender="" description="*********************************************** &lt;br/&gt;3502, Burglary.&lt;br/&gt;"/><marker lat="40.464716013395609" lng="-79.957841123262611" zone="Zone 2" incidentdate="2016-02-01" incidenttime="18:10:00" incidentnumber="16019407" address="Woolslayer Way &amp; 40th St" type="OFFENSE" age="" gender="" description="*********************************************** &lt;br/&gt;3924, Theft of Property Lost, Mislaid or Delivered by Mistake.&lt;br/&gt;"/><marker lat="40.410356742633624" lng="-79.990376092457225" zone="Zone 3" incidentdate="2016-02-01" incidenttime="01:39:00" incidentnumber="16018973" address="200 block Suncrest St" type="OFFENSE" age="" gender="" description="*********************************************** &lt;br/&gt;3304, Criminal Mischief.&lt;br/&gt;"/><marker lat="40.47058987386157" lng="-80.030949610536084" zone="Zone 1" incidentdate="2016-02-01" incidenttime="12:30:00" incidentnumber="16019280" address="2900 block Cake Way" type="OFFENSE" age="" gender="" description="*********************************************** &lt;br/&gt;2701(a)(1), Simple Assault - Intent., Know., Reckless.Cause Bod. Injury&lt;br/&gt;"/><marker lat="40.453312242754301" lng="-80.001693845474151" zone="Zone 1" incidentdate="2016-02-01" incidenttime="16:39:00" incidentnumber="16019342" address="Cedar Ave &amp; East Ohio St" type="OFFENSE" age="" gender="" description="*********************************************** &lt;br/&gt;5505, Public Drunkenness&lt;br/&gt;7513, Restriction on Alcoholic Beverages - Open Container&lt;br/&gt;"/><marker lat="40.4468099" lng="-79.9401035" zone="Zone 4" incidentdate="2016-02-01" incidenttime="12:30:00" incidentnumber="16019299" address="1000 block Devon Rd" type="OFFENSE" age="" gender="" description="*********************************************** &lt;br/&gt;3502, Burglary.&lt;br/&gt;3921(a), Theft by Unlawful Taking or Disposition - Movable item&lt;br/&gt;3925, Receiving Stolen Property.&lt;br/&gt;"/><marker lat="40.429441638775302" lng="-79.985356376308403" zone="Zone 3" incidentdate="2016-02-01" incidenttime="14:31:00" incidentnumber="16019268" address="S 13th St &amp; Bingham St" type="OFFENSE" age="" gender="" description="*********************************************** &lt;br/&gt;13(a)(16), Possession of Controlled Substance&lt;br/&gt;13(a)(32), Paraphernalia - Use or Possession&lt;br/&gt;"/><marker lat="40.466877756870879" lng="-79.994177935104844" zone="Zone 1" incidentdate="2016-02-01" incidenttime="10:45:00" incidentnumber="16019180" address="100 block Rhine Pl" type="OFFENSE" age="" gender="" description="*********************************************** &lt;br/&gt;3921, Theft by Unlawful Taking or Disposition.&lt;br/&gt;"/><marker lat="40.455905479076073" lng="-80.007756713626065" zone="Zone 1" incidentdate="2016-02-01" incidenttime="06:00:00" incidentnumber="16019038" address="1200 block Reddour St" type="OFFENSE" age="" gender="" description="*********************************************** &lt;br/&gt;3502, Burglary.&lt;br/&gt;"/><marker lat="40.460302578526942" lng="-80.006980071080037" zone="Zone 1" incidentdate="2016-02-01" incidenttime="01:10:00" incidentnumber="16018966" address="1700 block Belleau Dr" type="OFFENSE" age="" gender="" description="*********************************************** &lt;br/&gt;8106, Shots Fired&lt;br/&gt;"/><marker lat="40.414231884303057" lng="-80.000291780604087" zone="Zone 3" incidentdate="2016-02-01" incidenttime="17:25:00" incidentnumber="16019368" address="400 block Althea St" type="OFFENSE" age="" gender="" description="*********************************************** &lt;br/&gt;9496, Dead on Arrival (DOA)&lt;br/&gt;"/><marker lat="40.488209834026463" lng="-80.015158575586483" zone="Zone 1" incidentdate="2016-02-01" incidenttime="07:02:00" incidentnumber="16019048" address="3800 block East St" type="OFFENSE" age="" gender="" description="*********************************************** &lt;br/&gt;3921(a), Theft by Unlawful Taking or Disposition - Movable item&lt;br/&gt;"/><marker lat="40.38834084825384" lng="-80.020869257751087" zone="Zone 6" incidentdate="2016-02-01" incidenttime="23:57:00" incidentnumber="16019575" address="1000 block Norwich Ave" type="OFFENSE" age="" gender="" description="*********************************************** &lt;br/&gt;3921, Theft by Unlawful Taking or Disposition.&lt;br/&gt;"/><marker lat="40.463089718554265" lng="-79.899272953521745" zone="Zone 5" incidentdate="2016-02-01" incidenttime="16:36:00" incidentnumber="16019334" address="7000 block Upland St" type="OFFENSE" age="" gender="" description="*********************************************** &lt;br/&gt;029, Missing Juvenile&lt;br/&gt;"/><marker lat="40.403450893354268" lng="-80.00325737793959" zone="Zone 6" incidentdate="2016-02-01" incidenttime="11:00:00" incidentnumber="16019160" address="900 block Timberland Ave" type="OFFENSE" age="" gender="" description="*********************************************** &lt;br/&gt;3304(a)(6), CRIMINAL MISCHIEF- Intentionally Damage Property (By Paintball Gun or Paintball Marker)&lt;br/&gt;"/><marker lat="40.475669403329832" lng="-79.917960041413934" zone="Zone 5" incidentdate="2016-02-01" incidenttime="19:00:00" incidentnumber="16019434" address="6000 block Grafton St" type="OFFENSE" age="" gender="" description="*********************************************** &lt;br/&gt;3701, Robbery.&lt;br/&gt;"/><marker lat="40.442103943882657" lng="-79.969666775343896" zone="Zone 2" incidentdate="2016-02-01" incidenttime="09:30:00" incidentnumber="16019110" address="400 block Oak Hill Dr" type="OFFENSE" age="" gender="" description="*********************************************** &lt;br/&gt;9489, Found Property&lt;br/&gt;"/><marker lat="40.412712977620266" lng="-79.977894959474128" zone="Zone 3" incidentdate="2016-02-01" incidenttime="11:05:00" incidentnumber="16019195" address="100 block Burr St" type="OFFENSE" age="" gender="" description="*********************************************** &lt;br/&gt;9017, Found Drugs&lt;br/&gt;"/><marker lat="40.425414312145136" lng="-79.966548027660309" zone="Zone 3" incidentdate="2016-02-01" incidenttime="18:15:00" incidentnumber="16019405" address="2800 block Sarah St" type="OFFENSE" age="" gender="" description="*********************************************** &lt;br/&gt;3502, Burglary.&lt;br/&gt;"/><marker lat="40.409267756897634" lng="-80.001742786720001" zone="Zone 3" incidentdate="2016-02-01" incidenttime="07:00:00" incidentnumber="16019083" address="200 block Institute St" type="OFFENSE" age="" gender="" description="*********************************************** &lt;br/&gt;3745, Accidents Involving Damage to Unattended Veh.or Prop.&lt;br/&gt;"/><marker lat="40.443610698976059" lng="-79.998043561602501" zone="Zone 2" incidentdate="2016-02-01" incidenttime="08:20:00" incidentnumber="16019088" address="900 block Penn Ave" type="OFFENSE" age="" gender="" description="*********************************************** &lt;br/&gt;3921, Theft by Unlawful Taking or Disposition.&lt;br/&gt;"/><marker lat="40.459084625365982" lng="-80.02205532489748" zone="Zone 1" incidentdate="2016-02-01" incidenttime="03:24:00" incidentnumber="16019002" address="1000 block California Ave" type="OFFENSE" age="" gender="" description="*********************************************** &lt;br/&gt;9497, Aided Case&lt;br/&gt;"/><marker lat="40.438450622639579" lng="-80.026098052230211" zone="Zone 3" incidentdate="2016-02-01" incidenttime="11:30:00" incidentnumber="16019179" address="300 block Seward St" type="OFFENSE" age="" gender="" description="*********************************************** &lt;br/&gt;3745, Accidents Involving Damage to Unattended Veh.or Prop.&lt;br/&gt;"/><marker lat="40.445899823505272" lng="-80.052204137456769" zone="Zone 6" incidentdate="2016-02-01" incidenttime="20:30:00" incidentnumber="16019475" address="900 block Woodlow St" type="OFFENSE" age="" gender="" description="*********************************************** &lt;br/&gt;9093, Indirect Criminal Contempt&lt;br/&gt;2706, Terroristic Threats.&lt;br/&gt;"/><marker lat="40.474046177842993" lng="-80.015618426604462" zone="Zone 1" incidentdate="2016-02-01" incidenttime="05:43:00" incidentnumber="16019035" address="300 block Marshall Ave" type="OFFENSE" age="" gender="" description="*********************************************** &lt;br/&gt;3745, Accidents Involving Damage to Unattended Veh.or Prop.&lt;br/&gt;"/><marker lat="40.460011231530601" lng="-79.907190611646101" zone="Zone 5" incidentdate="2016-02-01" incidenttime="08:00:00" incidentnumber="16019075" address="900 block Washington Blvd" type="OFFENSE" age="" gender="" description="*********************************************** &lt;br/&gt;3502, Burglary.&lt;br/&gt;"/><marker lat="40.391579872568094" lng="-80.015378713407102" zone="Zone 6" incidentdate="2016-02-01" incidenttime="12:45:00" incidentnumber="16019209" address="1100 block Brookline Blvd" type="OFFENSE" age="" gender="" description="*********************************************** &lt;br/&gt;9999, 9999 - (Misc. Incident):&lt;br/&gt;"/><marker lat="40.482879021356389" lng="-80.04453300763744" zone="Zone 1" incidentdate="2016-02-01" incidenttime="01:30:00" incidentnumber="16019316" address="2000 block Termon Ave" type="OFFENSE" age="" gender="" description="*********************************************** &lt;br/&gt;029, Missing Juvenile&lt;br/&gt;"/><marker lat="40.441024249715781" lng="-79.95736833680553" zone="Zone 4" incidentdate="2016-02-01" incidenttime="10:20:00" incidentnumber="16019132" address="3700 block FORBES Ave" type="OFFENSE" age="" gender="" description="*********************************************** &lt;br/&gt;2709, Harassment (Non-Specific)&lt;br/&gt;"/><marker lat="40.466387809933657" lng="-79.993748944664972" zone="Zone 1" incidentdate="2016-02-01" incidenttime="08:17:00" incidentnumber="16019080" address="100 block Rhine St" type="OFFENSE" age="" gender="" description="*********************************************** &lt;br/&gt;4120, Identity Theft&lt;br/&gt;"/><marker lat="40.476255316755903" lng="-79.961308802311763" zone="Zone 2" incidentdate="2016-02-01" incidenttime="15:15:00" incidentnumber="16019294" address="100 block 47th St" type="OFFENSE" age="" gender="" description="*********************************************** &lt;br/&gt;3502, Burglary.&lt;br/&gt;"/><marker lat="40.429441638775302" lng="-79.985356376308403" zone="Zone 3" incidentdate="2016-02-01" incidenttime="15:04:00" incidentnumber="16019268" address="S 13th St &amp; Bingham St" type="ARREST" age="33" gender="M" description="*********************************************** &lt;br/&gt;13(a)(16), Possession of Controlled Substance&lt;br/&gt;13(a)(32), Paraphernalia - Use or Possession&lt;br/&gt;"/><marker lat="40.45584959643125" lng="-79.930434547158555" zone="Zone 4" incidentdate="2016-02-01" incidenttime="10:00:00" incidentnumber="15246961" address="5800 block Ellsworth Ave" type="ARREST" age="22" gender="M" description="*********************************************** &lt;br/&gt;3304(a)(4), CRIMINAL MISCHIEF- Intentionally Damage Property (By Graffiti, Aerosol Spray Paint, Broad Tip Marker, or Similar)&lt;br/&gt;"/><marker lat="40.421531877189601" lng="-79.993577564166102" zone="Zone 3" incidentdate="2016-02-01" incidenttime="14:30:00" incidentnumber="15195434" address="800 block E Warrington Ave" type="ARREST" age="45" gender="M" description="*********************************************** &lt;br/&gt;3502, Burglary.&lt;br/&gt;3921, Theft by Unlawful Taking or Disposition.&lt;br/&gt;3925, Receiving Stolen Property.&lt;br/&gt;"/><marker lat="40.456572332747427" lng="-80.001487255429311" zone="Zone 4" incidentdate="2016-02-01" incidenttime="10:00:00" incidentnumber="15244916" address="500 block N Neville St" type="ARREST" age="22" gender="M" description="*********************************************** &lt;br/&gt;3304(a)(4), CRIMINAL MISCHIEF- Intentionally Damage Property (By Graffiti, Aerosol Spray Paint, Broad Tip Marker, or Similar)&lt;br/&gt;"/><marker lat="40.458285531789414" lng="-79.911594272179926" zone="Zone 5" incidentdate="2016-02-01" incidenttime="10:00:00" incidentnumber="15226442" address="100 block Julius St" type="ARREST" age="22" gender="M" description="*********************************************** &lt;br/&gt;3304(a)(4), CRIMINAL MISCHIEF- Intentionally Damage Property (By Graffiti, Aerosol Spray Paint, Broad Tip Marker, or Similar)&lt;br/&gt;"/><marker lat="40.452745311658013" lng="-79.936727262344533" zone="Zone 4" incidentdate="2016-02-01" incidenttime="10:00:00" incidentnumber="15247445" address="Ellsworth Ave &amp; S Aiken Ave" type="ARREST" age="22" gender="M" description="*********************************************** &lt;br/&gt;3304(a)(4), CRIMINAL MISCHIEF- Intentionally Damage Property (By Graffiti, Aerosol Spray Paint, Broad Tip Marker, or Similar)&lt;br/&gt;"/><marker lat="40.452584494261551" lng="-79.949688089464104" zone="Zone 4" incidentdate="2016-02-01" incidenttime="10:00:00" incidentnumber="15247449" address="N Neville St &amp; Centre Ave" type="ARREST" age="22" gender="M" description="*********************************************** &lt;br/&gt;3304(a)(4), CRIMINAL MISCHIEF- Intentionally Damage Property (By Graffiti, Aerosol Spray Paint, Broad Tip Marker, or Similar)&lt;br/&gt;"/><marker lat="40.417669314235489" lng="-79.963417835194747" zone="Zone 3" incidentdate="2016-02-01" incidenttime="09:25:00" incidentnumber="16005987" address="3100 block Cordell Pl" type="ARREST" age="45" gender="M" description="*********************************************** &lt;br/&gt;2701, Simple Assault.&lt;br/&gt;"/><marker lat="40.449800118723296" lng="-79.950738477029901" zone="Zone 4" incidentdate="2016-02-01" incidenttime="10:00:00" incidentnumber="15248626" address="N Craig St &amp; Bayard St" type="ARREST" age="22" gender="M" description="*********************************************** &lt;br/&gt;3304(a)(4), CRIMINAL MISCHIEF- Intentionally Damage Property (By Graffiti, Aerosol Spray Paint, Broad Tip Marker, or Similar)&lt;br/&gt;9130, Graffiti Investigation&lt;br/&gt;"/><marker lat="40.451315793275363" lng="-79.940948328030601" zone="Zone 4" incidentdate="2016-02-01" incidenttime="10:00:00" incidentnumber="15247395" address="Amberson Ave &amp; Ellsworth Ave" type="ARREST" age="22" gender="M" description="*********************************************** &lt;br/&gt;3304(a)(4), CRIMINAL MISCHIEF- Intentionally Damage Property (By Graffiti, Aerosol Spray Paint, Broad Tip Marker, or Similar)&lt;br/&gt;"/><marker lat="40.437818600399822" lng="-79.963832573222589" zone="Zone 4" incidentdate="2016-02-01" incidenttime="10:00:00" incidentnumber="15236476" address="3300 block 5TH Ave" type="ARREST" age="22" gender="M" description="*********************************************** &lt;br/&gt;3503, Criminal Trespass&lt;br/&gt;3304(a)(4), CRIMINAL MISCHIEF- Intentionally Damage Property (By Graffiti, Aerosol Spray Paint, Broad Tip Marker, or Similar)&lt;br/&gt;9130, Graffiti Investigation&lt;br/&gt;"/><marker lat="40.462402719860648" lng="-79.950882093642306" zone="Zone 5" incidentdate="2016-02-01" incidenttime="10:00:00" incidentnumber="16003751" address="4600 block Liberty Ave" type="ARREST" age="22" gender="M" description="*********************************************** &lt;br/&gt;3304(a)(4), CRIMINAL MISCHIEF- Intentionally Damage Property (By Graffiti, Aerosol Spray Paint, Broad Tip Marker, or Similar)&lt;br/&gt;9130, Graffiti Investigation&lt;br/&gt;"/><marker lat="40.453941513614424" lng="-79.953238973203284" zone="Zone 4" incidentdate="2016-02-01" incidenttime="10:00:00" incidentnumber="15248624" address="4600 block Baum Blvd" type="ARREST" age="22" gender="M" description="*********************************************** &lt;br/&gt;3304(a)(4), CRIMINAL MISCHIEF- Intentionally Damage Property (By Graffiti, Aerosol Spray Paint, Broad Tip Marker, or Similar)&lt;br/&gt;9130, Graffiti Investigation&lt;br/&gt;"/><marker lat="40.458682962656141" lng="-79.947100993018708" zone="Zone 5" incidentdate="2016-02-01" incidenttime="10:00:00" incidentnumber="16003752" address="4900 block Cypress St" type="ARREST" age="22" gender="M" description="*********************************************** &lt;br/&gt;3304(a)(4), CRIMINAL MISCHIEF- Intentionally Damage Property (By Graffiti, Aerosol Spray Paint, Broad Tip Marker, or Similar)&lt;br/&gt;9130, Graffiti Investigation&lt;br/&gt;"/><marker lat="40.435095503606554" lng="-79.993077686753679" zone="Zone 2" incidentdate="2016-02-01" incidenttime="11:00:00" incidentnumber="15246928" address="900 block Second Ave" type="ARREST" age="21" gender="M" description="*********************************************** &lt;br/&gt;2706, Terroristic Threats.&lt;br/&gt;3928, Unauthorized Use of Automobile and Other Vehicles.&lt;br/&gt;"/><marker lat="40.456645972111147" lng="-79.906649432588011" zone="Zone 5" incidentdate="2016-02-01" incidenttime="10:00:00" incidentnumber="15235824" address="6800 block Hamilton Ave" type="ARREST" age="22" gender="M" description="*********************************************** &lt;br/&gt;3304(a)(4), CRIMINAL MISCHIEF- Intentionally Damage Property (By Graffiti, Aerosol Spray Paint, Broad Tip Marker, or Similar)&lt;br/&gt;9130, Graffiti Investigation&lt;br/&gt;"/><marker lat="40.454127450914179" lng="-79.951931284180716" zone="Zone 4" incidentdate="2016-02-01" incidenttime="10:00:00" incidentnumber="15248622" address="400 block Melwood Ave" type="ARREST" age="22" gender="M" description="*********************************************** &lt;br/&gt;3304(a)(4), CRIMINAL MISCHIEF- Intentionally Damage Property (By Graffiti, Aerosol Spray Paint, Broad Tip Marker, or Similar)&lt;br/&gt;9130, Graffiti Investigation&lt;br/&gt;"/><marker lat="40.442072886159224" lng="-80.035669709980681" zone="Zone 6" incidentdate="2016-02-01" incidenttime="19:50:00" incidentnumber="16019449" address="Elliott St &amp; Planet St" type="ARREST" age="40" gender="M" description="*********************************************** &lt;br/&gt;13(a)(32), Paraphernalia - Use or Possession&lt;br/&gt;1543, Driving While Operating Privilege is Suspended or Revoked.&lt;br/&gt;3802(d)(2), DUI - Drug - Impaired Ability&lt;br/&gt;"/><marker lat="40.4406248" lng="-79.9958864" zone="Zone N/A" incidentdate="2016-02-01" incidenttime="10:00:00" incidentnumber="15246967" address="" type="ARREST" age="22" gender="M" description="*********************************************** &lt;br/&gt;3304(a)(4), CRIMINAL MISCHIEF- Intentionally Damage Property (By Graffiti, Aerosol Spray Paint, Broad Tip Marker, or Similar)&lt;br/&gt;"/><marker lat="40.447063025872758" lng="-79.947284153477952" zone="Zone 4" incidentdate="2016-02-01" incidenttime="10:00:00" incidentnumber="15247447" address="N Neville St &amp; 5th Ave" type="ARREST" age="22" gender="M" description="*********************************************** &lt;br/&gt;3304(a)(4), CRIMINAL MISCHIEF- Intentionally Damage Property (By Graffiti, Aerosol Spray Paint, Broad Tip Marker, or Similar)&lt;br/&gt;"/><marker lat="40.46847788789708" lng="-79.921661728488743" zone="Zone 5" incidentdate="2016-02-01" incidenttime="11:30:00" incidentnumber="16015924" address="700 block N Highland Ave" type="ARREST" age="35" gender="M" description="*********************************************** &lt;br/&gt;13(a)(16), Possession of Controlled Substance&lt;br/&gt;"/><marker lat="40.43007247445037" lng="-80.053908499092216" zone="Zone 6" incidentdate="2016-02-01" incidenttime="10:25:00" incidentnumber="15216464" address="2200 block Noblestown Rd" type="ARREST" age="54" gender="M" description="*********************************************** &lt;br/&gt;3929, Retail Theft.&lt;br/&gt;"/><marker lat="40.450453165213453" lng="-79.945023228859085" zone="Zone 4" incidentdate="2016-02-01" incidenttime="10:00:00" incidentnumber="15247444" address="Devonshire St &amp; Ellsworth Ave" type="ARREST" age="22" gender="M" description="*********************************************** &lt;br/&gt;3304(a)(4), CRIMINAL MISCHIEF- Intentionally Damage Property (By Graffiti, Aerosol Spray Paint, Broad Tip Marker, or Similar)&lt;br/&gt;"/><marker lat="40.437346743171041" lng="-79.964929789123403" zone="Zone 4" incidentdate="2016-02-01" incidenttime="10:00:00" incidentnumber="16002532" address="3200 block 5th Ave" type="ARREST" age="22" gender="M" description="*********************************************** &lt;br/&gt;3304(a)(4), CRIMINAL MISCHIEF- Intentionally Damage Property (By Graffiti, Aerosol Spray Paint, Broad Tip Marker, or Similar)&lt;br/&gt;9130, Graffiti Investigation&lt;br/&gt;"/><marker lat="40.434299457525853" lng="-79.954228609639202" zone="Zone 4" incidentdate="2016-02-01" incidenttime="10:00:00" incidentnumber="15247398" address="3600 block Blvd Of The Allies" type="ARREST" age="22" gender="M" description="*********************************************** &lt;br/&gt;3304(a)(4), CRIMINAL MISCHIEF- Intentionally Damage Property (By Graffiti, Aerosol Spray Paint, Broad Tip Marker, or Similar)&lt;br/&gt;9130, Graffiti Investigation&lt;br/&gt;"/><marker lat="40.456572332747427" lng="-80.001487255429311" zone="Zone 4" incidentdate="2016-02-01" incidenttime="10:00:00" incidentnumber="15244919" address="500 block N Neville St" type="ARREST" age="22" gender="M" description="*********************************************** &lt;br/&gt;3304(a)(4), CRIMINAL MISCHIEF- Intentionally Damage Property (By Graffiti, Aerosol Spray Paint, Broad Tip Marker, or Similar)&lt;br/&gt;"/><marker lat="40.4583464564897" lng="-79.927363955243038" zone="Zone 4" incidentdate="2016-02-01" incidenttime="10:00:00" incidentnumber="15244968" address="Ellsworth Ave &amp; Spahr St" type="ARREST" age="22" gender="M" description="*********************************************** &lt;br/&gt;3304(a)(4), CRIMINAL MISCHIEF- Intentionally Damage Property (By Graffiti, Aerosol Spray Paint, Broad Tip Marker, or Similar)&lt;br/&gt;9130, Graffiti Investigation&lt;br/&gt;"/><marker lat="40.450876414003957" lng="-79.943050230942575" zone="Zone 4" incidentdate="2016-02-01" incidenttime="10:00:00" incidentnumber="15247397" address="Morewood Ave &amp; Ellsworth Ave" type="ARREST" age="22" gender="M" description="*********************************************** &lt;br/&gt;3304(a)(4), CRIMINAL MISCHIEF- Intentionally Damage Property (By Graffiti, Aerosol Spray Paint, Broad Tip Marker, or Similar)&lt;br/&gt;9130, Graffiti Investigation&lt;br/&gt;"/><marker lat="40.473064336961379" lng="-79.919546436401845" zone="Zone 5" incidentdate="2016-02-01" incidenttime="10:00:00" incidentnumber="16003749" address="100 block N Highland Ave" type="ARREST" age="22" gender="M" description="*********************************************** &lt;br/&gt;3304(a)(4), CRIMINAL MISCHIEF- Intentionally Damage Property (By Graffiti, Aerosol Spray Paint, Broad Tip Marker, or Similar)&lt;br/&gt;9130, Graffiti Investigation&lt;br/&gt;"/><marker lat="40.451315793275363" lng="-79.940948328030601" zone="Zone 4" incidentdate="2016-02-01" incidenttime="10:00:00" incidentnumber="15246965" address="Amberson Ave &amp; Ellsworth Ave" type="ARREST" age="22" gender="M" description="*********************************************** &lt;br/&gt;3304(a)(4), CRIMINAL MISCHIEF- Intentionally Damage Property (By Graffiti, Aerosol Spray Paint, Broad Tip Marker, or Similar)&lt;br/&gt;"/><marker lat="40.460026581173167" lng="-80.055938795052612" zone="Zone 6" incidentdate="2016-02-01" incidenttime="16:30:00" incidentnumber="16012221" address="3300 block Christy St" type="ARREST" age="23" gender="M" description="*********************************************** &lt;br/&gt;2705, Recklessly Endangering Another Person.&lt;br/&gt;3304(a)(5), CRIMINAL MISCHIEF - Intentionally Damages Real Or Personal Property Of Another&lt;br/&gt;9093, Indirect Criminal Contempt&lt;br/&gt;2709(a)(1), Harassment by Physical Contact, or Attempts or Threats&lt;br/&gt;"/><marker lat="40.457261886016532" lng="-79.934057272019743" zone="Zone 4" incidentdate="2016-02-01" incidenttime="10:00:00" incidentnumber="15247400" address="S Negley Ave &amp; Centre Ave" type="ARREST" age="22" gender="M" description="*********************************************** &lt;br/&gt;3304(a)(4), CRIMINAL MISCHIEF- Intentionally Damage Property (By Graffiti, Aerosol Spray Paint, Broad Tip Marker, or Similar)&lt;br/&gt;9130, Graffiti Investigation&lt;br/&gt;"/><marker lat="40.454745997385452" lng="-79.932568533503243" zone="Zone 4" incidentdate="2016-02-01" incidenttime="10:00:00" incidentnumber="15247399" address="S Negley Ave &amp; Ellsworth Ave" type="ARREST" age="22" gender="M" description="*********************************************** &lt;br/&gt;3304(a)(4), CRIMINAL MISCHIEF- Intentionally Damage Property (By Graffiti, Aerosol Spray Paint, Broad Tip Marker, or Similar)&lt;br/&gt;9130, Graffiti Investigation&lt;br/&gt;"/><marker lat="40.457261886016532" lng="-79.934057272019743" zone="Zone 4" incidentdate="2016-02-01" incidenttime="10:00:00" incidentnumber="15247401" address="S Negley Ave &amp; Centre Ave" type="ARREST" age="22" gender="M" description="*********************************************** &lt;br/&gt;3304(a)(4), CRIMINAL MISCHIEF- Intentionally Damage Property (By Graffiti, Aerosol Spray Paint, Broad Tip Marker, or Similar)&lt;br/&gt;"/><marker lat="40.447408582510299" lng="-79.938268306884581" zone="Zone 4" incidentdate="2016-02-01" incidenttime="10:00:00" incidentnumber="15244922" address="5100 block 5th Ave" type="ARREST" age="22" gender="M" description="*********************************************** &lt;br/&gt;3304(a)(4), CRIMINAL MISCHIEF- Intentionally Damage Property (By Graffiti, Aerosol Spray Paint, Broad Tip Marker, or Similar)&lt;br/&gt;"/><marker lat="40.447685963600136" lng="-79.938838355579733" zone="Zone 4" incidentdate="2016-02-01" incidenttime="10:00:00" incidentnumber="15244970" address="5th Ave &amp; Amberson Ave" type="ARREST" age="22" gender="M" description="*********************************************** &lt;br/&gt;3304(a)(4), CRIMINAL MISCHIEF- Intentionally Damage Property (By Graffiti, Aerosol Spray Paint, Broad Tip Marker, or Similar)&lt;br/&gt;"/><marker lat="40.458501484518713" lng="-79.94377268697184" zone="Zone 5" incidentdate="2016-02-01" incidenttime="10:00:00" incidentnumber="16003754" address="5100 block Liberty Ave" type="ARREST" age="22" gender="M" description="*********************************************** &lt;br/&gt;3304(a)(4), CRIMINAL MISCHIEF- Intentionally Damage Property (By Graffiti, Aerosol Spray Paint, Broad Tip Marker, or Similar)&lt;br/&gt;9130, Graffiti Investigation&lt;br/&gt;"/><marker lat="40.461630806852277" lng="-79.926784260450063" zone="Zone 5" incidentdate="2016-02-01" incidenttime="10:00:00" incidentnumber="16003755" address="5900 block Penn Ave" type="ARREST" age="22" gender="M" description="*********************************************** &lt;br/&gt;3304(a)(4), CRIMINAL MISCHIEF- Intentionally Damage Property (By Graffiti, Aerosol Spray Paint, Broad Tip Marker, or Similar)&lt;br/&gt;"/><marker lat="40.445590651116305" lng="-79.949387243364313" zone="Zone 4" incidentdate="2016-02-01" incidenttime="10:00:00" incidentnumber="16013205" address="300 block S Craig St" type="ARREST" age="22" gender="M" description="*********************************************** &lt;br/&gt;3304(a)(4), CRIMINAL MISCHIEF- Intentionally Damage Property (By Graffiti, Aerosol Spray Paint, Broad Tip Marker, or Similar)&lt;br/&gt;"/><marker lat="40.45584959643125" lng="-79.930434547158555" zone="Zone 4" incidentdate="2016-02-01" incidenttime="10:00:00" incidentnumber="15246963" address="5800 block Ellsworth Ave" type="ARREST" age="22" gender="M" description="*********************************************** &lt;br/&gt;3304(a)(4), CRIMINAL MISCHIEF- Intentionally Damage Property (By Graffiti, Aerosol Spray Paint, Broad Tip Marker, or Similar)&lt;br/&gt;"/><marker lat="40.454163523653428" lng="-79.999258175009913" zone="Zone 1" incidentdate="2016-02-01" incidenttime="21:33:00" incidentnumber="16019506" address="Emlin St &amp; Middle St" type="ARREST" age="54" gender="M" description="*********************************************** &lt;br/&gt;3736, Reckless Driving&lt;br/&gt;1543, Driving While Operating Privilege is Suspended or Revoked.&lt;br/&gt;3802(a)(1), DUI - General Impairment&lt;br/&gt;3802(b), DUI - High Rate of Alchol - BAC &gt;=.10% &lt;.16%&lt;br/&gt;"/><marker lat="40.454671991236104" lng="-79.932117906094192" zone="Zone 4" incidentdate="2016-02-01" incidenttime="10:00:00" incidentnumber="15246960" address="5700 block Ellsworth Ave" type="ARREST" age="22" gender="M" description="*********************************************** &lt;br/&gt;3304(a)(4), CRIMINAL MISCHIEF- Intentionally Damage Property (By Graffiti, Aerosol Spray Paint, Broad Tip Marker, or Similar)&lt;br/&gt;"/><marker lat="40.435095503606554" lng="-79.993077686753679" zone="Zone 2" incidentdate="2016-02-01" incidenttime="12:30:00" incidentnumber="15247893" address="900 block Second Ave" type="ARREST" age="23" gender="M" description="*********************************************** &lt;br/&gt;3921, Theft by Unlawful Taking or Disposition.&lt;br/&gt;2701, Simple Assault.&lt;br/&gt;3701, Robbery.&lt;br/&gt;903, Criminal Conspiracy.&lt;br/&gt;"/><marker lat="40.466622454058715" lng="-79.995552204385959" zone="Zone 1" incidentdate="2016-02-01" incidenttime="09:00:00" incidentnumber="15247606" address="2100 block Lappe Ln" type="ARREST" age="37" gender="F" description="*********************************************** &lt;br/&gt;2702, Aggravated Assault.&lt;br/&gt;2709(a), Harassment.&lt;br/&gt;"/><marker lat="40.450876414003957" lng="-79.943050230942575" zone="Zone 4" incidentdate="2016-02-01" incidenttime="10:00:00" incidentnumber="15247446" address="Morewood Ave &amp; Ellsworth Ave" type="ARREST" age="22" gender="M" description="*********************************************** &lt;br/&gt;3304(a)(4), CRIMINAL MISCHIEF- Intentionally Damage Property (By Graffiti, Aerosol Spray Paint, Broad Tip Marker, or Similar)&lt;br/&gt;"/><marker lat="40.458131217682286" lng="-79.945993995574568" zone="Zone 5" incidentdate="2016-02-01" incidenttime="10:00:00" incidentnumber="16003750" address="600 block Gross St" type="ARREST" age="22" gender="M" description="*********************************************** &lt;br/&gt;3304(a)(4), CRIMINAL MISCHIEF- Intentionally Damage Property (By Graffiti, Aerosol Spray Paint, Broad Tip Marker, or Similar)&lt;br/&gt;9130, Graffiti Investigation&lt;br/&gt;"/><marker lat="40.452830968992558" lng="-79.979992151490009" zone="Zone 2" incidentdate="2016-02-01" incidenttime="13:30:00" incidentnumber="16012669" address="Liberty Ave &amp; 24th St" type="ARREST" age="37" gender="F" description="*********************************************** &lt;br/&gt;3743, Accidents Involving Damage to Attended Veh. or Property&lt;br/&gt;3714, Careless Driving&lt;br/&gt;3323, Stop Signs and Yield Signs.&lt;br/&gt;"/><marker lat="40.436803213295292" lng="-79.970070201114027" zone="Zone 4" incidentdate="2016-02-01" incidenttime="10:00:00" incidentnumber="15248623" address="2400 block 5th Ave" type="ARREST" age="22" gender="M" description="*********************************************** &lt;br/&gt;3304(a)(4), CRIMINAL MISCHIEF- Intentionally Damage Property (By Graffiti, Aerosol Spray Paint, Broad Tip Marker, or Similar)&lt;br/&gt;9130, Graffiti Investigation&lt;br/&gt;"/><marker lat="40.453881093138619" lng="-79.873029877694393" zone="Zone 5" incidentdate="2016-02-01" incidenttime="19:19:00" incidentnumber="16014483" address="2200 block East Hills Dr" type="ARREST" age="20" gender="M" description="*********************************************** &lt;br/&gt;3503(b)(1)(ii), Defiant Trespass Notice Posted by Sign(s)&lt;br/&gt;"/><marker lat="40.410409269177919" lng="-79.990349653188431" zone="Zone 3" incidentdate="2016-02-01" incidenttime="16:46:00" incidentnumber="16019339" address="Suncrest St &amp; Brownsville Rd" type="ARREST" age="22" gender="M" description="*********************************************** &lt;br/&gt;13(a)(16), Possession of Controlled Substance&lt;br/&gt;13(a)(31), Marijuana: Possession Small Amount&lt;br/&gt;13(a)(32), Paraphernalia - Use or Possession&lt;br/&gt;1543, Driving While Operating Privilege is Suspended or Revoked.&lt;br/&gt;4524, Windshield Obstructions and Wipers.&lt;br/&gt;"/><marker lat="40.452647198078267" lng="-79.93640525357462" zone="Zone 4" incidentdate="2016-02-01" incidenttime="10:00:00" incidentnumber="15244924" address="5400 block Ellsworth Ave" type="ARREST" age="22" gender="M" description="*********************************************** &lt;br/&gt;3304(a)(4), CRIMINAL MISCHIEF- Intentionally Damage Property (By Graffiti, Aerosol Spray Paint, Broad Tip Marker, or Similar)&lt;br/&gt;"/><marker lat="40.468598033821102" lng="-80.000394630575286" zone="Zone 1" incidentdate="2016-02-01" incidenttime="20:39:00" incidentnumber="16019485" address="Luella St" type="ARREST" age="52" gender="M" description="*********************************************** &lt;br/&gt;2701, Simple Assault.&lt;br/&gt;"/><marker lat="40.450391913803102" lng="-79.948751251152231" zone="Zone 4" incidentdate="2016-02-01" incidenttime="10:00:00" incidentnumber="15247448" address="N Neville St &amp; Bayard St" type="ARREST" age="22" gender="M" description="*********************************************** &lt;br/&gt;3304(a)(4), CRIMINAL MISCHIEF- Intentionally Damage Property (By Graffiti, Aerosol Spray Paint, Broad Tip Marker, or Similar)&lt;br/&gt;"/><marker lat="40.451945421387748" lng="-79.952009729366381" zone="Zone 4" incidentdate="2016-02-01" incidenttime="10:00:00" incidentnumber="15248625" address="4600 block Centre Ave" type="ARREST" age="22" gender="M" description="*********************************************** &lt;br/&gt;3304(a)(4), CRIMINAL MISCHIEF- Intentionally Damage Property (By Graffiti, Aerosol Spray Paint, Broad Tip Marker, or Similar)&lt;br/&gt;9130, Graffiti Investigation&lt;br/&gt;"/><marker lat="40.455842893773692" lng="-80.004565100523507" zone="Zone 1" incidentdate="2016-02-01" incidenttime="16:00:00" incidentnumber="16019296" address="E North Ave &amp; Sandusky St N" type="ARREST" age="27" gender="F" description="*********************************************** &lt;br/&gt;13(a)(16), Possession of Controlled Substance&lt;br/&gt;13(a)(32), Paraphernalia - Use or Possession&lt;br/&gt;1543, Driving While Operating Privilege is Suspended or Revoked.&lt;br/&gt;"/><marker lat="40.445899823505272" lng="-80.052204137456769" zone="Zone 6" incidentdate="2016-02-01" incidenttime="21:07:00" incidentnumber="16019475" address="900 block Woodlow St" type="ARREST" age="20" gender="M" description="*********************************************** &lt;br/&gt;9093, Indirect Criminal Contempt&lt;br/&gt;2706, Terroristic Threats.&lt;br/&gt;"/><marker lat="40.457698005382937" lng="-79.997501382853997" zone="Zone 1" incidentdate="2016-02-01" incidenttime="00:34:00" incidentnumber="16018956" address="Concord St &amp; Turtle Way" type="ARREST" age="29" gender="M" description="*********************************************** &lt;br/&gt;1786, Required Financial Responsibility.&lt;br/&gt;3802(a)(1), DUI - General Impairment&lt;br/&gt;3802(c), DUI - Highest Rate of Alcohol - BAC &gt;= .16%&lt;br/&gt;3334, Turning Movements and Required Signals.&lt;br/&gt;1301, Registration and Certificate of Title Required.&lt;br/&gt;"/><marker lat="40.458501484518713" lng="-79.94377268697184" zone="Zone 5" incidentdate="2016-02-01" incidenttime="10:00:00" incidentnumber="16003753" address="5100 block Liberty Ave" type="ARREST" age="22" gender="M" description="*********************************************** &lt;br/&gt;3304(a)(4), CRIMINAL MISCHIEF- Intentionally Damage Property (By Graffiti, Aerosol Spray Paint, Broad Tip Marker, or Similar)&lt;br/&gt;9130, Graffiti Investigation&lt;br/&gt;"/><marker lat="40.440696417919249" lng="-79.954591082015028" zone="Zone 4" incidentdate="2016-02-01" incidenttime="10:00:00" incidentnumber="15116332" address="300 block S Bouquet St" type="ARREST" age="22" gender="M" description="*********************************************** &lt;br/&gt;3304(a)(4), CRIMINAL MISCHIEF- Intentionally Damage Property (By Graffiti, Aerosol Spray Paint, Broad Tip Marker, or Similar)&lt;br/&gt;"/><marker lat="40.452256855851552" lng="-79.950792650653668" zone="Zone 4" incidentdate="2016-02-01" incidenttime="10:00:00" incidentnumber="15248620" address="300 block Melwood Ave" type="ARREST" age="22" gender="M" description="*********************************************** &lt;br/&gt;3304(a)(4), CRIMINAL MISCHIEF- Intentionally Damage Property (By Graffiti, Aerosol Spray Paint, Broad Tip Marker, or Similar)&lt;br/&gt;9130, Graffiti Investigation&lt;br/&gt;"/><marker lat="40.434696587775576" lng="-79.996300985228572" zone="Zone 2" incidentdate="2016-02-01" incidenttime="14:30:00" incidentnumber="15239197" address="600 block First Ave" type="ARREST" age="45" gender="M" description="*********************************************** &lt;br/&gt;3502, Burglary.&lt;br/&gt;3921, Theft by Unlawful Taking or Disposition.&lt;br/&gt;903, Criminal Conspiracy.&lt;br/&gt;"/><marker lat="40.45584959643125" lng="-79.930434547158555" zone="Zone 4" incidentdate="2016-02-01" incidenttime="10:00:00" incidentnumber="15246964" address="5800 block Ellsworth Ave" type="ARREST" age="22" gender="M" description="*********************************************** &lt;br/&gt;3304(a)(4), CRIMINAL MISCHIEF- Intentionally Damage Property (By Graffiti, Aerosol Spray Paint, Broad Tip Marker, or Similar)&lt;br/&gt;"/><marker lat="40.45411894889228" lng="-79.944034255308623" zone="Zone 4" incidentdate="2016-02-01" incidenttime="10:00:00" incidentnumber="15244921" address="5000 block Centre Ave" type="ARREST" age="22" gender="M" description="*********************************************** &lt;br/&gt;3304(a)(4), CRIMINAL MISCHIEF- Intentionally Damage Property (By Graffiti, Aerosol Spray Paint, Broad Tip Marker, or Similar)&lt;br/&gt;"/><marker lat="40.449606365527259" lng="-79.974270684591801" zone="Zone 2" incidentdate="2016-02-01" incidenttime="16:50:00" incidentnumber="16019309" address="2400 block Bedford Ave" type="ARREST" age="27" gender="M" description="*********************************************** &lt;br/&gt;4304(a)(1), Endangering Welfare of Children - Course of Conduct Enhanced&lt;br/&gt;"/><marker lat="40.453969822993002" lng="-79.998974758094874" zone="Zone 1" incidentdate="2016-02-01" incidenttime="16:45:00" incidentnumber="15241448" address="600 block East Ohio St" type="ARREST" age="44" gender="F" description="*********************************************** &lt;br/&gt;901, Criminal Attempt&lt;br/&gt;4101, Forgery.&lt;br/&gt;"/><marker lat="40.453290771819006" lng="-79.94734685262128" zone="Zone 5" incidentdate="2016-02-01" incidenttime="10:00:00" incidentnumber="15247396" address="S Millvale Ave &amp; Centre Ave" type="ARREST" age="22" gender="M" description="*********************************************** &lt;br/&gt;3304(a)(4), CRIMINAL MISCHIEF- Intentionally Damage Property (By Graffiti, Aerosol Spray Paint, Broad Tip Marker, or Similar)&lt;br/&gt;9130, Graffiti Investigation&lt;br/&gt;"/><marker lat="40.455842893773692" lng="-80.004565100523507" zone="Zone 1" incidentdate="2016-02-01" incidenttime="16:00:00" incidentnumber="16019296" address="E North Ave &amp; Sandusky St N" type="ARREST" age="50" gender="M" description="*********************************************** &lt;br/&gt;13(a)(16), Possession of Controlled Substance&lt;br/&gt;13(a)(32), Paraphernalia - Use or Possession&lt;br/&gt;1543, Driving While Operating Privilege is Suspended or Revoked.&lt;br/&gt;"/><marker lat="40.447408582510299" lng="-79.938268306884581" zone="Zone 4" incidentdate="2016-02-01" incidenttime="10:00:00" incidentnumber="15244969" address="5100 block 5th Ave" type="ARREST" age="22" gender="M" description="*********************************************** &lt;br/&gt;3304(a)(4), CRIMINAL MISCHIEF- Intentionally Damage Property (By Graffiti, Aerosol Spray Paint, Broad Tip Marker, or Similar)&lt;br/&gt;"/><marker lat="40.457261886016532" lng="-79.934057272019743" zone="Zone 4" incidentdate="2016-02-01" incidenttime="10:00:00" incidentnumber="15226390" address="Centre Ave &amp; S Negley Ave" type="ARREST" age="22" gender="M" description="*********************************************** &lt;br/&gt;3304(a)(4), CRIMINAL MISCHIEF- Intentionally Damage Property (By Graffiti, Aerosol Spray Paint, Broad Tip Marker, or Similar)&lt;br/&gt;"/><marker lat="40.437346743171041" lng="-79.964929789123403" zone="Zone 4" incidentdate="2016-02-01" incidenttime="10:00:00" incidentnumber="16002534" address="3200 block 5th Ave" type="ARREST" age="22" gender="M" description="*********************************************** &lt;br/&gt;3304(a)(4), CRIMINAL MISCHIEF- Intentionally Damage Property (By Graffiti, Aerosol Spray Paint, Broad Tip Marker, or Similar)&lt;br/&gt;9130, Graffiti Investigation&lt;br/&gt;"/><marker lat="40.453970751777504" lng="-79.981102870726815" zone="Zone 2" incidentdate="2016-02-01" incidenttime="11:25:00" incidentnumber="16004105" address="2400 block Smallman St" type="ARREST" age="48" gender="F" description="*********************************************** &lt;br/&gt;3921, Theft by Unlawful Taking or Disposition.&lt;br/&gt;"/><marker lat="40.438721756509537" lng="-79.999466085108594" zone="Zone 2" incidentdate="2016-02-01" incidenttime="19:33:00" incidentnumber="16019441" address="400 block Smithfield St" type="ARREST" age="50" gender="M" description="*********************************************** &lt;br/&gt;3502, Burglary.&lt;br/&gt;3921(a), Theft by Unlawful Taking or Disposition - Movable item&lt;br/&gt;4914, False Identification to Law Enforcement Authorities&lt;br/&gt;3925, Receiving Stolen Property.&lt;br/&gt;"/><marker lat="40.456572332747427" lng="-80.001487255429311" zone="Zone 4" incidentdate="2016-02-01" incidenttime="10:00:00" incidentnumber="15244917" address="500 block N Neville St" type="ARREST" age="22" gender="M" description="*********************************************** &lt;br/&gt;3304(a)(4), CRIMINAL MISCHIEF- Intentionally Damage Property (By Graffiti, Aerosol Spray Paint, Broad Tip Marker, or Similar)&lt;br/&gt;"/><marker lat="40.455909609583095" lng="-79.938591213406013" zone="Zone 4" incidentdate="2016-02-01" incidenttime="10:00:00" incidentnumber="15247402" address="S Aiken Ave &amp; Centre Ave" type="ARREST" age="22" gender="M" description="*********************************************** &lt;br/&gt;3304(a)(4), CRIMINAL MISCHIEF- Intentionally Damage Property (By Graffiti, Aerosol Spray Paint, Broad Tip Marker, or Similar)&lt;br/&gt;9130, Graffiti Investigation&lt;br/&gt;"/><marker lat="40.450391913803102" lng="-79.948751251152231" zone="Zone 4" incidentdate="2016-02-01" incidenttime="10:00:00" incidentnumber="15248627" address="N Neville St &amp; Bayard St" type="ARREST" age="22" gender="M" description="*********************************************** &lt;br/&gt;3304(a)(4), CRIMINAL MISCHIEF- Intentionally Damage Property (By Graffiti, Aerosol Spray Paint, Broad Tip Marker, or Similar)&lt;br/&gt;9130, Graffiti Investigation&lt;br/&gt;"/><marker lat="40.457366030687112" lng="-79.947605796923497" zone="Zone 5" incidentdate="2016-02-01" incidenttime="10:00:00" incidentnumber="16003757" address="700 block Gross St" type="ARREST" age="22" gender="M" description="*********************************************** &lt;br/&gt;3304(a)(4), CRIMINAL MISCHIEF- Intentionally Damage Property (By Graffiti, Aerosol Spray Paint, Broad Tip Marker, or Similar)&lt;br/&gt;"/><marker lat="40.447742616714017" lng="-79.937222331872192" zone="Zone 4" incidentdate="2016-02-01" incidenttime="10:00:00" incidentnumber="15092925" address="5200 block 5th Ave" type="ARREST" age="22" gender="M" description="*********************************************** &lt;br/&gt;3304(a)(4), CRIMINAL MISCHIEF- Intentionally Damage Property (By Graffiti, Aerosol Spray Paint, Broad Tip Marker, or Similar)&lt;br/&gt;"/><marker lat="40.437818600399822" lng="-79.963832573222589" zone="Zone 4" incidentdate="2016-02-01" incidenttime="10:00:00" incidentnumber="15231232" address="3300 block 5th Ave" type="ARREST" age="22" gender="M" description="*********************************************** &lt;br/&gt;3304(a)(4), CRIMINAL MISCHIEF- Intentionally Damage Property (By Graffiti, Aerosol Spray Paint, Broad Tip Marker, or Similar)&lt;br/&gt;"/><marker lat="40.461630806852277" lng="-79.926784260450063" zone="Zone 5" incidentdate="2016-02-01" incidenttime="10:00:00" incidentnumber="16003756" address="5900 block Penn Ave" type="ARREST" age="22" gender="M" description="*********************************************** &lt;br/&gt;3304(a)(4), CRIMINAL MISCHIEF- Intentionally Damage Property (By Graffiti, Aerosol Spray Paint, Broad Tip Marker, or Similar)&lt;br/&gt;"/><marker lat="40.45584959643125" lng="-79.930434547158555" zone="Zone 4" incidentdate="2016-02-01" incidenttime="10:00:00" incidentnumber="15246962" address="5800 block Ellsworth Ave" type="ARREST" age="22" gender="M" description="*********************************************** &lt;br/&gt;3304(a)(4), CRIMINAL MISCHIEF- Intentionally Damage Property (By Graffiti, Aerosol Spray Paint, Broad Tip Marker, or Similar)&lt;br/&gt;"/></markers>
