<?xml version="1.0"?>
<markers><marker lat="40.425851075405767" lng="-79.935826934054475" zone="Zone 4" incidentdate="2015-11-30" incidenttime="06:00:00" incidentnumber="15229463" address="Flemington St &amp; Graphic St" type="OFFENSE" age="" gender="" description="*********************************************** &lt;br/&gt;3934, Theft from Vehicle&lt;br/&gt;"/><marker lat="40.408471436041602" lng="-80.025281003665256" zone="Zone 6" incidentdate="2015-11-30" incidenttime="20:30:00" incidentnumber="15229577" address="1700 block Broadway Ave" type="OFFENSE" age="" gender="" description="*********************************************** &lt;br/&gt;9999, 9999 - (Misc. Incident):&lt;br/&gt;"/><marker lat="40.476377925537506" lng="-80.039721353393048" zone="Zone 1" incidentdate="2015-11-30" incidenttime="23:10:00" incidentnumber="15229635" address="3400 block California Ave" type="OFFENSE" age="" gender="" description="*********************************************** &lt;br/&gt;4906, False Reports to Law Enforcement Authorities.&lt;br/&gt;"/><marker lat="40.438219522469147" lng="-80.034614263575634" zone="Zone 6" incidentdate="2015-11-30" incidenttime="07:23:00" incidentnumber="15224136" address="100 block Wabash St" type="OFFENSE" age="" gender="" description="*********************************************** &lt;br/&gt;9488, False  Burglar Alarm&lt;br/&gt;"/><marker lat="40.450804541052527" lng="-79.906346309907761" zone="Zone 4" incidentdate="2015-11-30" incidenttime="09:15:00" incidentnumber="15229201" address="7000 block Penn Ave" type="OFFENSE" age="" gender="" description="*********************************************** &lt;br/&gt;3934, Theft from Vehicle&lt;br/&gt;"/><marker lat="40.460879170018735" lng="-79.91683710956913" zone="Zone 5" incidentdate="2015-11-30" incidenttime="17:04:00" incidentnumber="15229466" address="300 block Enright Ct" type="OFFENSE" age="" gender="" description="*********************************************** &lt;br/&gt;2701(a)(1), Simple Assault - Intent., Know., Reckless.Cause Bod. Injury&lt;br/&gt;2701(a)(3), Simple Assault - Attempts by Physical Menace&lt;br/&gt;"/><marker lat="40.455602467562372" lng="-79.95008361176366" zone="Zone 5" incidentdate="2015-11-30" incidenttime="07:38:00" incidentnumber="15229142" address="100 block Morewood Ave" type="OFFENSE" age="" gender="" description="*********************************************** &lt;br/&gt;2702, Aggravated Assault.&lt;br/&gt;9093, Indirect Criminal Contempt&lt;br/&gt;"/><marker lat="40.452814518523112" lng="-79.909981901075255" zone="Zone 4" incidentdate="2015-11-30" incidenttime="11:00:00" incidentnumber="15229461" address="100 block S Linden Ave" type="OFFENSE" age="" gender="" description="*********************************************** &lt;br/&gt;3922, Theft by Deception.&lt;br/&gt;2709, Harassment (Non-Specific)&lt;br/&gt;"/><marker lat="40.453243161989811" lng="-79.962487878814883" zone="Zone 2" incidentdate="2015-11-30" incidenttime="00:45:00" incidentnumber="15229030" address="700 block Bryn Mawr Rd" type="OFFENSE" age="" gender="" description="*********************************************** &lt;br/&gt;3502, Burglary.&lt;br/&gt;"/><marker lat="40.4679546" lng="-79.9035630" zone="Zone 5" incidentdate="2015-11-30" incidenttime="01:04:00" incidentnumber="15229035" address="6500 block Dean St" type="OFFENSE" age="" gender="" description="*********************************************** &lt;br/&gt;029, Missing Juvenile&lt;br/&gt;"/><marker lat="40.456581713944651" lng="-80.000332843470076" zone="Zone 1" incidentdate="2015-11-30" incidenttime="17:05:00" incidentnumber="15171891" address="E North Ave" type="OFFENSE" age="" gender="" description="*********************************************** &lt;br/&gt;3921(a), Theft by Unlawful Taking or Disposition - Movable item&lt;br/&gt;"/><marker lat="40.422951335126321" lng="-80.010110880263312" zone="Zone 3" incidentdate="2015-11-30" incidenttime="06:50:00" incidentnumber="15229130" address="500 block Boggs Ave" type="OFFENSE" age="" gender="" description="*********************************************** &lt;br/&gt;3304, Criminal Mischief.&lt;br/&gt;"/><marker lat="40.475217439069624" lng="-79.93191609540591" zone="Zone 5" incidentdate="2015-11-30" incidenttime="01:31:00" incidentnumber="15229028" address="Stanton Ave &amp; Morningside Ave" type="OFFENSE" age="" gender="" description="*********************************************** &lt;br/&gt;9501, Bench Warrant&lt;br/&gt;"/><marker lat="40.449997946905924" lng="-79.903761331848415" zone="Zone 4" incidentdate="2015-11-30" incidenttime="14:00:00" incidentnumber="15229384" address="S Lang Ave &amp; Penn Ave" type="OFFENSE" age="" gender="" description="*********************************************** &lt;br/&gt;3934, Theft from Vehicle&lt;br/&gt;"/><marker lat="40.444136782158047" lng="-80.000993475333104" zone="Zone 2" incidentdate="2015-11-30" incidenttime="19:01:00" incidentnumber="15229531" address="100 block 7th St" type="OFFENSE" age="" gender="" description="*********************************************** &lt;br/&gt;5505, Public Drunkenness&lt;br/&gt;5503(a)(3), DISORDERLY CONDUCT - OBSCENE LANG/GEST&lt;br/&gt;"/><marker lat="40.458313629612618" lng="-79.891012641854417" zone="Zone 5" incidentdate="2015-11-30" incidenttime="19:17:00" incidentnumber="15229545" address="7400 block Monticello St" type="OFFENSE" age="" gender="" description="*********************************************** &lt;br/&gt;2702, Aggravated Assault.&lt;br/&gt;"/><marker lat="40.438721756509537" lng="-79.999466085108594" zone="Zone 2" incidentdate="2015-11-30" incidenttime="12:20:00" incidentnumber="15229307" address="400 block Smithfield St" type="OFFENSE" age="" gender="" description="*********************************************** &lt;br/&gt;3934, Theft from Vehicle&lt;br/&gt;"/><marker lat="40.458270613599353" lng="-80.075467884670715" zone="Zone 6" incidentdate="2015-11-30" incidenttime="15:28:00" incidentnumber="15229407" address="3800 block Chartiers Ave" type="OFFENSE" age="" gender="" description="*********************************************** &lt;br/&gt;3802(a)(1), DUI - General Impairment&lt;br/&gt;"/><marker lat="40.425219679218074" lng="-79.99243777066971" zone="Zone 3" incidentdate="2015-11-30" incidenttime="16:00:00" incidentnumber="15229473" address="Hanover St" type="OFFENSE" age="" gender="" description="*********************************************** &lt;br/&gt;2709.2, Stalking Conduct or Repeatedly Communicates&lt;br/&gt;"/><marker lat="40.438721756509537" lng="-79.999466085108594" zone="Zone 2" incidentdate="2015-11-30" incidenttime="07:35:00" incidentnumber="15229150" address="400 block Smithfield St" type="OFFENSE" age="" gender="" description="*********************************************** &lt;br/&gt;3304, Criminal Mischief.&lt;br/&gt;2706, Terroristic Threats.&lt;br/&gt;2710, Ethnic Intimidation.&lt;br/&gt;"/><marker lat="40.468754156726419" lng="-80.009586282184429" zone="Zone 1" incidentdate="2015-11-30" incidenttime="02:50:00" incidentnumber="15229076" address="Perrysville Ave &amp; E Mc Intyre Ave" type="OFFENSE" age="" gender="" description="*********************************************** &lt;br/&gt;9093, Indirect Criminal Contempt&lt;br/&gt;"/><marker lat="40.43819611073102" lng="-79.986495470805934" zone="Zone 2" incidentdate="2015-11-30" incidenttime="15:10:00" incidentnumber="15229388" address="Stevenson St &amp; Watson St" type="OFFENSE" age="" gender="" description="*********************************************** &lt;br/&gt;13(a)(16), Possession of Controlled Substance&lt;br/&gt;"/><marker lat="40.452629822421216" lng="-79.910380900781746" zone="Zone 4" incidentdate="2015-11-30" incidenttime="18:50:00" incidentnumber="15229529" address="Penn Ave &amp; N Linden Ave" type="OFFENSE" age="" gender="" description="*********************************************** &lt;br/&gt;3743, Accidents Involving Damage to Attended Veh. or Property&lt;br/&gt;"/><marker lat="40.417400710446842" lng="-80.000476689810228" zone="Zone 3" incidentdate="2015-11-30" incidenttime="20:00:00" incidentnumber="15229576" address="600 block Estella Ave" type="OFFENSE" age="" gender="" description="*********************************************** &lt;br/&gt;3921(a), Theft by Unlawful Taking or Disposition - Movable item&lt;br/&gt;"/><marker lat="40.440085617217491" lng="-79.998645938306552" zone="Zone 2" incidentdate="2015-11-30" incidenttime="15:30:00" incidentnumber="15229421" address="Smithfield St &amp; 5th Ave" type="OFFENSE" age="" gender="" description="*********************************************** &lt;br/&gt;3701, Robbery.&lt;br/&gt;"/><marker lat="40.442802683726654" lng="-80.032470494061599" zone="Zone 6" incidentdate="2015-11-30" incidenttime="13:45:00" incidentnumber="15229319" address="100 block Steuben St" type="OFFENSE" age="" gender="" description="*********************************************** &lt;br/&gt;2705, Recklessly Endangering Another Person.&lt;br/&gt;3353, Prohibitions in Specified Places.&lt;br/&gt;"/><marker lat="40.457344218687275" lng="-79.877155373023612" zone="Zone 5" incidentdate="2015-11-30" incidenttime="11:34:00" incidentnumber="15229274" address="8400 block fRANKSTOWN Ave" type="OFFENSE" age="" gender="" description="*********************************************** &lt;br/&gt;3921(a), Theft by Unlawful Taking or Disposition - Movable item&lt;br/&gt;"/><marker lat="40.450324462016034" lng="-79.986823937087834" zone="Zone 2" incidentdate="2015-11-30" incidenttime="14:00:00" incidentnumber="15229362" address="Smallman St &amp; 17th St" type="OFFENSE" age="" gender="" description="*********************************************** &lt;br/&gt;3304, Criminal Mischief.&lt;br/&gt;3934, Theft from Vehicle&lt;br/&gt;"/><marker lat="40.46344511684363" lng="-79.952480985060078" zone="Zone 5" incidentdate="2015-11-30" incidenttime="15:25:00" incidentnumber="15229400" address="4100 block Liberty Ave" type="OFFENSE" age="" gender="" description="*********************************************** &lt;br/&gt;13(a)(32), Paraphernalia - Use or Possession&lt;br/&gt;"/><marker lat="40.453619093999571" lng="-80.026260291753616" zone="Zone 1" incidentdate="2015-11-30" incidenttime="19:10:00" incidentnumber="15229544" address="1400 block Stedman St" type="OFFENSE" age="" gender="" description="*********************************************** &lt;br/&gt;2709.1, Stalking Conduct or Repeatedly Acts Including Follows&lt;br/&gt;"/><marker lat="40.468091415934907" lng="-80.025116666162575" zone="Zone 1" incidentdate="2015-11-30" incidenttime="13:00:00" incidentnumber="15229604" address="2600 block Brighton Rd" type="OFFENSE" age="" gender="" description="*********************************************** &lt;br/&gt;3304, Criminal Mischief.&lt;br/&gt;"/><marker lat="40.452404907195394" lng="-80.014018734056577" zone="Zone 1" incidentdate="2015-11-30" incidenttime="16:30:00" incidentnumber="15229481" address="Brighton Rd &amp; Western Ave" type="OFFENSE" age="" gender="" description="*********************************************** &lt;br/&gt;3743, Accidents Involving Damage to Attended Veh. or Property&lt;br/&gt;"/><marker lat="40.468949448621721" lng="-79.999184217115484" zone="Zone 1" incidentdate="2015-11-30" incidenttime="00:58:00" incidentnumber="15229018" address="900 block Mina St" type="OFFENSE" age="" gender="" description="*********************************************** &lt;br/&gt;9999, 9999 - (Misc. Incident):&lt;br/&gt;"/><marker lat="40.450505739749552" lng="-80.078545182896207" zone="Zone 6" incidentdate="2015-11-30" incidenttime="00:46:00" incidentnumber="15229027" address="400 block Village Rd" type="OFFENSE" age="" gender="" description="*********************************************** &lt;br/&gt;2709(a)(1), Harassment by Physical Contact, or Attempts or Threats&lt;br/&gt;"/><marker lat="40.3993418" lng="-80.0447346" zone="Zone 6" incidentdate="2015-11-30" incidenttime="00:26:00" incidentnumber="15229023" address="3200 block Banksville Rd" type="OFFENSE" age="" gender="" description="*********************************************** &lt;br/&gt;3701, Robbery.&lt;br/&gt;"/><marker lat="40.423392364024551" lng="-79.977636950576056" zone="Zone 3" incidentdate="2015-11-30" incidenttime="01:52:00" incidentnumber="15229058" address="2000 block S 18th St" type="OFFENSE" age="" gender="" description="*********************************************** &lt;br/&gt;3736, Reckless Driving&lt;br/&gt;3802(a)(1), DUI - General Impairment&lt;br/&gt;3802(b), DUI - High Rate of Alchol - BAC &gt;=.10% &lt;.16%&lt;br/&gt;"/><marker lat="40.423081481751602" lng="-79.974352635203118" zone="Zone 3" incidentdate="2015-11-30" incidenttime="02:32:00" incidentnumber="15229070" address="Greeley St" type="OFFENSE" age="" gender="" description="*********************************************** &lt;br/&gt;3802(a)(1), DUI - General Impairment&lt;br/&gt;3802(c), DUI - Highest Rate of Alcohol - BAC &gt;= .16%&lt;br/&gt;"/><marker lat="40.447045182951896" lng="-79.980716136423851" zone="Zone 2" incidentdate="2015-11-30" incidenttime="09:00:00" incidentnumber="15229186" address="2100 block Bedford Ave" type="OFFENSE" age="" gender="" description="*********************************************** &lt;br/&gt;0291, Located Runaway - Outside City&lt;br/&gt;"/><marker lat="40.429438536176598" lng="-79.984214133354882" zone="Zone 3" incidentdate="2015-11-30" incidenttime="00:02:00" incidentnumber="15229015" address="S 14th St" type="OFFENSE" age="" gender="" description="*********************************************** &lt;br/&gt;3502, Burglary.&lt;br/&gt;5104, Resisting Arrest or Other Law Enforcement.&lt;br/&gt;5505, Public Drunkenness&lt;br/&gt;907, Possessing Instruments of Crime.&lt;br/&gt;"/><marker lat="40.405118641311411" lng="-80.029017936914556" zone="Zone 6" incidentdate="2015-11-30" incidenttime="15:16:00" incidentnumber="15229404" address="2100 block Los Angeles Ave" type="OFFENSE" age="" gender="" description="*********************************************** &lt;br/&gt;2709, Harassment (Non-Specific)&lt;br/&gt;"/><marker lat="40.471012276973703" lng="-80.016772844247583" zone="Zone 1" incidentdate="2015-11-30" incidenttime="19:41:00" incidentnumber="15229555" address="500 block Marshall Ave" type="OFFENSE" age="" gender="" description="*********************************************** &lt;br/&gt;2702, Aggravated Assault.&lt;br/&gt;"/><marker lat="40.424206948264811" lng="-80.024861250847621" zone="Zone 6" incidentdate="2015-11-30" incidenttime="14:00:00" incidentnumber="15229360" address="800 block Tropical Ave" type="OFFENSE" age="" gender="" description="*********************************************** &lt;br/&gt;3745, Accidents Involving Damage to Unattended Veh.or Prop.&lt;br/&gt;"/><marker lat="40.451931544123035" lng="-79.923971341868125" zone="Zone 4" incidentdate="2015-11-30" incidenttime="03:14:00" incidentnumber="15229084" address="5th Ave &amp; S Highland Ave" type="OFFENSE" age="" gender="" description="*********************************************** &lt;br/&gt;3736, Reckless Driving&lt;br/&gt;3802(a)(1), DUI - General Impairment&lt;br/&gt;"/><marker lat="40.456631691599149" lng="-80.081316185358943" zone="Zone 6" incidentdate="2015-11-30" incidenttime="10:00:00" incidentnumber="15229268" address="Summerdale St &amp; Haven St" type="OFFENSE" age="" gender="" description="*********************************************** &lt;br/&gt;3304, Criminal Mischief.&lt;br/&gt;"/><marker lat="40.487005893339358" lng="-80.037524061145021" zone="Zone 1" incidentdate="2015-11-30" incidenttime="18:30:00" incidentnumber="15229513" address="Brighton Rd &amp; Kleber St" type="OFFENSE" age="" gender="" description="*********************************************** &lt;br/&gt;9489, Found Property&lt;br/&gt;"/><marker lat="40.4633497" lng="-79.8938316" zone="Zone 5" incidentdate="2015-11-30" incidenttime="15:00:00" incidentnumber="15229424" address="7100 block Everton St" type="OFFENSE" age="" gender="" description="*********************************************** &lt;br/&gt;3502, Burglary.&lt;br/&gt;"/><marker lat="40.456205571483146" lng="-80.049446875940816" zone="Zone 6" incidentdate="2015-11-30" incidenttime="08:00:00" incidentnumber="15229182" address="300 block Hammond St" type="OFFENSE" age="" gender="" description="*********************************************** &lt;br/&gt;9999, 9999 - (Misc. Incident):&lt;br/&gt;"/><marker lat="40.455504998738647" lng="-80.007850467221047" zone="Zone 5" incidentdate="2015-11-30" incidenttime="12:00:00" incidentnumber="15229534" address="100 block N Pacific Ave" type="OFFENSE" age="" gender="" description="*********************************************** &lt;br/&gt;3934, Theft from Vehicle&lt;br/&gt;"/><marker lat="40.454948691850667" lng="-80.009640272832598" zone="Zone 1" incidentdate="2015-11-30" incidenttime="00:58:00" incidentnumber="15229033" address="300 block E North Ave" type="OFFENSE" age="" gender="" description="*********************************************** &lt;br/&gt;13(a)(16), Possession of Controlled Substance&lt;br/&gt;13(a)(32), Paraphernalia - Use or Possession&lt;br/&gt;"/><marker lat="40.449072841497312" lng="-79.883741917226331" zone="Zone 5" incidentdate="2015-11-30" incidenttime="17:30:00" incidentnumber="15229526" address="500 block Oakwood St" type="OFFENSE" age="" gender="" description="*********************************************** &lt;br/&gt;3745, Accidents Involving Damage to Unattended Veh.or Prop.&lt;br/&gt;"/><marker lat="40.442743337395136" lng="-79.895807560020302" zone="Zone 4" incidentdate="2015-11-30" incidenttime="05:00:00" incidentnumber="15229139" address="500 block East End Ave" type="OFFENSE" age="" gender="" description="*********************************************** &lt;br/&gt;3934, Theft from Vehicle&lt;br/&gt;"/><marker lat="40.4765709338958" lng="-80.021868968795403" zone="Zone 1" incidentdate="2015-11-30" incidenttime="23:19:00" incidentnumber="15229631" address="800 block Grand Ave" type="OFFENSE" age="" gender="" description="*********************************************** &lt;br/&gt;4106, Access Device Fraud&lt;br/&gt;4120, Identity Theft&lt;br/&gt;"/><marker lat="40.450643107602708" lng="-80.013459947155624" zone="Zone 1" incidentdate="2015-11-30" incidenttime="13:30:00" incidentnumber="15229420" address="800 block Ridge Ave" type="OFFENSE" age="" gender="" description="*********************************************** &lt;br/&gt;3921, Theft by Unlawful Taking or Disposition.&lt;br/&gt;"/><marker lat="40.451831141436834" lng="-79.928356812945353" zone="Zone 4" incidentdate="2015-11-30" incidenttime="17:05:00" incidentnumber="15229462" address="900 block Maryland Ave" type="OFFENSE" age="" gender="" description="*********************************************** &lt;br/&gt;9501, Bench Warrant&lt;br/&gt;"/><marker lat="40.452814518523112" lng="-79.909981901075255" zone="Zone 4" incidentdate="2015-11-30" incidenttime="08:00:00" incidentnumber="15229153" address="100 block S Linden Ave" type="OFFENSE" age="" gender="" description="*********************************************** &lt;br/&gt;9496, Dead on Arrival (DOA)&lt;br/&gt;"/><marker lat="40.469387669405805" lng="-79.929877482606599" zone="Zone 5" incidentdate="2015-11-30" incidenttime="07:00:00" incidentnumber="15229192" address="5500 block Black St" type="OFFENSE" age="" gender="" description="*********************************************** &lt;br/&gt;3304, Criminal Mischief.&lt;br/&gt;"/><marker lat="40.391579872568094" lng="-80.015378713407102" zone="Zone 6" incidentdate="2015-11-30" incidenttime="17:48:00" incidentnumber="15229483" address="1100 block Brookline Blvd" type="OFFENSE" age="" gender="" description="*********************************************** &lt;br/&gt;3743, Accidents Involving Damage to Attended Veh. or Property&lt;br/&gt;"/><marker lat="40.487726912177422" lng="-80.028808585781434" zone="Zone 1" incidentdate="2015-11-30" incidenttime="14:00:00" incidentnumber="15229410" address="100 block Bookbinder Cir" type="OFFENSE" age="" gender="" description="*********************************************** &lt;br/&gt;9999, 9999 - (Misc. Incident):&lt;br/&gt;"/><marker lat="40.449646657025653" lng="-79.892798110797884" zone="Zone 4" incidentdate="2015-11-30" incidenttime="21:45:00" incidentnumber="15229606" address="300 block N Braddock Ave" type="OFFENSE" age="" gender="" description="*********************************************** &lt;br/&gt;9501, Bench Warrant&lt;br/&gt;"/><marker lat="40.455468004904013" lng="-79.910587732745498" zone="Zone 4" incidentdate="2015-11-30" incidenttime="07:30:00" incidentnumber="15229170" address="6700 block Mc Pherson Blvd" type="OFFENSE" age="" gender="" description="*********************************************** &lt;br/&gt;3745, Accidents Involving Damage to Unattended Veh.or Prop.&lt;br/&gt;"/><marker lat="40.473927946275474" lng="-80.028829566091972" zone="Zone 1" incidentdate="2015-11-30" incidenttime="16:30:00" incidentnumber="15229445" address="3100 block Brighton Rd" type="OFFENSE" age="" gender="" description="*********************************************** &lt;br/&gt;3304(a)(5), CRIMINAL MISCHIEF - Intentionally Damages Real Or Personal Property Of Another&lt;br/&gt;"/><marker lat="40.442584949905417" lng="-80.001789508770926" zone="Zone 2" incidentdate="2015-11-30" incidenttime="11:18:00" incidentnumber="15229246" address="600 block Penn Ave" type="OFFENSE" age="" gender="" description="*********************************************** &lt;br/&gt;3502, Burglary.&lt;br/&gt;"/><marker lat="40.441652930044143" lng="-79.992034174465672" zone="Zone 2" incidentdate="2015-11-30" incidenttime="16:50:00" incidentnumber="15229457" address="Washington Pl &amp; Bedford Ave" type="OFFENSE" age="" gender="" description="*********************************************** &lt;br/&gt;5507, Obstructing Highways and Passages.&lt;br/&gt;602.04, Panhandling and Prohibited Conduct&lt;br/&gt;"/><marker lat="40.441919441965581" lng="-79.982892744621594" zone="Zone 2" incidentdate="2015-11-30" incidenttime="18:02:00" incidentnumber="15226632" address="1800 block Centre Ave" type="ARREST" age="48" gender="M" description="*********************************************** &lt;br/&gt;2701, Simple Assault.&lt;br/&gt;"/><marker lat="40.455602467562372" lng="-79.95008361176366" zone="Zone 5" incidentdate="2015-11-30" incidenttime="11:00:00" incidentnumber="15229142" address="100 block Morewood Ave" type="ARREST" age="36" gender="F" description="*********************************************** &lt;br/&gt;2702, Aggravated Assault.&lt;br/&gt;9093, Indirect Criminal Contempt&lt;br/&gt;"/><marker lat="40.449646657025653" lng="-79.892798110797884" zone="Zone 4" incidentdate="2015-11-30" incidenttime="21:45:00" incidentnumber="15229606" address="300 block N Braddock Ave" type="ARREST" age="31" gender="M" description="*********************************************** &lt;br/&gt;9501, Bench Warrant&lt;br/&gt;"/><marker lat="40.455397300341026" lng="-79.997219798418371" zone="Zone 1" incidentdate="2015-11-30" incidenttime="13:50:00" incidentnumber="15221749" address="800 block Peralta St" type="ARREST" age="39" gender="M" description="*********************************************** &lt;br/&gt;2701, Simple Assault.&lt;br/&gt;"/><marker lat="40.453477680947003" lng="-80.000601233520499" zone="Zone 1" incidentdate="2015-11-30" incidenttime="09:25:00" incidentnumber="15173087" address="James St &amp; East Ohio St" type="ARREST" age="39" gender="F" description="*********************************************** &lt;br/&gt;13(a)(16), Possession of Controlled Substance&lt;br/&gt;9015, Failure To Appear/Arrest on Attachment Order&lt;br/&gt;5505, Public Drunkenness&lt;br/&gt;"/><marker lat="40.468754156726419" lng="-80.009586282184429" zone="Zone 1" incidentdate="2015-11-30" incidenttime="03:10:00" incidentnumber="15229076" address="Perrysville Ave &amp; E Mc Intyre Ave" type="ARREST" age="30" gender="M" description="*********************************************** &lt;br/&gt;9093, Indirect Criminal Contempt&lt;br/&gt;"/><marker lat="40.423081481751602" lng="-79.974352635203118" zone="Zone 3" incidentdate="2015-11-30" incidenttime="02:51:00" incidentnumber="15229070" address="Greeley St" type="ARREST" age="25" gender="F" description="*********************************************** &lt;br/&gt;3802(a)(1), DUI - General Impairment&lt;br/&gt;3802(c), DUI - Highest Rate of Alcohol - BAC &gt;= .16%&lt;br/&gt;"/><marker lat="40.465135387913563" lng="-79.95790763699263" zone="Zone 5" incidentdate="2015-11-30" incidenttime="15:16:00" incidentnumber="15157311" address="4000 block Penn Ave" type="ARREST" age="57" gender="M" description="*********************************************** &lt;br/&gt;2702, Aggravated Assault.&lt;br/&gt;"/><marker lat="40.452655839946971" lng="-80.019264597201101" zone="Zone 1" incidentdate="2015-11-30" incidenttime="11:10:00" incidentnumber="14071234" address="1000 block Abdell St" type="ARREST" age="0" gender="M" description="*********************************************** &lt;br/&gt;13(a)(16), Possession of Controlled Substance&lt;br/&gt;13(a)(30), Possession w/ Intent to Del. Controlled Substance&lt;br/&gt;"/><marker lat="40.455602467562372" lng="-79.95008361176366" zone="Zone 5" incidentdate="2015-11-30" incidenttime="11:00:00" incidentnumber="15229142" address="100 block Morewood Ave" type="ARREST" age="44" gender="M" description="*********************************************** &lt;br/&gt;2702, Aggravated Assault.&lt;br/&gt;9093, Indirect Criminal Contempt&lt;br/&gt;"/><marker lat="40.441652930044143" lng="-79.992034174465672" zone="Zone 2" incidentdate="2015-11-30" incidenttime="16:50:00" incidentnumber="15229457" address="Washington Pl &amp; Bedford Ave" type="ARREST" age="40" gender="M" description="*********************************************** &lt;br/&gt;5507, Obstructing Highways and Passages.&lt;br/&gt;602.04, Panhandling and Prohibited Conduct&lt;br/&gt;"/><marker lat="40.451931544123035" lng="-79.923971341868125" zone="Zone 4" incidentdate="2015-11-30" incidenttime="03:32:00" incidentnumber="15229084" address="5th Ave &amp; S Highland Ave" type="ARREST" age="23" gender="F" description="*********************************************** &lt;br/&gt;3736, Reckless Driving&lt;br/&gt;3802(a)(1), DUI - General Impairment&lt;br/&gt;"/><marker lat="40.429438536176598" lng="-79.984214133354882" zone="Zone 3" incidentdate="2015-11-30" incidenttime="00:13:00" incidentnumber="15229015" address="S 14th St" type="ARREST" age="22" gender="M" description="*********************************************** &lt;br/&gt;3502, Burglary.&lt;br/&gt;5104, Resisting Arrest or Other Law Enforcement.&lt;br/&gt;5505, Public Drunkenness&lt;br/&gt;907, Possessing Instruments of Crime.&lt;br/&gt;"/><marker lat="40.423392364024551" lng="-79.977636950576056" zone="Zone 3" incidentdate="2015-11-30" incidenttime="02:00:00" incidentnumber="15229058" address="2000 block S 18th St" type="ARREST" age="24" gender="M" description="*********************************************** &lt;br/&gt;3736, Reckless Driving&lt;br/&gt;3802(a)(1), DUI - General Impairment&lt;br/&gt;3802(b), DUI - High Rate of Alchol - BAC &gt;=.10% &lt;.16%&lt;br/&gt;"/><marker lat="40.454948691850667" lng="-80.009640272832598" zone="Zone 1" incidentdate="2015-11-30" incidenttime="00:58:00" incidentnumber="15229033" address="300 block E North Ave" type="ARREST" age="34" gender="F" description="*********************************************** &lt;br/&gt;13(a)(16), Possession of Controlled Substance&lt;br/&gt;13(a)(32), Paraphernalia - Use or Possession&lt;br/&gt;"/><marker lat="40.456581713944651" lng="-80.000332843470076" zone="Zone 1" incidentdate="2015-11-30" incidenttime="17:05:00" incidentnumber="15171891" address="E North Ave" type="ARREST" age="57" gender="M" description="*********************************************** &lt;br/&gt;3921(a), Theft by Unlawful Taking or Disposition - Movable item&lt;br/&gt;"/><marker lat="40.441598665268899" lng="-79.96990440705612" zone="Zone 2" incidentdate="2015-11-30" incidenttime="04:00:00" incidentnumber="15223618" address="300 block Eckstein Pl" type="ARREST" age="44" gender="M" description="*********************************************** &lt;br/&gt;2705, Recklessly Endangering Another Person.&lt;br/&gt;2702, Aggravated Assault.&lt;br/&gt;901, Criminal Attempt&lt;br/&gt;"/><marker lat="40.430020824945359" lng="-79.976813326700821" zone="Zone 3" incidentdate="2015-11-30" incidenttime="14:35:00" incidentnumber="15223939" address="2000 block Wharton Sq" type="ARREST" age="42" gender="F" description="*********************************************** &lt;br/&gt;3929(a)(1), Retail Theft; takes possession of, carries away, or transfers displayed merchandise&lt;br/&gt;"/><marker lat="40.402950079567695" lng="-80.020648133500472" zone="Zone 6" incidentdate="2015-11-30" incidenttime="22:30:00" incidentnumber="15220409" address="West Liberty Ave &amp; Peola Rd" type="ARREST" age="22" gender="M" description="*********************************************** &lt;br/&gt;1501, Drivers Required to be Licensed.&lt;br/&gt;3743, Accidents Involving Damage to Attended Veh. or Property&lt;br/&gt;3742.1, Accident Involv. Death/Inj. While not Licensed&lt;br/&gt;"/><marker lat="40.471012276973703" lng="-80.016772844247583" zone="Zone 1" incidentdate="2015-11-30" incidenttime="19:50:00" incidentnumber="15229555" address="500 block Marshall Ave" type="ARREST" age="19" gender="F" description="*********************************************** &lt;br/&gt;2702, Aggravated Assault.&lt;br/&gt;"/><marker lat="40.476377925537506" lng="-80.039721353393048" zone="Zone 1" incidentdate="2015-11-30" incidenttime="23:10:00" incidentnumber="15229635" address="3400 block California Ave" type="ARREST" age="31" gender="M" description="*********************************************** &lt;br/&gt;4906, False Reports to Law Enforcement Authorities.&lt;br/&gt;"/><marker lat="40.473927946275474" lng="-80.028829566091972" zone="Zone 1" incidentdate="2015-11-30" incidenttime="17:00:00" incidentnumber="15229445" address="3100 block Brighton Rd" type="ARREST" age="14" gender="M" description="*********************************************** &lt;br/&gt;3304(a)(5), CRIMINAL MISCHIEF - Intentionally Damages Real Or Personal Property Of Another&lt;br/&gt;"/><marker lat="40.460879170018735" lng="-79.91683710956913" zone="Zone 5" incidentdate="2015-11-30" incidenttime="17:10:00" incidentnumber="15229466" address="300 block Enright Ct" type="ARREST" age="19" gender="F" description="*********************************************** &lt;br/&gt;2701(a)(1), Simple Assault - Intent., Know., Reckless.Cause Bod. Injury&lt;br/&gt;2701(a)(3), Simple Assault - Attempts by Physical Menace&lt;br/&gt;"/><marker lat="40.46344511684363" lng="-79.952480985060078" zone="Zone 5" incidentdate="2015-11-30" incidenttime="15:45:00" incidentnumber="15229400" address="4100 block Liberty Ave" type="ARREST" age="31" gender="M" description="*********************************************** &lt;br/&gt;13(a)(32), Paraphernalia - Use or Possession&lt;br/&gt;"/><marker lat="40.451831141436834" lng="-79.928356812945353" zone="Zone 4" incidentdate="2015-11-30" incidenttime="17:05:00" incidentnumber="15229462" address="900 block Maryland Ave" type="ARREST" age="57" gender="M" description="*********************************************** &lt;br/&gt;9501, Bench Warrant&lt;br/&gt;"/><marker lat="40.444136782158047" lng="-80.000993475333104" zone="Zone 2" incidentdate="2015-11-30" incidenttime="19:15:00" incidentnumber="15229531" address="100 block 7th St" type="ARREST" age="33" gender="M" description="*********************************************** &lt;br/&gt;5505, Public Drunkenness&lt;br/&gt;5503(a)(3), DISORDERLY CONDUCT - OBSCENE LANG/GEST&lt;br/&gt;"/><marker lat="40.47058987386157" lng="-80.030949610536084" zone="Zone 1" incidentdate="2015-11-30" incidenttime="23:10:00" incidentnumber="15152988" address="2900 block Cake Way" type="ARREST" age="31" gender="M" description="*********************************************** &lt;br/&gt;2701, Simple Assault.&lt;br/&gt;"/><marker lat="40.43819611073102" lng="-79.986495470805934" zone="Zone 2" incidentdate="2015-11-30" incidenttime="17:20:00" incidentnumber="15229388" address="Stevenson St &amp; Watson St" type="ARREST" age="50" gender="M" description="*********************************************** &lt;br/&gt;13(a)(16), Possession of Controlled Substance&lt;br/&gt;"/><marker lat="40.475217439069624" lng="-79.93191609540591" zone="Zone 5" incidentdate="2015-11-30" incidenttime="01:31:00" incidentnumber="15229028" address="Stanton Ave &amp; Morningside Ave" type="ARREST" age="20" gender="M" description="*********************************************** &lt;br/&gt;9501, Bench Warrant&lt;br/&gt;"/><marker lat="40.442584949905417" lng="-80.001789508770926" zone="Zone 2" incidentdate="2015-11-30" incidenttime="11:18:00" incidentnumber="15229246" address="600 block Penn Ave" type="ARREST" age="51" gender="M" description="*********************************************** &lt;br/&gt;3502, Burglary.&lt;br/&gt;"/></markers>
