<?xml version="1.0"?>
<markers><marker lat="40.468580624202609" lng="-79.931567288462247" zone="Zone 5" incidentdate="2016-08-08" incidenttime="15:50:00" incidentnumber="16147657" address="5000 block Columbo St" type="OFFENSE" age="" gender="" description="*********************************************** &lt;br/&gt;3304, Criminal Mischief.&lt;br/&gt;"/><marker lat="40.468328779677464" lng="-79.895721841561411" zone="Zone 5" incidentdate="2016-08-08" incidenttime="12:08:00" incidentnumber="16147516" address="Lemington Ave &amp; Elrod Way" type="OFFENSE" age="" gender="" description="*********************************************** &lt;br/&gt;3701, Robbery.&lt;br/&gt;"/><marker lat="40.406657625087831" lng="-80.023551337621882" zone="Zone 6" incidentdate="2016-08-08" incidenttime="09:30:00" incidentnumber="16147400" address="Alturia St &amp; Fallowfield Ave" type="OFFENSE" age="" gender="" description="*********************************************** &lt;br/&gt;9497, Aided Case&lt;br/&gt;"/><marker lat="40.4539864" lng="-80.0524093" zone="Zone 6" incidentdate="2016-08-08" incidenttime="18:56:00" incidentnumber="16147785" address="600 block Hillsboro St" type="OFFENSE" age="" gender="" description="*********************************************** &lt;br/&gt;2701, Simple Assault.&lt;br/&gt;2709, Harassment (Non-Specific)&lt;br/&gt;2706, Terroristic Threats.&lt;br/&gt;907, Possessing Instruments of Crime.&lt;br/&gt;"/><marker lat="40.387556880004901" lng="-80.013443527120742" zone="Zone 6" incidentdate="2016-08-08" incidenttime="23:00:00" incidentnumber="16147922" address="1500 block Berkshire Ave" type="OFFENSE" age="" gender="" description="*********************************************** &lt;br/&gt;3921, Theft by Unlawful Taking or Disposition.&lt;br/&gt;"/><marker lat="40.4312633" lng="-79.9732677" zone="Zone 3" incidentdate="2016-08-08" incidenttime="02:20:00" incidentnumber="16147299" address="Three Rivers Heritage Trail Rd" type="OFFENSE" age="" gender="" description="*********************************************** &lt;br/&gt;13(a)(31), Marijuana: Possession Small Amount&lt;br/&gt;473.07 (a), Hours of Parks 0600-2300 hrs.&lt;br/&gt;"/><marker lat="40.453943576163169" lng="-79.89061907056464" zone="Zone 5" incidentdate="2016-08-08" incidenttime="07:45:00" incidentnumber="16147384" address="7600 block Kelly St" type="OFFENSE" age="" gender="" description="*********************************************** &lt;br/&gt;9496, Dead on Arrival (DOA)&lt;br/&gt;"/><marker lat="40.382844268035171" lng="-79.976844871217992" zone="Zone 3" incidentdate="2016-08-08" incidenttime="01:40:00" incidentnumber="16147629" address="Stewart Ave &amp; Brownsville Rd" type="OFFENSE" age="" gender="" description="*********************************************** &lt;br/&gt;9501, Bench Warrant&lt;br/&gt;"/><marker lat="40.4139193" lng="-79.9929607" zone="Zone 3" incidentdate="2016-08-08" incidenttime="06:20:00" incidentnumber="16147365" address="Maryland Ave &amp; Grimes Ave" type="OFFENSE" age="" gender="" description="*********************************************** &lt;br/&gt;3304, Criminal Mischief.&lt;br/&gt;3921(a), Theft by Unlawful Taking or Disposition - Movable item&lt;br/&gt;3934, Theft from Vehicle&lt;br/&gt;901, Criminal Attempt&lt;br/&gt;"/><marker lat="40.462835232229764" lng="-79.892199542590049" zone="Zone 5" incidentdate="2016-08-08" incidenttime="08:00:00" incidentnumber="16147378" address="7200 block Everton St" type="OFFENSE" age="" gender="" description="*********************************************** &lt;br/&gt;3304, Criminal Mischief.&lt;br/&gt;"/><marker lat="40.4889426" lng="-79.9122590" zone="Zone 5" incidentdate="2016-08-08" incidenttime="18:00:00" incidentnumber="16147832" address="Highland Park Brg Ramp &amp; Highland Park Brg" type="OFFENSE" age="" gender="" description="*********************************************** &lt;br/&gt;3743, Accidents Involving Damage to Attended Veh. or Property&lt;br/&gt;"/><marker lat="40.41659309478456" lng="-79.988157841615688" zone="Zone 3" incidentdate="2016-08-08" incidenttime="12:00:00" incidentnumber="16147658" address="100 block Charles St" type="OFFENSE" age="" gender="" description="*********************************************** &lt;br/&gt;3921(a), Theft by Unlawful Taking or Disposition - Movable item&lt;br/&gt;"/><marker lat="40.3922168975934" lng="-80.010830066222454" zone="Zone 6" incidentdate="2016-08-08" incidenttime="13:00:00" incidentnumber="16147521" address="1300 block Brookline Blvd" type="OFFENSE" age="" gender="" description="*********************************************** &lt;br/&gt;2709, Harassment (Non-Specific)&lt;br/&gt;"/><marker lat="40.43537738239381" lng="-80.03387785340017" zone="Zone 6" incidentdate="2016-08-08" incidenttime="02:44:00" incidentnumber="16147311" address="Greentree Rd &amp; Mc Knight St" type="OFFENSE" age="" gender="" description="*********************************************** &lt;br/&gt;3802(a)(1), DUI - General Impairment&lt;br/&gt;3802(c), DUI - Highest Rate of Alcohol - BAC &gt;= .16%&lt;br/&gt;"/><marker lat="40.466747635740383" lng="-79.958456744145465" zone="Zone 2" incidentdate="2016-08-08" incidenttime="15:45:00" incidentnumber="16147715" address="300 block Fisk St" type="OFFENSE" age="" gender="" description="*********************************************** &lt;br/&gt;3745, Accidents Involving Damage to Unattended Veh.or Prop.&lt;br/&gt;"/><marker lat="40.460381100494189" lng="-80.009781887918692" zone="Zone 1" incidentdate="2016-08-08" incidenttime="01:10:00" incidentnumber="16147263" address="1700 block Perrysville Ave" type="OFFENSE" age="" gender="" description="*********************************************** &lt;br/&gt;3745, Accidents Involving Damage to Unattended Veh.or Prop.&lt;br/&gt;1543, Driving While Operating Privilege is Suspended or Revoked.&lt;br/&gt;3714, Careless Driving&lt;br/&gt;3746, Immediate Notice of Accident to Police Department&lt;br/&gt;3354, Additional Parking Regulations.&lt;br/&gt;"/><marker lat="40.439140768201945" lng="-80.0011699789804" zone="Zone 2" incidentdate="2016-08-08" incidenttime="07:00:00" incidentnumber="16147589" address="300 block 4th Ave" type="OFFENSE" age="" gender="" description="*********************************************** &lt;br/&gt;3921(a), Theft by Unlawful Taking or Disposition - Movable item&lt;br/&gt;"/><marker lat="40.405491161511044" lng="-79.989331753158567" zone="Zone 3" incidentdate="2016-08-08" incidenttime="19:29:00" incidentnumber="16147811" address="100 block Amanda St" type="OFFENSE" age="" gender="" description="*********************************************** &lt;br/&gt;9501, Bench Warrant&lt;br/&gt;3925, Receiving Stolen Property.&lt;br/&gt;5121, Escape.&lt;br/&gt;"/><marker lat="40.456243814193272" lng="-79.955991309680513" zone="Zone 2" incidentdate="2016-08-08" incidenttime="13:30:00" incidentnumber="16147546" address="500 block Blessing St" type="OFFENSE" age="" gender="" description="*********************************************** &lt;br/&gt;9498, 302 (Mental)&lt;br/&gt;"/><marker lat="40.432231905250283" lng="-79.918168651271841" zone="Zone 4" incidentdate="2016-08-08" incidenttime="08:10:00" incidentnumber="16147391" address="6300 block Phillips Ave" type="OFFENSE" age="" gender="" description="*********************************************** &lt;br/&gt;9489, Found Property&lt;br/&gt;3934, Theft from Vehicle&lt;br/&gt;"/><marker lat="40.471846093379909" lng="-80.027025287370407" zone="Zone 1" incidentdate="2016-08-08" incidenttime="19:48:00" incidentnumber="16147817" address="2900 block brighton Rd" type="OFFENSE" age="" gender="" description="*********************************************** &lt;br/&gt;3926(a)(1), Theft of Services; Cable, Gas, Taxi, Bill, Tab, etc.&lt;br/&gt;"/><marker lat="40.453135094626646" lng="-79.946631151152332" zone="Zone 4" incidentdate="2016-08-08" incidenttime="17:25:00" incidentnumber="16147724" address="4900 block Centre Ave" type="OFFENSE" age="" gender="" description="*********************************************** &lt;br/&gt;2701, Simple Assault.&lt;br/&gt;"/><marker lat="40.463514295426563" lng="-79.961840810250138" zone="Zone 2" incidentdate="2016-08-08" incidenttime="20:12:00" incidentnumber="16147912" address="3700 block Mintwood St" type="OFFENSE" age="" gender="" description="*********************************************** &lt;br/&gt;9999, 9999 - (Misc. Incident):&lt;br/&gt;"/><marker lat="40.444200272919588" lng="-80.040607296470199" zone="Zone 6" incidentdate="2016-08-08" incidenttime="14:05:00" incidentnumber="16147585" address="1000 block Chartiers Ave" type="OFFENSE" age="" gender="" description="*********************************************** &lt;br/&gt;3701, Robbery.&lt;br/&gt;"/><marker lat="40.382338513123017" lng="-79.980569737113527" zone="Zone 3" incidentdate="2016-08-08" incidenttime="13:37:00" incidentnumber="16147566" address="Stewart Ave &amp; Bethesda St" type="OFFENSE" age="" gender="" description="*********************************************** &lt;br/&gt;3304, Criminal Mischief.&lt;br/&gt;2702, Aggravated Assault.&lt;br/&gt;"/><marker lat="40.453566706506784" lng="-80.017443098064888" zone="Zone 5" incidentdate="2016-08-08" incidenttime="11:05:00" incidentnumber="16147476" address="900 block N Murtland Ave" type="OFFENSE" age="" gender="" description="*********************************************** &lt;br/&gt;9504, Lost Property&lt;br/&gt;"/><marker lat="40.440478794533298" lng="-79.964317796526686" zone="Zone 2" incidentdate="2016-08-08" incidenttime="15:20:00" incidentnumber="16147646" address="3000 block Terrace St" type="OFFENSE" age="" gender="" description="*********************************************** &lt;br/&gt;2709, Harassment (Non-Specific)&lt;br/&gt;"/><marker lat="40.403794999919768" lng="-79.990169155250072" zone="Zone 3" incidentdate="2016-08-08" incidenttime="14:50:00" incidentnumber="16147680" address="1200 block Brownsville Rd" type="OFFENSE" age="" gender="" description="*********************************************** &lt;br/&gt;3929, Retail Theft.&lt;br/&gt;"/><marker lat="40.461066602467838" lng="-80.027804318784078" zone="Zone 1" incidentdate="2016-08-08" incidenttime="14:30:00" incidentnumber="16147615" address="2200 block California Ave" type="OFFENSE" age="" gender="" description="*********************************************** &lt;br/&gt;9999, 9999 - (Misc. Incident):&lt;br/&gt;"/><marker lat="40.462403980074363" lng="-79.994302535574931" zone="Zone 1" incidentdate="2016-08-08" incidenttime="05:30:00" incidentnumber="16147920" address="1100 block Yetta Ave" type="OFFENSE" age="" gender="" description="*********************************************** &lt;br/&gt;3934, Theft from Vehicle&lt;br/&gt;"/><marker lat="40.440824068996903" lng="-80.003015961193057" zone="Zone 2" incidentdate="2016-08-08" incidenttime="17:00:00" incidentnumber="16147861" address="Market Sq" type="OFFENSE" age="" gender="" description="*********************************************** &lt;br/&gt;3921, Theft by Unlawful Taking or Disposition.&lt;br/&gt;"/><marker lat="40.391177102725187" lng="-79.986909728912025" zone="Zone 3" incidentdate="2016-08-08" incidenttime="11:10:00" incidentnumber="16147481" address="2200 block Brownsville Rd" type="OFFENSE" age="" gender="" description="*********************************************** &lt;br/&gt;2709(a), Harassment.&lt;br/&gt;"/><marker lat="40.385979225108429" lng="-80.015179528577903" zone="Zone 6" incidentdate="2016-08-08" incidenttime="13:29:00" incidentnumber="16147560" address="2800 block Cedric Ave" type="OFFENSE" age="" gender="" description="*********************************************** &lt;br/&gt;9497, Aided Case&lt;br/&gt;"/><marker lat="40.439357443553178" lng="-79.999121070597084" zone="Zone 2" incidentdate="2016-08-08" incidenttime="08:30:00" incidentnumber="16147415" address="400 block Forbes Ave" type="OFFENSE" age="" gender="" description="*********************************************** &lt;br/&gt;3921, Theft by Unlawful Taking or Disposition.&lt;br/&gt;"/><marker lat="40.417087348291147" lng="-79.979941965888543" zone="Zone 3" incidentdate="2016-08-08" incidenttime="21:18:00" incidentnumber="16147866" address="100 block Rahe St" type="OFFENSE" age="" gender="" description="*********************************************** &lt;br/&gt;2705, Recklessly Endangering Another Person.&lt;br/&gt;5505, Public Drunkenness&lt;br/&gt;2706, Terroristic Threats.&lt;br/&gt;2701(a)(3), Simple Assault - Attempts by Physical Menace&lt;br/&gt;907, Possessing Instruments of Crime.&lt;br/&gt;"/><marker lat="40.478965014691624" lng="-79.935090008603936" zone="Zone 5" incidentdate="2016-08-08" incidenttime="07:05:00" incidentnumber="16147371" address="5000 block Rosecrest Dr" type="OFFENSE" age="" gender="" description="*********************************************** &lt;br/&gt;3745, Accidents Involving Damage to Unattended Veh.or Prop.&lt;br/&gt;"/><marker lat="40.417286338485056" lng="-79.965653302450889" zone="Zone 3" incidentdate="2016-08-08" incidenttime="15:18:00" incidentnumber="16147622" address="3000 block Arlington Ave" type="OFFENSE" age="" gender="" description="*********************************************** &lt;br/&gt;2701, Simple Assault.&lt;br/&gt;"/><marker lat="40.455468004904013" lng="-79.910587732745498" zone="Zone 4" incidentdate="2016-08-08" incidenttime="17:00:00" incidentnumber="16147716" address="6700 block McPherson Blvd" type="OFFENSE" age="" gender="" description="*********************************************** &lt;br/&gt;3934, Theft from Vehicle&lt;br/&gt;"/><marker lat="40.458869443977015" lng="-79.992941484244952" zone="Zone 1" incidentdate="2016-08-08" incidenttime="10:40:00" incidentnumber="16147459" address="1100 block Voskamp St" type="OFFENSE" age="" gender="" description="*********************************************** &lt;br/&gt;9488, False  Burglar Alarm&lt;br/&gt;"/><marker lat="40.460978067031036" lng="-80.013545378585775" zone="Zone 1" incidentdate="2016-08-08" incidenttime="13:30:00" incidentnumber="16147563" address="1800 block Clayton Ave" type="OFFENSE" age="" gender="" description="*********************************************** &lt;br/&gt;9496, Dead on Arrival (DOA)&lt;br/&gt;"/><marker lat="40.40003652237526" lng="-80.020357206795921" zone="Zone 6" incidentdate="2016-08-08" incidenttime="15:55:00" incidentnumber="16147655" address="2300 block Pioneer Ave" type="OFFENSE" age="" gender="" description="*********************************************** &lt;br/&gt;2701, Simple Assault.&lt;br/&gt;"/><marker lat="40.397795887957386" lng="-80.022725975896648" zone="Zone 6" incidentdate="2016-08-08" incidenttime="11:10:00" incidentnumber="16147471" address="500 block Rossmore Ave" type="OFFENSE" age="" gender="" description="*********************************************** &lt;br/&gt;9488, False  Burglar Alarm&lt;br/&gt;"/><marker lat="40.457582467396335" lng="-80.006210651513641" zone="Zone 1" incidentdate="2016-08-08" incidenttime="15:04:00" incidentnumber="16147614" address="1400 block Boyle St" type="OFFENSE" age="" gender="" description="*********************************************** &lt;br/&gt;3503(b.1)(i), Simple Trespasser -- threatening or terrorizing the owner or occupant of the premises&lt;br/&gt;"/><marker lat="40.4462578" lng="-80.0014778" zone="Zone 1" incidentdate="2016-08-08" incidenttime="01:09:00" incidentnumber="16147262" address="7th St Brg" type="OFFENSE" age="" gender="" description="*********************************************** &lt;br/&gt;9498, 302 (Mental)&lt;br/&gt;"/><marker lat="40.459241184494772" lng="-80.005548013998464" zone="Zone 1" incidentdate="2016-08-08" incidenttime="01:00:00" incidentnumber="16147304" address="1600 block Sandusky Ct" type="OFFENSE" age="" gender="" description="*********************************************** &lt;br/&gt;3503(b)(1)(ii), Defiant Trespass Notice Posted by Sign(s)&lt;br/&gt;"/><marker lat="40.450976359208497" lng="-79.983578246487241" zone="Zone 2" incidentdate="2016-08-08" incidenttime="21:18:00" incidentnumber="16147868" address="2000 block Penn Ave" type="OFFENSE" age="" gender="" description="*********************************************** &lt;br/&gt;13(a)(16), Possession of Controlled Substance&lt;br/&gt;"/><marker lat="40.463504216805177" lng="-79.930660678953373" zone="Zone 5" incidentdate="2016-08-08" incidenttime="17:00:00" incidentnumber="16147714" address="Penn Ave &amp; N Negley Ave" type="OFFENSE" age="" gender="" description="*********************************************** &lt;br/&gt;9999, 9999 - (Misc. Incident):&lt;br/&gt;"/><marker lat="40.451177947813086" lng="-79.953579312913988" zone="Zone 4" incidentdate="2016-08-08" incidenttime="17:00:00" incidentnumber="16147712" address="4400 block Centre Ave" type="OFFENSE" age="" gender="" description="*********************************************** &lt;br/&gt;9497, Aided Case&lt;br/&gt;"/><marker lat="40.460594319900963" lng="-79.922716789802806" zone="Zone 5" incidentdate="2016-08-08" incidenttime="15:56:00" incidentnumber="16147656" address="6200 block Penn Ave" type="OFFENSE" age="" gender="" description="*********************************************** &lt;br/&gt;13(a)(32), Paraphernalia - Use or Possession&lt;br/&gt;9501, Bench Warrant&lt;br/&gt;3929(a)(1), Retail Theft; takes possession of, carries away, or transfers displayed merchandise&lt;br/&gt;"/><marker lat="40.415989225952053" lng="-80.035191802379174" zone="Zone 6" incidentdate="2016-08-08" incidenttime="00:50:00" incidentnumber="16147255" address="500 block Oaklynn Ct" type="OFFENSE" age="" gender="" description="*********************************************** &lt;br/&gt;2706, Terroristic Threats.&lt;br/&gt;"/><marker lat="40.475991792684219" lng="-79.998237934488159" zone="Zone 1" incidentdate="2016-08-08" incidenttime="22:12:00" incidentnumber="16147929" address="700 block Mt Pleasant Rd" type="OFFENSE" age="" gender="" description="*********************************************** &lt;br/&gt;2701, Simple Assault.&lt;br/&gt;"/><marker lat="40.453566706506784" lng="-80.017443098064888" zone="Zone 5" incidentdate="2016-08-08" incidenttime="23:15:00" incidentnumber="16147931" address="900 block N Euclid Ave" type="OFFENSE" age="" gender="" description="*********************************************** &lt;br/&gt;9501, Bench Warrant&lt;br/&gt;"/><marker lat="40.453291956742412" lng="-80.049252626946071" zone="Zone 6" incidentdate="2016-08-08" incidenttime="18:30:00" incidentnumber="16147771" address="2700 block Glen Mawr St" type="OFFENSE" age="" gender="" description="*********************************************** &lt;br/&gt;3502, Burglary.&lt;br/&gt;"/><marker lat="40.393167838197392" lng="-79.986585064520185" zone="Zone 3" incidentdate="2016-08-08" incidenttime="19:00:00" incidentnumber="16147809" address="2100 block Brownsville Rd" type="OFFENSE" age="" gender="" description="*********************************************** &lt;br/&gt;3304, Criminal Mischief.&lt;br/&gt;2705, Recklessly Endangering Another Person.&lt;br/&gt;4304(a)(1), Endangering Welfare of Children - Course of Conduct Enhanced&lt;br/&gt;2701, Simple Assault.&lt;br/&gt;"/><marker lat="40.472554677723387" lng="-80.013259956677487" zone="Zone 1" incidentdate="2016-08-08" incidenttime="07:00:00" incidentnumber="16147367" address="2700 block Norwood Ave" type="OFFENSE" age="" gender="" description="*********************************************** &lt;br/&gt;3503, Criminal Trespass&lt;br/&gt;"/><marker lat="40.43622285224928" lng="-79.996357383025028" zone="Zone 2" incidentdate="2016-08-08" incidenttime="11:50:00" incidentnumber="16147502" address="600 block 2nd Ave" type="OFFENSE" age="" gender="" description="*********************************************** &lt;br/&gt;3304, Criminal Mischief.&lt;br/&gt;3934, Theft from Vehicle&lt;br/&gt;"/><marker lat="40.441650742650353" lng="-79.999451753561061" zone="Zone 2" incidentdate="2016-08-08" incidenttime="16:50:00" incidentnumber="16147733" address="300 block 6th Ave" type="OFFENSE" age="" gender="" description="*********************************************** &lt;br/&gt;3929, Retail Theft.&lt;br/&gt;"/><marker lat="40.454405147711981" lng="-80.052697782150673" zone="Zone 6" incidentdate="2016-08-08" incidenttime="06:00:00" incidentnumber="16147381" address="2800 block Bergman St" type="OFFENSE" age="" gender="" description="*********************************************** &lt;br/&gt;3921(a), Theft by Unlawful Taking or Disposition - Movable item&lt;br/&gt;"/><marker lat="40.46344511684363" lng="-79.952480985060078" zone="Zone 5" incidentdate="2016-08-08" incidenttime="18:02:00" incidentnumber="16147768" address="4100 block Liberty Ave" type="OFFENSE" age="" gender="" description="*********************************************** &lt;br/&gt;2702, Aggravated Assault.&lt;br/&gt;"/><marker lat="40.44968687999873" lng="-80.075940184941686" zone="Zone 6" incidentdate="2016-08-08" incidenttime="11:30:00" incidentnumber="16147437" address="1800 block Village Rd" type="OFFENSE" age="" gender="" description="*********************************************** &lt;br/&gt;425.26, Miscellaneous&lt;br/&gt;"/><marker lat="40.463103521641877" lng="-80.013776633412903" zone="Zone 1" incidentdate="2016-08-08" incidenttime="13:06:00" incidentnumber="16147543" address="Perrysville Ave &amp; Buena Vista St" type="OFFENSE" age="" gender="" description="*********************************************** &lt;br/&gt;9999, 9999 - (Misc. Incident):&lt;br/&gt;"/><marker lat="40.4504235" lng="-79.9176774" zone="Zone 4" incidentdate="2016-08-08" incidenttime="08:11:00" incidentnumber="16147382" address="1100 block Beechwood Blvd" type="OFFENSE" age="" gender="" description="*********************************************** &lt;br/&gt;9501, Bench Warrant&lt;br/&gt;"/><marker lat="40.428511573686791" lng="-79.982765552881659" zone="Zone 3" incidentdate="2016-08-08" incidenttime="06:50:00" incidentnumber="16147372" address="S 16th St" type="OFFENSE" age="" gender="" description="*********************************************** &lt;br/&gt;3304, Criminal Mischief.&lt;br/&gt;3934, Theft from Vehicle&lt;br/&gt;"/><marker lat="40.427081781994367" lng="-79.967068291202835" zone="Zone 3" incidentdate="2016-08-08" incidenttime="16:10:00" incidentnumber="16147676" address="S 27th St &amp; E Carson St" type="OFFENSE" age="" gender="" description="*********************************************** &lt;br/&gt;9999, 9999 - (Misc. Incident):&lt;br/&gt;"/><marker lat="40.426751427575063" lng="-80.06024245592009" zone="Zone 6" incidentdate="2016-08-08" incidenttime="13:24:00" incidentnumber="16147559" address="2400 block Baldwick Rd" type="OFFENSE" age="" gender="" description="*********************************************** &lt;br/&gt;3922, Theft by Deception.&lt;br/&gt;4912, Impersonating a Public Servant.&lt;br/&gt;"/><marker lat="40.466887128304442" lng="-80.025013063862957" zone="Zone 1" incidentdate="2016-08-08" incidenttime="08:35:00" incidentnumber="16147387" address="Brighton Rd &amp; Marshall Ave" type="OFFENSE" age="" gender="" description="*********************************************** &lt;br/&gt;9489, Found Property&lt;br/&gt;"/><marker lat="40.423307201998043" lng="-79.961250980900815" zone="Zone 3" incidentdate="2016-08-08" incidenttime="15:57:00" incidentnumber="16147652" address="3200 block E Carson St" type="OFFENSE" age="" gender="" description="*********************************************** &lt;br/&gt;3925, Receiving Stolen Property.&lt;br/&gt;4106, Access Device Fraud&lt;br/&gt;"/><marker lat="40.462679210716111" lng="-79.966905016898636" zone="Zone 2" incidentdate="2016-08-08" incidenttime="17:30:00" incidentnumber="16147822" address="3400 block Penn Ave" type="OFFENSE" age="" gender="" description="*********************************************** &lt;br/&gt;9999, 9999 - (Misc. Incident):&lt;br/&gt;"/><marker lat="40.397287021795115" lng="-79.997748203565806" zone="Zone 3" incidentdate="2016-08-08" incidenttime="17:00:00" incidentnumber="16147746" address="Denise St &amp; Nobles Ln" type="OFFENSE" age="" gender="" description="*********************************************** &lt;br/&gt;3745, Accidents Involving Damage to Unattended Veh.or Prop.&lt;br/&gt;"/><marker lat="40.456473594608255" lng="-80.05559691973923" zone="Zone 6" incidentdate="2016-08-08" incidenttime="22:26:00" incidentnumber="16147910" address="3100 block Landis St" type="OFFENSE" age="" gender="" description="*********************************************** &lt;br/&gt;2701, Simple Assault.&lt;br/&gt;2706, Terroristic Threats.&lt;br/&gt;"/><marker lat="40.479829245655225" lng="-80.001901444196207" zone="Zone 1" incidentdate="2016-08-08" incidenttime="14:17:00" incidentnumber="16147586" address="400 block Mt Pleasant Rd" type="OFFENSE" age="" gender="" description="*********************************************** &lt;br/&gt;3502, Burglary.&lt;br/&gt;13(a)(31), Marijuana: Possession Small Amount&lt;br/&gt;4910, Tampering with or Fabricating Physical Evidence.&lt;br/&gt;9501, Bench Warrant&lt;br/&gt;5104, Resisting Arrest or Other Law Enforcement.&lt;br/&gt;2702, Aggravated Assault.&lt;br/&gt;6106, Firearms not to be Carried without a License.&lt;br/&gt;4701, Duty to Comply with Inspection Laws&lt;br/&gt;5126, Flight to Avoid Apprehension, Trial or Punishment.&lt;br/&gt;6110.2, Possesion of Firearm with Altered Mfg. Number&lt;br/&gt;6105(a)(1), Persons not to possess, use, manufacture, control, sell or transfer firearms: Former convict enumerated in subsection (b)&lt;br/&gt;"/><marker lat="40.438721756509537" lng="-79.999466085108594" zone="Zone 2" incidentdate="2016-08-08" incidenttime="13:30:00" incidentnumber="16147579" address="400 block Smithfield St" type="OFFENSE" age="" gender="" description="*********************************************** &lt;br/&gt;3921(a), Theft by Unlawful Taking or Disposition - Movable item&lt;br/&gt;4106, Access Device Fraud&lt;br/&gt;"/><marker lat="40.422523556383233" lng="-79.970407136462498" zone="Zone 3" incidentdate="2016-08-08" incidenttime="07:00:00" incidentnumber="16147430" address="Barry St" type="OFFENSE" age="" gender="" description="*********************************************** &lt;br/&gt;3304, Criminal Mischief.&lt;br/&gt;3934, Theft from Vehicle&lt;br/&gt;"/><marker lat="40.416670331037736" lng="-79.975960369332469" zone="Zone 3" incidentdate="2016-08-08" incidenttime="19:48:00" incidentnumber="16147810" address="2200 block Elsie St" type="OFFENSE" age="" gender="" description="*********************************************** &lt;br/&gt;5505, Public Drunkenness&lt;br/&gt;"/><marker lat="40.456633448414188" lng="-79.936435139782176" zone="Zone 4" incidentdate="2016-08-08" incidenttime="17:44:00" incidentnumber="16147738" address="5500 block Centre Ave" type="OFFENSE" age="" gender="" description="*********************************************** &lt;br/&gt;3929, Retail Theft.&lt;br/&gt;"/><marker lat="40.44998335991405" lng="-79.900689728693777" zone="Zone 4" incidentdate="2016-08-08" incidenttime="19:34:00" incidentnumber="16147806" address="7200 block Meade St" type="OFFENSE" age="" gender="" description="*********************************************** &lt;br/&gt;3922, Theft by Deception.&lt;br/&gt;"/><marker lat="40.420187692152808" lng="-79.904241685300107" zone="Zone 4" incidentdate="2016-08-08" incidenttime="10:15:00" incidentnumber="16147483" address="1200 block Love St" type="OFFENSE" age="" gender="" description="*********************************************** &lt;br/&gt;3304, Criminal Mischief.&lt;br/&gt;"/><marker lat="40.4019818" lng="-80.0014145" zone="Zone 6" incidentdate="2016-08-08" incidenttime="01:44:00" incidentnumber="16147278" address="1500 block Edgebrook Ave" type="OFFENSE" age="" gender="" description="*********************************************** &lt;br/&gt;2701(a)(1), Simple Assault - Intent., Know., Reckless.Cause Bod. Injury&lt;br/&gt;5511(c)(1), CRUELTY TO ANIMALS&lt;br/&gt;"/><marker lat="40.480351496503999" lng="-80.010099601603486" zone="Zone 1" incidentdate="2016-08-08" incidenttime="17:16:00" incidentnumber="16147709" address="100 block Watson Blvd" type="OFFENSE" age="" gender="" description="*********************************************** &lt;br/&gt;9497, Aided Case&lt;br/&gt;"/><marker lat="40.474446575069422" lng="-79.918744476612844" zone="Zone 5" incidentdate="2016-08-08" incidenttime="18:00:00" incidentnumber="16147795" address="6000 block Bryant St" type="OFFENSE" age="" gender="" description="*********************************************** &lt;br/&gt;3921(a), Theft by Unlawful Taking or Disposition - Movable item&lt;br/&gt;3503, Criminal Trespass&lt;br/&gt;"/><marker lat="40.441300707336424" lng="-80.041163233147458" zone="Zone 6" incidentdate="2016-08-08" incidenttime="02:30:00" incidentnumber="16147307" address="Elbon St" type="OFFENSE" age="" gender="" description="*********************************************** &lt;br/&gt;3502, Burglary.&lt;br/&gt;"/><marker lat="40.437198403088857" lng="-79.977631695333386" zone="Zone 2" incidentdate="2016-08-08" incidenttime="18:00:00" incidentnumber="16147844" address="2000 block Forbes Ave" type="OFFENSE" age="" gender="" description="*********************************************** &lt;br/&gt;3922, Theft by Deception.&lt;br/&gt;"/><marker lat="40.427751799536004" lng="-79.927098335200085" zone="Zone 4" incidentdate="2016-08-08" incidenttime="20:53:00" incidentnumber="16147855" address="5600 block Forward Ramp" type="OFFENSE" age="" gender="" description="*********************************************** &lt;br/&gt;9497, Aided Case&lt;br/&gt;"/><marker lat="40.470410050613673" lng="-79.892607631958555" zone="Zone 5" incidentdate="2016-08-08" incidenttime="17:30:00" incidentnumber="16147778" address="1600 block Lincoln Ave" type="OFFENSE" age="" gender="" description="*********************************************** &lt;br/&gt;517.8, Home Improvement Fraud&lt;br/&gt;"/><marker lat="40.441650742650353" lng="-79.999451753561061" zone="Zone 2" incidentdate="2016-08-08" incidenttime="00:41:00" incidentnumber="16147247" address="300 block 6th Ave" type="OFFENSE" age="" gender="" description="*********************************************** &lt;br/&gt;3921(a), Theft by Unlawful Taking or Disposition - Movable item&lt;br/&gt;"/><marker lat="40.474259937428243" lng="-80.010532705998429" zone="Zone 1" incidentdate="2016-08-08" incidenttime="16:30:00" incidentnumber="16147697" address="200 block Kennedy Ave" type="OFFENSE" age="" gender="" description="*********************************************** &lt;br/&gt;3745, Accidents Involving Damage to Unattended Veh.or Prop.&lt;br/&gt;2709, Harassment (Non-Specific)&lt;br/&gt;4952, Intimidation of Witnesses or Victims&lt;br/&gt;"/><marker lat="40.447588228336528" lng="-80.043761666224881" zone="Zone 6" incidentdate="2016-08-08" incidenttime="02:49:00" incidentnumber="16147310" address="1300 block Chartiers Ave" type="OFFENSE" age="" gender="" description="*********************************************** &lt;br/&gt;13(a)(16), Possession of Controlled Substance&lt;br/&gt;5104, Resisting Arrest or Other Law Enforcement.&lt;br/&gt;2701, Simple Assault.&lt;br/&gt;9093, Indirect Criminal Contempt&lt;br/&gt;5123, Contraband.&lt;br/&gt;2706, Terroristic Threats.&lt;br/&gt;"/><marker lat="40.426938114733531" lng="-79.968258810086212" zone="Zone 3" incidentdate="2016-08-08" incidenttime="18:15:00" incidentnumber="16147776" address="2600 block E Carson St" type="OFFENSE" age="" gender="" description="*********************************************** &lt;br/&gt;3745, Accidents Involving Damage to Unattended Veh.or Prop.&lt;br/&gt;"/><marker lat="40.456633448414188" lng="-79.936435139782176" zone="Zone 5" incidentdate="2016-08-08" incidenttime="11:45:00" incidentnumber="16017368" address="5500 block Centre Ave" type="ARREST" age="54" gender="F" description="*********************************************** &lt;br/&gt;3925, Receiving Stolen Property.&lt;br/&gt;3927, Theft by Failure to Make Required Disp. of Funds&lt;br/&gt;"/><marker lat="40.404914940128336" lng="-80.040145473413176" zone="Zone 6" incidentdate="2016-08-08" incidenttime="17:00:00" incidentnumber="16139369" address="2800 block Banksville Rd" type="ARREST" age="54" gender="M" description="*********************************************** &lt;br/&gt;3736, Reckless Driving&lt;br/&gt;3742, Accidents Involving Death or Personal Injury&lt;br/&gt;3743, Accidents Involving Damage to Attended Veh. or Property&lt;br/&gt;1511, Carrying and Exhibiting Drivers License on Demand.&lt;br/&gt;"/><marker lat="40.4535032" lng="-80.0202509" zone="Zone 1" incidentdate="2016-08-08" incidenttime="14:17:00" incidentnumber="16144968" address="Behan St &amp; Riggo Way" type="ARREST" age="18" gender="M" description="*********************************************** &lt;br/&gt;13(a)(32), Paraphernalia - Use or Possession&lt;br/&gt;4910, Tampering with or Fabricating Physical Evidence.&lt;br/&gt;5104, Resisting Arrest or Other Law Enforcement.&lt;br/&gt;5121, Escape.&lt;br/&gt;5126, Flight to Avoid Apprehension, Trial or Punishment.&lt;br/&gt;"/><marker lat="40.479829245655225" lng="-80.001901444196207" zone="Zone 1" incidentdate="2016-08-08" incidenttime="14:17:00" incidentnumber="16147586" address="400 block Mt Pleasant Rd" type="ARREST" age="18" gender="M" description="*********************************************** &lt;br/&gt;3502, Burglary.&lt;br/&gt;13(a)(31), Marijuana: Possession Small Amount&lt;br/&gt;4910, Tampering with or Fabricating Physical Evidence.&lt;br/&gt;9501, Bench Warrant&lt;br/&gt;5104, Resisting Arrest or Other Law Enforcement.&lt;br/&gt;2702, Aggravated Assault.&lt;br/&gt;6106, Firearms not to be Carried without a License.&lt;br/&gt;4701, Duty to Comply with Inspection Laws&lt;br/&gt;5126, Flight to Avoid Apprehension, Trial or Punishment.&lt;br/&gt;6110.2, Possesion of Firearm with Altered Mfg. Number&lt;br/&gt;6105(a)(1), Persons not to possess, use, manufacture, control, sell or transfer firearms: Former convict enumerated in subsection (b)&lt;br/&gt;"/><marker lat="40.429791226378967" lng="-79.953167929391142" zone="Zone 4" incidentdate="2016-08-08" incidenttime="12:30:00" incidentnumber="16103997" address="3700 block Orpwood St" type="ARREST" age="19" gender="M" description="*********************************************** &lt;br/&gt;3921(a), Theft by Unlawful Taking or Disposition - Movable item&lt;br/&gt;3925, Receiving Stolen Property.&lt;br/&gt;1372, Unauthorized Transfer or Use of Registration.&lt;br/&gt;"/><marker lat="40.462844491597366" lng="-79.90110716341664" zone="Zone 5" incidentdate="2016-08-08" incidenttime="06:15:00" incidentnumber="15221152" address="6900 block Mt Vernon St" type="ARREST" age="40" gender="M" description="*********************************************** &lt;br/&gt;3304, Criminal Mischief.&lt;br/&gt;2701, Simple Assault.&lt;br/&gt;"/><marker lat="40.447588228336528" lng="-80.043761666224881" zone="Zone 6" incidentdate="2016-08-08" incidenttime="03:12:00" incidentnumber="16147310" address="1300 block Chartiers Ave" type="ARREST" age="52" gender="M" description="*********************************************** &lt;br/&gt;13(a)(16), Possession of Controlled Substance&lt;br/&gt;5104, Resisting Arrest or Other Law Enforcement.&lt;br/&gt;2701, Simple Assault.&lt;br/&gt;9093, Indirect Criminal Contempt&lt;br/&gt;5123, Contraband.&lt;br/&gt;2706, Terroristic Threats.&lt;br/&gt;"/><marker lat="40.441650742650353" lng="-79.999451753561061" zone="Zone 2" incidentdate="2016-08-08" incidenttime="18:10:00" incidentnumber="16147733" address="300 block 6th Ave" type="ARREST" age="53" gender="F" description="*********************************************** &lt;br/&gt;3929, Retail Theft.&lt;br/&gt;"/><marker lat="40.43537738239381" lng="-80.03387785340017" zone="Zone 6" incidentdate="2016-08-08" incidenttime="02:58:00" incidentnumber="16147311" address="Greentree Rd &amp; Mc Knight St" type="ARREST" age="34" gender="M" description="*********************************************** &lt;br/&gt;3802(a)(1), DUI - General Impairment&lt;br/&gt;3802(c), DUI - Highest Rate of Alcohol - BAC &gt;= .16%&lt;br/&gt;"/><marker lat="40.456473594608255" lng="-80.05559691973923" zone="Zone 6" incidentdate="2016-08-08" incidenttime="23:03:00" incidentnumber="16147910" address="3100 block Landis St" type="ARREST" age="39" gender="M" description="*********************************************** &lt;br/&gt;2701, Simple Assault.&lt;br/&gt;2706, Terroristic Threats.&lt;br/&gt;"/><marker lat="40.405491161511044" lng="-79.989331753158567" zone="Zone 3" incidentdate="2016-08-08" incidenttime="19:38:00" incidentnumber="16147811" address="100 block Amanda St" type="ARREST" age="16" gender="M" description="*********************************************** &lt;br/&gt;9501, Bench Warrant&lt;br/&gt;3925, Receiving Stolen Property.&lt;br/&gt;5121, Escape.&lt;br/&gt;"/><marker lat="40.450976359208497" lng="-79.983578246487241" zone="Zone 2" incidentdate="2016-08-08" incidenttime="21:18:00" incidentnumber="16147868" address="2000 block Penn Ave" type="ARREST" age="34" gender="M" description="*********************************************** &lt;br/&gt;13(a)(16), Possession of Controlled Substance&lt;br/&gt;"/><marker lat="40.441137684867279" lng="-79.957585934716349" zone="Zone 4" incidentdate="2016-08-08" incidenttime="15:20:00" incidentnumber="16146595" address="200 block Atwood St" type="ARREST" age="27" gender="F" description="*********************************************** &lt;br/&gt;13(a)(31), Marijuana: Possession Small Amount&lt;br/&gt;13(a)(32), Paraphernalia - Use or Possession&lt;br/&gt;"/><marker lat="40.4848646" lng="-79.9389353" zone="Zone 2" incidentdate="2016-08-08" incidenttime="10:20:00" incidentnumber="16140307" address="sith penn garage" type="ARREST" age="44" gender="M" description="*********************************************** &lt;br/&gt;3304, Criminal Mischief.&lt;br/&gt;3934, Theft from Vehicle&lt;br/&gt;907, Possessing Instruments of Crime.&lt;br/&gt;"/><marker lat="40.460594319900963" lng="-79.922716789802806" zone="Zone 5" incidentdate="2016-08-08" incidenttime="16:16:00" incidentnumber="16147656" address="6200 block Penn Ave" type="ARREST" age="29" gender="M" description="*********************************************** &lt;br/&gt;13(a)(32), Paraphernalia - Use or Possession&lt;br/&gt;9501, Bench Warrant&lt;br/&gt;3929(a)(1), Retail Theft; takes possession of, carries away, or transfers displayed merchandise&lt;br/&gt;"/><marker lat="40.382844268035171" lng="-79.976844871217992" zone="Zone 3" incidentdate="2016-08-08" incidenttime="13:40:00" incidentnumber="16147629" address="Stewart Ave &amp; Brownsville Rd" type="ARREST" age="25" gender="M" description="*********************************************** &lt;br/&gt;9501, Bench Warrant&lt;br/&gt;"/><marker lat="40.393167838197392" lng="-79.986585064520185" zone="Zone 3" incidentdate="2016-08-08" incidenttime="19:52:00" incidentnumber="16147809" address="2100 block Brownsville Rd" type="ARREST" age="28" gender="M" description="*********************************************** &lt;br/&gt;3304, Criminal Mischief.&lt;br/&gt;2705, Recklessly Endangering Another Person.&lt;br/&gt;4304(a)(1), Endangering Welfare of Children - Course of Conduct Enhanced&lt;br/&gt;2701, Simple Assault.&lt;br/&gt;"/><marker lat="40.4019818" lng="-80.0014145" zone="Zone 6" incidentdate="2016-08-08" incidenttime="01:45:00" incidentnumber="16147278" address="1500 block Edgebrook Ave" type="ARREST" age="59" gender="M" description="*********************************************** &lt;br/&gt;2701(a)(1), Simple Assault - Intent., Know., Reckless.Cause Bod. Injury&lt;br/&gt;5511(c)(1), CRUELTY TO ANIMALS&lt;br/&gt;"/><marker lat="40.44409702483955" lng="-80.029427993025735" zone="Zone 3" incidentdate="2016-08-08" incidenttime="15:10:00" incidentnumber="16136328" address="West End Brg &amp; West End Cir" type="ARREST" age="24" gender="M" description="*********************************************** &lt;br/&gt;3736, Reckless Driving&lt;br/&gt;1543, Driving While Operating Privilege is Suspended or Revoked.&lt;br/&gt;3743, Accidents Involving Damage to Attended Veh. or Property&lt;br/&gt;"/><marker lat="40.459241184494772" lng="-80.005548013998464" zone="Zone 1" incidentdate="2016-08-08" incidenttime="04:32:00" incidentnumber="16099326" address="1600 block Sandusky Ct" type="ARREST" age="36" gender="F" description="*********************************************** &lt;br/&gt;9015, Failure To Appear/Arrest on Attachment Order&lt;br/&gt;5505, Public Drunkenness&lt;br/&gt;3503.B1I, DEF. TRESPASS ACTUAL COMMUNICATION&lt;br/&gt;5503(a)(3), DISORDERLY CONDUCT - OBSCENE LANG/GEST&lt;br/&gt;"/><marker lat="40.424896721318461" lng="-79.951936799223191" zone="Zone 4" incidentdate="2016-08-08" incidenttime="20:26:00" incidentnumber="13240254" address="100 block Greenfield Ave" type="ARREST" age="27" gender="M" description="*********************************************** &lt;br/&gt;3925, Receiving Stolen Property.&lt;br/&gt;3928, Unauthorized Use of Automobile and Other Vehicles.&lt;br/&gt;"/><marker lat="40.441137684867279" lng="-79.957585934716349" zone="Zone 4" incidentdate="2016-08-08" incidenttime="15:20:00" incidentnumber="16146595" address="200 block Atwood St" type="ARREST" age="22" gender="M" description="*********************************************** &lt;br/&gt;13(a)(31), Marijuana: Possession Small Amount&lt;br/&gt;13(a)(32), Paraphernalia - Use or Possession&lt;br/&gt;"/><marker lat="40.449920330979076" lng="-79.974597253786143" zone="Zone 2" incidentdate="2016-08-08" incidenttime="12:00:00" incidentnumber="16092491" address="2400 block Chauncey Dr" type="ARREST" age="26" gender="M" description="*********************************************** &lt;br/&gt;4304(a)(1), Endangering Welfare of Children - Course of Conduct Enhanced&lt;br/&gt;2701, Simple Assault.&lt;br/&gt;"/><marker lat="40.4504235" lng="-79.9176774" zone="Zone 4" incidentdate="2016-08-08" incidenttime="08:06:00" incidentnumber="16147382" address="1100 block Beechwood Blvd" type="ARREST" age="53" gender="F" description="*********************************************** &lt;br/&gt;9501, Bench Warrant&lt;br/&gt;"/><marker lat="40.4312633" lng="-79.9732677" zone="Zone 3" incidentdate="2016-08-08" incidenttime="02:45:00" incidentnumber="16147299" address="Three Rivers Heritage Trail Rd" type="ARREST" age="44" gender="F" description="*********************************************** &lt;br/&gt;13(a)(31), Marijuana: Possession Small Amount&lt;br/&gt;473.07 (a), Hours of Parks 0600-2300 hrs.&lt;br/&gt;"/><marker lat="40.453566706506784" lng="-80.017443098064888" zone="Zone 5" incidentdate="2016-08-08" incidenttime="23:15:00" incidentnumber="16147931" address="900 block N Euclid Ave" type="ARREST" age="36" gender="M" description="*********************************************** &lt;br/&gt;9501, Bench Warrant&lt;br/&gt;"/><marker lat="40.453135094626646" lng="-79.946631151152332" zone="Zone 4" incidentdate="2016-08-08" incidenttime="18:15:00" incidentnumber="16147724" address="4900 block Centre Ave" type="ARREST" age="29" gender="M" description="*********************************************** &lt;br/&gt;2701, Simple Assault.&lt;br/&gt;"/><marker lat="40.395486293400708" lng="-80.016072284341263" zone="Zone 6" incidentdate="2016-08-08" incidenttime="13:20:00" incidentnumber="16141537" address="2400 block Glenarm Ave" type="ARREST" age="30" gender="M" description="*********************************************** &lt;br/&gt;2701, Simple Assault.&lt;br/&gt;"/></markers>
