<?xml version="1.0"?>
<markers><marker lat="40.469357805319532" lng="-80.008958753229749" zone="Zone OSC" incidentdate="2014-11-17" incidenttime="07:26:00" incidentnumber="14228310" address="Kenwood Ave" type="OFFENSE" age="" gender="" description="*********************************************** &lt;br/&gt;3934, Theft from Vehicle&lt;br/&gt;"/><marker lat="40.436036005233959" lng="-79.985455385193148" zone="Zone 2" incidentdate="2014-11-17" incidenttime="10:20:00" incidentnumber="14228468" address="1400 block Locust St" type="OFFENSE" age="" gender="" description="*********************************************** &lt;br/&gt;3921, Theft by Unlawful Taking or Disposition.&lt;br/&gt;"/><marker lat="40.402583454541173" lng="-80.02829832010724" zone="Zone 6" incidentdate="2014-11-17" incidenttime="12:40:00" incidentnumber="14228470" address="2300 block Vodeli St" type="OFFENSE" age="" gender="" description="*********************************************** &lt;br/&gt;9999, 9999 - (Misc. Incident):&lt;br/&gt;"/><marker lat="40.480351496503999" lng="-80.010099601603486" zone="Zone 1" incidentdate="2014-11-17" incidenttime="12:39:00" incidentnumber="14228463" address="100 block Watson Blvd" type="OFFENSE" age="" gender="" description="*********************************************** &lt;br/&gt;3301, Arson&lt;br/&gt;3502, Burglary.&lt;br/&gt;903, Criminal Conspiracy.&lt;br/&gt;3304, Criminal Mischief.&lt;br/&gt;3302, Causing or Risking Catastrophe.&lt;br/&gt;"/><marker lat="40.456900620854491" lng="-79.99871422615206" zone="Zone 1" incidentdate="2014-11-17" incidenttime="00:30:00" incidentnumber="14228250" address="300 block E North Ave" type="OFFENSE" age="" gender="" description="*********************************************** &lt;br/&gt;2702, Aggravated Assault.&lt;br/&gt;901, Criminal Attempt&lt;br/&gt;"/><marker lat="40.459140651815062" lng="-79.921714693020988" zone="Zone 4" incidentdate="2014-11-17" incidenttime="12:45:00" incidentnumber="14228480" address="6300 block Shakespeare St" type="OFFENSE" age="" gender="" description="*********************************************** &lt;br/&gt;3929, Retail Theft.&lt;br/&gt;"/><marker lat="40.457595928409624" lng="-79.990329098651557" zone="Zone 1" incidentdate="2014-11-17" incidenttime="12:45:00" incidentnumber="14228475" address="1100 block Province St" type="OFFENSE" age="" gender="" description="*********************************************** &lt;br/&gt;9489, Found Property&lt;br/&gt;"/><marker lat="40.45526043198857" lng="-80.058743590274176" zone="Zone 6" incidentdate="2014-11-17" incidenttime="16:05:00" incidentnumber="14228577" address="700 block Sherwood Ave" type="OFFENSE" age="" gender="" description="*********************************************** &lt;br/&gt;2709, Harassment (Non-Specific)&lt;br/&gt;"/><marker lat="40.392365478702068" lng="-80.007850102574906" zone="Zone 6" incidentdate="2014-11-17" incidenttime="16:00:00" incidentnumber="14228598" address="1400 block Brookline Blvd" type="OFFENSE" age="" gender="" description="*********************************************** &lt;br/&gt;3921, Theft by Unlawful Taking or Disposition.&lt;br/&gt;"/><marker lat="40.388166273802561" lng="-79.988254025089461" zone="Zone 3" incidentdate="2014-11-17" incidenttime="01:05:00" incidentnumber="14228201" address="100 block Overbrook Blvd" type="OFFENSE" age="" gender="" description="*********************************************** &lt;br/&gt;3502, Burglary.&lt;br/&gt;"/><marker lat="40.47742158791479" lng="-80.028186771907443" zone="Zone 1" incidentdate="2014-11-17" incidenttime="11:06:00" incidentnumber="14228423" address="1100 block Langtry St" type="OFFENSE" age="" gender="" description="*********************************************** &lt;br/&gt;3934, Theft from Vehicle&lt;br/&gt;"/><marker lat="40.415064872129555" lng="-79.999597773923654" zone="Zone 3" incidentdate="2014-11-17" incidenttime="14:42:00" incidentnumber="14228529" address="800 block Ashdale St" type="OFFENSE" age="" gender="" description="*********************************************** &lt;br/&gt;13(a)(31), Marijuana: Possession Small Amount&lt;br/&gt;"/><marker lat="40.449570543565805" lng="-79.936215868955784" zone="Zone 4" incidentdate="2014-11-17" incidenttime="01:19:00" incidentnumber="14228212" address="900 block St James St" type="OFFENSE" age="" gender="" description="*********************************************** &lt;br/&gt;9497, Aided Case&lt;br/&gt;"/><marker lat="40.439763018379082" lng="-79.923134005861371" zone="Zone 4" incidentdate="2014-11-17" incidenttime="08:59:00" incidentnumber="14228383" address="1600 block Murray Ave" type="OFFENSE" age="" gender="" description="*********************************************** &lt;br/&gt;9999, 9999 - (Misc. Incident):&lt;br/&gt;"/><marker lat="40.486117473705356" lng="-80.033424857721329" zone="Zone 1" incidentdate="2014-11-17" incidenttime="15:22:00" incidentnumber="14228548" address="1200 block Benton Ave" type="OFFENSE" age="" gender="" description="*********************************************** &lt;br/&gt;3745, Accidents Involving Damage to Unattended Veh.or Prop.&lt;br/&gt;"/><marker lat="40.444200272919588" lng="-80.040607296470199" zone="Zone 6" incidentdate="2014-11-17" incidenttime="17:00:00" incidentnumber="14228612" address="1000 block Chartiers Ave" type="OFFENSE" age="" gender="" description="*********************************************** &lt;br/&gt;3921(a), Theft by Unlawful Taking or Disposition - Movable item&lt;br/&gt;"/><marker lat="40.38940338753342" lng="-80.01736541014921" zone="Zone 6" incidentdate="2014-11-17" incidenttime="08:30:00" incidentnumber="14228379" address="1100 block Woodbourne Ave" type="OFFENSE" age="" gender="" description="*********************************************** &lt;br/&gt;2709, Harassment (Non-Specific)&lt;br/&gt;"/><marker lat="40.427531202944508" lng="-80.008160203211958" zone="Zone 3" incidentdate="2014-11-17" incidenttime="00:30:00" incidentnumber="14228247" address="Greenbush St" type="OFFENSE" age="" gender="" description="*********************************************** &lt;br/&gt;2709(a)(3), Harassment No Legitimate Purpose&lt;br/&gt;"/><marker lat="40.406023303157518" lng="-79.942408546715924" zone="Zone 4" incidentdate="2014-11-17" incidenttime="11:40:00" incidentnumber="14228435" address="100 block Johnston Ave" type="OFFENSE" age="" gender="" description="*********************************************** &lt;br/&gt;13(a)(31), Marijuana: Possession Small Amount&lt;br/&gt;"/><marker lat="40.390486341358283" lng="-80.012775159642075" zone="Zone 6" incidentdate="2014-11-17" incidenttime="09:40:00" incidentnumber="14228387" address="1300 block Wareman Ave" type="OFFENSE" age="" gender="" description="*********************************************** &lt;br/&gt;9999, 9999 - (Misc. Incident):&lt;br/&gt;"/><marker lat="40.454349227414227" lng="-80.059941589139555" zone="Zone 6" incidentdate="2014-11-17" incidenttime="09:47:00" incidentnumber="14228390" address="Allendale St &amp; Adon St" type="OFFENSE" age="" gender="" description="*********************************************** &lt;br/&gt;3701, Robbery.&lt;br/&gt;"/><marker lat="40.479076386446295" lng="-79.999717737366538" zone="Zone 1" incidentdate="2014-11-17" incidenttime="02:00:00" incidentnumber="14228220" address="1400 block Chicago St" type="OFFENSE" age="" gender="" description="*********************************************** &lt;br/&gt;9490, Missing Persons (18 and Over)&lt;br/&gt;"/><marker lat="40.459190603440391" lng="-79.927408851895919" zone="Zone 4" incidentdate="2014-11-17" incidenttime="07:26:00" incidentnumber="14228335" address="5900 block Centre Ave" type="OFFENSE" age="" gender="" description="*********************************************** &lt;br/&gt;3929, Retail Theft.&lt;br/&gt;"/><marker lat="40.46130116472672" lng="-79.934157530209333" zone="Zone 5" incidentdate="2014-11-17" incidenttime="07:00:00" incidentnumber="14228340" address="S Fairmount St &amp; Friendship Ave" type="OFFENSE" age="" gender="" description="*********************************************** &lt;br/&gt;3934, Theft from Vehicle&lt;br/&gt;"/><marker lat="40.484390841822403" lng="-80.037033247623029" zone="Zone 1" incidentdate="2014-11-17" incidenttime="08:43:00" incidentnumber="14228359" address="1400 block Benton Ave" type="OFFENSE" age="" gender="" description="*********************************************** &lt;br/&gt;9093, Indirect Criminal Contempt&lt;br/&gt;"/><marker lat="40.41136888220619" lng="-79.990299456571108" zone="Zone 3" incidentdate="2014-11-17" incidenttime="20:00:00" incidentnumber="14228712" address="200 block Knox Ave" type="OFFENSE" age="" gender="" description="*********************************************** &lt;br/&gt;6301, Corruption of Minors.&lt;br/&gt;"/><marker lat="40.396715643563397" lng="-80.021134827337718" zone="Zone 6" incidentdate="2014-11-17" incidenttime="13:43:00" incidentnumber="14228502" address="2500 block Wedgemere St" type="OFFENSE" age="" gender="" description="*********************************************** &lt;br/&gt;2702, Aggravated Assault.&lt;br/&gt;"/><marker lat="40.474624878347434" lng="-79.961335136919644" zone="Zone 2" incidentdate="2014-11-17" incidenttime="15:45:00" incidentnumber="14228555" address="Hatfield St &amp; 46th St" type="OFFENSE" age="" gender="" description="*********************************************** &lt;br/&gt;3934, Theft from Vehicle&lt;br/&gt;"/><marker lat="40.439517594123451" lng="-79.95594514096048" zone="Zone 4" incidentdate="2014-11-17" incidenttime="06:19:00" incidentnumber="14228293" address="300 block Atwood St" type="OFFENSE" age="" gender="" description="*********************************************** &lt;br/&gt;3934, Theft from Vehicle&lt;br/&gt;"/><marker lat="40.45840968113766" lng="-80.014022959568734" zone="Zone 1" incidentdate="2014-11-17" incidenttime="16:38:00" incidentnumber="14228588" address="600 block Armandale St" type="OFFENSE" age="" gender="" description="*********************************************** &lt;br/&gt;3304, Criminal Mischief.&lt;br/&gt;"/><marker lat="40.410973191057941" lng="-79.946391186524494" zone="Zone 4" incidentdate="2014-11-17" incidenttime="12:03:00" incidentnumber="14228466" address="500 block Hazelwood Ave" type="OFFENSE" age="" gender="" description="*********************************************** &lt;br/&gt;9999, 9999 - (Misc. Incident):&lt;br/&gt;"/><marker lat="40.426666138172813" lng="-79.966892407610601" zone="Zone 6" incidentdate="2014-11-17" incidenttime="11:45:00" incidentnumber="14228408" address="2700 block W Carson St" type="OFFENSE" age="" gender="" description="*********************************************** &lt;br/&gt;3924, Theft of Property Lost, Mislaid or Delivered by Mistake.&lt;br/&gt;"/><marker lat="40.474769125229479" lng="-79.929954380837202" zone="Zone 5" incidentdate="2014-11-17" incidenttime="18:42:00" incidentnumber="14228671" address="900 block Chislett St" type="OFFENSE" age="" gender="" description="*********************************************** &lt;br/&gt;9999, 9999 - (Misc. Incident):&lt;br/&gt;"/><marker lat="40.449945984416168" lng="-79.950663260585088" zone="Zone 4" incidentdate="2014-11-17" incidenttime="17:00:00" incidentnumber="14228641" address="200 block N Craig St" type="OFFENSE" age="" gender="" description="*********************************************** &lt;br/&gt;3924, Theft of Property Lost, Mislaid or Delivered by Mistake.&lt;br/&gt;"/><marker lat="40.427486371513979" lng="-79.9908726060047" zone="Zone 3" incidentdate="2014-11-17" incidenttime="01:01:00" incidentnumber="14228207" address="800 block Selby Way" type="OFFENSE" age="" gender="" description="*********************************************** &lt;br/&gt;2702, Aggravated Assault.&lt;br/&gt;"/><marker lat="40.430020824945359" lng="-79.976813326700821" zone="Zone 3" incidentdate="2014-11-17" incidenttime="16:55:00" incidentnumber="14228593" address="2000 block Wharton St" type="OFFENSE" age="" gender="" description="*********************************************** &lt;br/&gt;5505, Public Drunkenness&lt;br/&gt;"/><marker lat="40.415263486873108" lng="-80.035657070162458" zone="Zone 6" incidentdate="2014-11-17" incidenttime="14:15:00" incidentnumber="14228544" address="600 block Elm Spring Ct" type="OFFENSE" age="" gender="" description="*********************************************** &lt;br/&gt;3304, Criminal Mischief.&lt;br/&gt;"/><marker lat="40.457996845611397" lng="-80.009370377151654" zone="Zone 1" incidentdate="2014-11-17" incidenttime="11:40:00" incidentnumber="14228441" address="1500 block Arch St" type="OFFENSE" age="" gender="" description="*********************************************** &lt;br/&gt;9488, False  Burglar Alarm&lt;br/&gt;"/><marker lat="40.487823540011732" lng="-79.897614208935366" zone="Zone 5" incidentdate="2014-11-17" incidenttime="15:06:00" incidentnumber="14228537" address="800 block Freeport Rd" type="OFFENSE" age="" gender="" description="*********************************************** &lt;br/&gt;13(a)(16), Possession of Controlled Substance&lt;br/&gt;13(a)(32), Paraphernalia - Use or Possession&lt;br/&gt;"/><marker lat="40.459391522671353" lng="-80.056840292380855" zone="Zone 6" incidentdate="2014-11-17" incidenttime="00:20:00" incidentnumber="14228193" address="3700 block Glen Mawr St" type="OFFENSE" age="" gender="" description="*********************************************** &lt;br/&gt;2702, Aggravated Assault.&lt;br/&gt;"/><marker lat="40.429443536981864" lng="-80.0442284371657" zone="Zone 6" incidentdate="2014-11-17" incidenttime="02:39:00" incidentnumber="14228270" address="1000 block Alcon St" type="OFFENSE" age="" gender="" description="*********************************************** &lt;br/&gt;9488, False  Burglar Alarm&lt;br/&gt;"/><marker lat="40.489613629341036" lng="-80.018113956283486" zone="Zone 1" incidentdate="2014-11-17" incidenttime="16:25:00" incidentnumber="14228587" address="3900 block Perrysville Ave" type="OFFENSE" age="" gender="" description="*********************************************** &lt;br/&gt;6110.1, Possesion of Firearm by Minor&lt;br/&gt;3921(a), Theft by Unlawful Taking or Disposition - Movable item&lt;br/&gt;6106, Firearms not to be Carried without a License.&lt;br/&gt;3736, Reckless Driving&lt;br/&gt;3925, Receiving Stolen Property.&lt;br/&gt;2705, Recklessly Endangering Another Person.&lt;br/&gt;3733, Fleeing or Attempting to Elude Police Officer&lt;br/&gt;3745, Accidents Involving Damage to Unattended Veh.or Prop.&lt;br/&gt;"/><marker lat="40.49241123260515" lng="-80.019763536615685" zone="Zone 1" incidentdate="2014-11-17" incidenttime="20:30:00" incidentnumber="14228725" address="Radium St" type="OFFENSE" age="" gender="" description="*********************************************** &lt;br/&gt;2709(a), Harassment.&lt;br/&gt;2706, Terroristic Threats.&lt;br/&gt;"/><marker lat="40.421693251639567" lng="-79.987757437395828" zone="Zone 3" incidentdate="2014-11-17" incidenttime="14:00:00" incidentnumber="14228523" address="Sharon St" type="OFFENSE" age="" gender="" description="*********************************************** &lt;br/&gt;029, Missing Juvenile&lt;br/&gt;"/><marker lat="40.454821912402132" lng="-80.013545578756904" zone="Zone 1" incidentdate="2014-11-17" incidenttime="08:24:00" incidentnumber="14228349" address="1200 block Buena Vista St" type="OFFENSE" age="" gender="" description="*********************************************** &lt;br/&gt;9488, False  Burglar Alarm&lt;br/&gt;"/><marker lat="40.478655848187707" lng="-79.900606800476623" zone="Zone 5" incidentdate="2014-11-17" incidenttime="12:55:00" incidentnumber="14228487" address="7100 block Highland Dr" type="OFFENSE" age="" gender="" description="*********************************************** &lt;br/&gt;3921, Theft by Unlawful Taking or Disposition.&lt;br/&gt;"/><marker lat="40.428511573686791" lng="-79.982765552881659" zone="Zone 3" incidentdate="2014-11-17" incidenttime="02:00:00" incidentnumber="14228227" address="S 16th St" type="OFFENSE" age="" gender="" description="*********************************************** &lt;br/&gt;3923, Theft by Extortion.&lt;br/&gt;"/><marker lat="40.426848127782556" lng="-79.948761936088047" zone="Zone 4" incidentdate="2014-11-17" incidenttime="15:00:00" incidentnumber="14228574" address="300 block Saline St" type="OFFENSE" age="" gender="" description="*********************************************** &lt;br/&gt;3934, Theft from Vehicle&lt;br/&gt;"/><marker lat="40.429723530472202" lng="-79.954255908832209" zone="Zone 4" incidentdate="2014-11-17" incidenttime="05:15:00" incidentnumber="14228311" address="3700 block Frazier St" type="OFFENSE" age="" gender="" description="*********************************************** &lt;br/&gt;3304, Criminal Mischief.&lt;br/&gt;3934, Theft from Vehicle&lt;br/&gt;"/><marker lat="40.38918036362611" lng="-79.982336731268532" zone="Zone 3" incidentdate="2014-11-17" incidenttime="06:45:00" incidentnumber="14228315" address="100 block Carrick Ave" type="OFFENSE" age="" gender="" description="*********************************************** &lt;br/&gt;2709, Harassment (Non-Specific)&lt;br/&gt;"/><marker lat="40.437715655894145" lng="-79.918991746358472" zone="Zone 4" incidentdate="2014-11-17" incidenttime="17:10:00" incidentnumber="14228067" address="6300 block Forbes Ave" type="OFFENSE" age="" gender="" description="*********************************************** &lt;br/&gt;9999, 9999 - (Misc. Incident):&lt;br/&gt;"/><marker lat="40.470854574963923" lng="-79.964970515887345" zone="Zone 2" incidentdate="2014-11-17" incidenttime="17:58:00" incidentnumber="14228646" address="40th St &amp; Willow St" type="OFFENSE" age="" gender="" description="*********************************************** &lt;br/&gt;1301, Registration and Certificate of Title Required.&lt;br/&gt;13(a)(16), Possession of Controlled Substance&lt;br/&gt;1543, Driving While Operating Privilege is Suspended or Revoked.&lt;br/&gt;13(a)(32), Paraphernalia - Use or Possession&lt;br/&gt;1786, Required Financial Responsibility.&lt;br/&gt;"/><marker lat="40.439534165811146" lng="-79.99836772444668" zone="Zone 2" incidentdate="2014-11-17" incidenttime="18:14:00" incidentnumber="14228655" address="400 block 5th Ave" type="OFFENSE" age="" gender="" description="*********************************************** &lt;br/&gt;3929, Retail Theft.&lt;br/&gt;"/><marker lat="40.378572116418752" lng="-79.992827963127297" zone="Zone 3" incidentdate="2014-11-17" incidenttime="15:12:00" incidentnumber="14228524" address="2200 block Saw Mill Run Blvd" type="OFFENSE" age="" gender="" description="*********************************************** &lt;br/&gt;3304(a)(5), CRIMINAL MISCHIEF - Intentionally Damages Real Or Personal Property Of Another&lt;br/&gt;901, Criminal Attempt&lt;br/&gt;"/><marker lat="40.441228428031053" lng="-80.002073791411135" zone="Zone 2" incidentdate="2014-11-17" incidenttime="12:30:00" incidentnumber="14228464" address="200 block 5th Ave" type="OFFENSE" age="" gender="" description="*********************************************** &lt;br/&gt;3929(a)(1), Retail Theft; takes possession of, carries away, or transfers displayed merchandise&lt;br/&gt;"/><marker lat="40.468693075773288" lng="-79.961677392158549" zone="Zone 2" incidentdate="2014-11-17" incidenttime="06:34:00" incidentnumber="14228296" address="4000 block Butler St" type="OFFENSE" age="" gender="" description="*********************************************** &lt;br/&gt;3924, Theft of Property Lost, Mislaid or Delivered by Mistake.&lt;br/&gt;"/><marker lat="40.415792263835385" lng="-80.013046389869174" zone="Zone 3" incidentdate="2014-11-17" incidenttime="01:15:00" incidentnumber="14228149" address="Boggs Ave &amp; Southern Ave" type="ARREST" age="29" gender="M" description="*********************************************** &lt;br/&gt;3323, Stop Signs and Yield Signs.&lt;br/&gt;3802(a)(1), DUI - General Impairment&lt;br/&gt;3802(c), DUI - Highest Rate of Alcohol - BAC &gt;= .16%&lt;br/&gt;"/><marker lat="40.480351496503999" lng="-80.010099601603486" zone="Zone 1" incidentdate="2014-11-17" incidenttime="13:30:00" incidentnumber="14228463" address="100 block Watson Blvd" type="ARREST" age="16" gender="F" description="*********************************************** &lt;br/&gt;3301, Arson&lt;br/&gt;3502, Burglary.&lt;br/&gt;903, Criminal Conspiracy.&lt;br/&gt;3304, Criminal Mischief.&lt;br/&gt;3302, Causing or Risking Catastrophe.&lt;br/&gt;"/><marker lat="40.441228428031053" lng="-80.002073791411135" zone="Zone 2" incidentdate="2014-11-17" incidenttime="12:40:00" incidentnumber="14228464" address="200 block 5th Ave" type="ARREST" age="21" gender="M" description="*********************************************** &lt;br/&gt;3929(a)(1), Retail Theft; takes possession of, carries away, or transfers displayed merchandise&lt;br/&gt;"/><marker lat="40.395627635856464" lng="-80.02356665623752" zone="Zone 6" incidentdate="2014-11-17" incidenttime="15:00:00" incidentnumber="14224677" address="500 block Brookline Blvd" type="ARREST" age="42" gender="F" description="*********************************************** &lt;br/&gt;3922, Theft by Deception.&lt;br/&gt;"/><marker lat="40.449678479077228" lng="-80.018312338530123" zone="Zone 1" incidentdate="2014-11-17" incidenttime="18:00:00" incidentnumber="14194456" address="Allegheny Ave &amp; Ridge Ave" type="ARREST" age="29" gender="M" description="*********************************************** &lt;br/&gt;3743, Accidents Involving Damage to Attended Veh. or Property&lt;br/&gt;"/><marker lat="40.415064872129555" lng="-79.999597773923654" zone="Zone 3" incidentdate="2014-11-17" incidenttime="15:00:00" incidentnumber="14228529" address="800 block Ashdale St" type="ARREST" age="23" gender="M" description="*********************************************** &lt;br/&gt;13(a)(31), Marijuana: Possession Small Amount&lt;br/&gt;"/><marker lat="40.487823540011732" lng="-79.897614208935366" zone="Zone 5" incidentdate="2014-11-17" incidenttime="15:30:00" incidentnumber="14228537" address="800 block Freeport Rd" type="ARREST" age="26" gender="F" description="*********************************************** &lt;br/&gt;13(a)(16), Possession of Controlled Substance&lt;br/&gt;13(a)(32), Paraphernalia - Use or Possession&lt;br/&gt;"/><marker lat="40.396715643563397" lng="-80.021134827337718" zone="Zone 6" incidentdate="2014-11-17" incidenttime="15:15:00" incidentnumber="14228502" address="2500 block Wedgemere St" type="ARREST" age="33" gender="M" description="*********************************************** &lt;br/&gt;2702, Aggravated Assault.&lt;br/&gt;"/><marker lat="40.489613629341036" lng="-80.018113956283486" zone="Zone 1" incidentdate="2014-11-17" incidenttime="18:55:00" incidentnumber="14228587" address="3900 block Perrysville Ave" type="ARREST" age="17" gender="M" description="*********************************************** &lt;br/&gt;6110.1, Possesion of Firearm by Minor&lt;br/&gt;3921(a), Theft by Unlawful Taking or Disposition - Movable item&lt;br/&gt;6106, Firearms not to be Carried without a License.&lt;br/&gt;3736, Reckless Driving&lt;br/&gt;3925, Receiving Stolen Property.&lt;br/&gt;2705, Recklessly Endangering Another Person.&lt;br/&gt;3733, Fleeing or Attempting to Elude Police Officer&lt;br/&gt;3745, Accidents Involving Damage to Unattended Veh.or Prop.&lt;br/&gt;"/><marker lat="40.404755680144127" lng="-79.941499619520542" zone="Zone 4" incidentdate="2014-11-17" incidenttime="11:40:00" incidentnumber="14226463" address="Winston St &amp; Gertrude St" type="ARREST" age="" gender="M" description="*********************************************** &lt;br/&gt;13(a)(16), Possession of Controlled Substance&lt;br/&gt;13(a)(30)*, Delivery of Controlled Substance&lt;br/&gt;13(a)(30), Possession w/ Intent to Del. Controlled Substance&lt;br/&gt;"/><marker lat="40.454983122271763" lng="-80.001942717734579" zone="Zone 1" incidentdate="2014-11-17" incidenttime="15:30:00" incidentnumber="14105719" address="500 block Suismon St" type="ARREST" age="29" gender="F" description="*********************************************** &lt;br/&gt;13(a)(16), Possession of Controlled Substance&lt;br/&gt;13(a)(32), Paraphernalia - Use or Possession&lt;br/&gt;"/><marker lat="40.427486371513979" lng="-79.9908726060047" zone="Zone 3" incidentdate="2014-11-17" incidenttime="01:50:00" incidentnumber="14228207" address="800 block Selby Way" type="ARREST" age="32" gender="F" description="*********************************************** &lt;br/&gt;2702, Aggravated Assault.&lt;br/&gt;"/><marker lat="40.439534165811146" lng="-79.99836772444668" zone="Zone 2" incidentdate="2014-11-17" incidenttime="18:22:00" incidentnumber="14228655" address="400 block 5th Ave" type="ARREST" age="16" gender="F" description="*********************************************** &lt;br/&gt;3929, Retail Theft.&lt;br/&gt;"/><marker lat="40.420747735826161" lng="-80.004701518908448" zone="Zone 3" incidentdate="2014-11-17" incidenttime="17:50:00" incidentnumber="14176987" address="200 block E Warrington Ave" type="ARREST" age="39" gender="F" description="*********************************************** &lt;br/&gt;4101, Forgery.&lt;br/&gt;3921(a), Theft by Unlawful Taking or Disposition - Movable item&lt;br/&gt;"/><marker lat="40.405559391152096" lng="-79.941724165889326" zone="Zone 4" incidentdate="2014-11-17" incidenttime="11:40:00" incidentnumber="14226499" address="Gertrude St &amp; Trowbridge St" type="ARREST" age="24" gender="M" description="*********************************************** &lt;br/&gt;13(a)(16), Possession of Controlled Substance&lt;br/&gt;13(a)(30)*, Delivery of Controlled Substance&lt;br/&gt;13(a)(30), Possession w/ Intent to Del. Controlled Substance&lt;br/&gt;"/><marker lat="40.478835938423174" lng="-79.95215993520506" zone="Zone 2" incidentdate="2014-11-17" incidenttime="17:30:00" incidentnumber="14193932" address="5200 block Holmes St" type="ARREST" age="43" gender="M" description="*********************************************** &lt;br/&gt;9498, 302 (Mental)&lt;br/&gt;6105(a)(1), Persons not to possess, use, manufacture, control, sell or transfer firearms: Former convict enumerated in subsection (b)&lt;br/&gt;"/><marker lat="40.470854574963923" lng="-79.964970515887345" zone="Zone 2" incidentdate="2014-11-17" incidenttime="18:15:00" incidentnumber="14228646" address="40th St &amp; Willow St" type="ARREST" age="29" gender="F" description="*********************************************** &lt;br/&gt;1301, Registration and Certificate of Title Required.&lt;br/&gt;13(a)(16), Possession of Controlled Substance&lt;br/&gt;1543, Driving While Operating Privilege is Suspended or Revoked.&lt;br/&gt;13(a)(32), Paraphernalia - Use or Possession&lt;br/&gt;1786, Required Financial Responsibility.&lt;br/&gt;"/><marker lat="40.406023303157518" lng="-79.942408546715924" zone="Zone 4" incidentdate="2014-11-17" incidenttime="11:40:00" incidentnumber="14228435" address="100 block Johnston Ave" type="ARREST" age="24" gender="M" description="*********************************************** &lt;br/&gt;13(a)(31), Marijuana: Possession Small Amount&lt;br/&gt;"/><marker lat="40.480351496503999" lng="-80.010099601603486" zone="Zone 1" incidentdate="2014-11-17" incidenttime="13:30:00" incidentnumber="14228463" address="100 block Watson Blvd" type="ARREST" age="15" gender="M" description="*********************************************** &lt;br/&gt;3301, Arson&lt;br/&gt;3502, Burglary.&lt;br/&gt;903, Criminal Conspiracy.&lt;br/&gt;3304, Criminal Mischief.&lt;br/&gt;3302, Causing or Risking Catastrophe.&lt;br/&gt;"/><marker lat="40.487823540011732" lng="-79.897614208935366" zone="Zone 5" incidentdate="2014-11-17" incidenttime="15:30:00" incidentnumber="14228537" address="800 block Freeport Rd" type="ARREST" age="28" gender="M" description="*********************************************** &lt;br/&gt;13(a)(16), Possession of Controlled Substance&lt;br/&gt;13(a)(32), Paraphernalia - Use or Possession&lt;br/&gt;"/><marker lat="40.403792286132436" lng="-80.028294586108061" zone="Zone 6" incidentdate="2014-11-17" incidenttime="23:35:00" incidentnumber="14223491" address="2200 block Vodeli St" type="ARREST" age="42" gender="M" description="*********************************************** &lt;br/&gt;2701, Simple Assault.&lt;br/&gt;"/><marker lat="40.480351496503999" lng="-80.010099601603486" zone="Zone 1" incidentdate="2014-11-17" incidenttime="13:30:00" incidentnumber="14228463" address="100 block Watson Blvd" type="ARREST" age="18" gender="F" description="*********************************************** &lt;br/&gt;3301, Arson&lt;br/&gt;3502, Burglary.&lt;br/&gt;903, Criminal Conspiracy.&lt;br/&gt;3304, Criminal Mischief.&lt;br/&gt;3302, Causing or Risking Catastrophe.&lt;br/&gt;"/><marker lat="40.45474510446261" lng="-80.006336445365193" zone="Zone 1" incidentdate="2014-11-17" incidenttime="13:15:00" incidentnumber="14173203" address="Montgomery Pl" type="ARREST" age="49" gender="F" description="*********************************************** &lt;br/&gt;13(a)(31), Marijuana: Possession Small Amount&lt;br/&gt;9501, Bench Warrant&lt;br/&gt;13(a)(16), Possession of Controlled Substance&lt;br/&gt;13(a)(32), Paraphernalia - Use or Possession&lt;br/&gt;"/><marker lat="40.405559391152096" lng="-79.941724165889326" zone="Zone 4" incidentdate="2014-11-17" incidenttime="11:05:00" incidentnumber="14226499" address="Gertrude St &amp; Trowbridge St" type="ARREST" age="52" gender="M" description="*********************************************** &lt;br/&gt;13(a)(16), Possession of Controlled Substance&lt;br/&gt;13(a)(30)*, Delivery of Controlled Substance&lt;br/&gt;13(a)(30), Possession w/ Intent to Del. Controlled Substance&lt;br/&gt;"/><marker lat="40.440786175962813" lng="-79.994403812629301" zone="Zone 2" incidentdate="2014-11-17" incidenttime="10:30:00" incidentnumber="14191895" address="Bigelow Sq" type="ARREST" age="37" gender="F" description="*********************************************** &lt;br/&gt;3922, Theft by Deception.&lt;br/&gt;4101, Forgery.&lt;br/&gt;3925, Receiving Stolen Property.&lt;br/&gt;"/><marker lat="40.434696587775576" lng="-79.996300985228572" zone="Zone 2" incidentdate="2014-11-17" incidenttime="11:07:00" incidentnumber="14223162" address="600 block 1st Ave" type="ARREST" age="50" gender="M" description="*********************************************** &lt;br/&gt;2701, Simple Assault.&lt;br/&gt;"/><marker lat="40.463011931512639" lng="-79.930274906509496" zone="Zone 5" incidentdate="2014-11-17" incidenttime="19:29:00" incidentnumber="14202131" address="5600 block Penn Ave" type="ARREST" age="27" gender="M" description="*********************************************** &lt;br/&gt;4106, Access Device Fraud&lt;br/&gt;7611(a)(1), Unlawful Use of a Computer&lt;br/&gt;4120, Identity Theft&lt;br/&gt;"/><marker lat="40.406023303157518" lng="-79.942408546715924" zone="Zone 4" incidentdate="2014-11-17" incidenttime="12:05:00" incidentnumber="14228435" address="100 block Johnston Ave" type="ARREST" age="26" gender="M" description="*********************************************** &lt;br/&gt;13(a)(31), Marijuana: Possession Small Amount&lt;br/&gt;"/></markers>
