<?xml version="1.0"?>
<markers><marker lat="40.4274598" lng="-79.9637460" zone="Zone 3" incidentdate="2016-01-11" incidenttime="07:00:00" incidentnumber="16006406" address="2600 block Tunnel Blvd" type="OFFENSE" age="" gender="" description="*********************************************** &lt;br/&gt;3502, Burglary.&lt;br/&gt;"/><marker lat="40.446524174742748" lng="-80.036900909030351" zone="Zone 6" incidentdate="2016-01-11" incidenttime="11:37:00" incidentnumber="16006361" address="1000 block Valonia St" type="OFFENSE" age="" gender="" description="*********************************************** &lt;br/&gt;9488, False  Burglar Alarm&lt;br/&gt;"/><marker lat="40.463229755510646" lng="-79.890940679656808" zone="Zone 5" incidentdate="2016-01-11" incidenttime="22:30:00" incidentnumber="16006661" address="1400 block Oakdene St" type="OFFENSE" age="" gender="" description="*********************************************** &lt;br/&gt;3502, Burglary.&lt;br/&gt;"/><marker lat="40.453214380492888" lng="-79.999008894833395" zone="Zone 1" incidentdate="2016-01-11" incidenttime="10:22:00" incidentnumber="16006328" address="600 block Avery St" type="OFFENSE" age="" gender="" description="*********************************************** &lt;br/&gt;3304, Criminal Mischief.&lt;br/&gt;"/><marker lat="40.450892721440539" lng="-80.000843891836467" zone="Zone 1" incidentdate="2016-01-11" incidenttime="22:30:00" incidentnumber="16006664" address="300 block Cedar Ave" type="OFFENSE" age="" gender="" description="*********************************************** &lt;br/&gt;13(a)(31), Marijuana: Possession Small Amount&lt;br/&gt;3334, Turning Movements and Required Signals.&lt;br/&gt;"/><marker lat="40.456515048695316" lng="-80.016515559088219" zone="Zone 1" incidentdate="2016-01-11" incidenttime="19:20:00" incidentnumber="16006592" address="1500 block BRIGHTON Rd" type="OFFENSE" age="" gender="" description="*********************************************** &lt;br/&gt;9999, 9999 - (Misc. Incident):&lt;br/&gt;"/><marker lat="40.435095503606554" lng="-79.993077686753679" zone="Zone 2" incidentdate="2016-01-11" incidenttime="15:25:00" incidentnumber="16003932" address="900 block Second Ave" type="OFFENSE" age="" gender="" description="*********************************************** &lt;br/&gt;9501, Bench Warrant&lt;br/&gt;3929, Retail Theft.&lt;br/&gt;"/><marker lat="40.480943728695344" lng="-80.031265318818512" zone="Zone 1" incidentdate="2016-01-11" incidenttime="18:15:00" incidentnumber="16006546" address="1100 block Stanford Rd" type="OFFENSE" age="" gender="" description="*********************************************** &lt;br/&gt;9488, False  Burglar Alarm&lt;br/&gt;"/><marker lat="40.4378591" lng="-80.0539249" zone="Zone 6" incidentdate="2016-01-11" incidenttime="09:57:00" incidentnumber="16006317" address="1800 block Noblestown Rd" type="OFFENSE" age="" gender="" description="*********************************************** &lt;br/&gt;3926(a)(1), Theft of Services; Cable, Gas, Taxi, Bill, Tab, etc.&lt;br/&gt;"/><marker lat="40.4278323331488" lng="-80.054349439759122" zone="Zone 6" incidentdate="2016-01-11" incidenttime="17:30:00" incidentnumber="16006510" address="2300 block Noblestown Rd" type="OFFENSE" age="" gender="" description="*********************************************** &lt;br/&gt;9123, Miscellaneous Fire Other Investigation to Continue&lt;br/&gt;"/><marker lat="40.466616756829907" lng="-79.993676874083434" zone="Zone 1" incidentdate="2016-01-11" incidenttime="15:39:00" incidentnumber="16006454" address="2100 block Rhine St" type="OFFENSE" age="" gender="" description="*********************************************** &lt;br/&gt;9999, 9999 - (Misc. Incident):&lt;br/&gt;"/><marker lat="40.448573392106617" lng="-79.905287226672854" zone="Zone 4" incidentdate="2016-01-11" incidenttime="08:30:00" incidentnumber="16006369" address="300 block S Lang Ave" type="OFFENSE" age="" gender="" description="*********************************************** &lt;br/&gt;3934, Theft from Vehicle&lt;br/&gt;"/><marker lat="40.446862802848507" lng="-79.946744974893107" zone="Zone 4" incidentdate="2016-01-11" incidenttime="16:00:00" incidentnumber="16006515" address="4700 block 5th Ave" type="OFFENSE" age="" gender="" description="*********************************************** &lt;br/&gt;9504, Lost Property&lt;br/&gt;"/><marker lat="40.4658541" lng="-79.8022644" zone="Zone OSC" incidentdate="2016-01-11" incidenttime="16:00:00" incidentnumber="16006604" address="8700 block Charleston Blvd" type="OFFENSE" age="" gender="" description="*********************************************** &lt;br/&gt;3922, Theft by Deception.&lt;br/&gt;4120, Identity Theft&lt;br/&gt;"/><marker lat="40.455232431637143" lng="-80.051231524317927" zone="Zone 6" incidentdate="2016-01-11" incidenttime="07:30:00" incidentnumber="16006425" address="2900 block Glen Mawr St" type="OFFENSE" age="" gender="" description="*********************************************** &lt;br/&gt;3934, Theft from Vehicle&lt;br/&gt;"/><marker lat="40.468598033821102" lng="-80.000394630575286" zone="Zone 1" incidentdate="2016-01-11" incidenttime="15:45:00" incidentnumber="16006439" address="Luella St" type="OFFENSE" age="" gender="" description="*********************************************** &lt;br/&gt;9093, Indirect Criminal Contempt&lt;br/&gt;"/><marker lat="40.407924376894591" lng="-79.943479890779997" zone="Zone 4" incidentdate="2016-01-11" incidenttime="19:01:00" incidentnumber="16006577" address="100 block Tipton St" type="OFFENSE" age="" gender="" description="*********************************************** &lt;br/&gt;9490, Missing Persons (18 and Over)&lt;br/&gt;"/><marker lat="40.468144733978242" lng="-80.015379520229985" zone="Zone 1" incidentdate="2016-01-11" incidenttime="00:55:00" incidentnumber="16006156" address="2600 block N Charles St" type="OFFENSE" age="" gender="" description="*********************************************** &lt;br/&gt;2701(b)(1), Simple Assault - Fight or Scuffle Entered by Mutual Consent&lt;br/&gt;3304, Criminal Mischief.&lt;br/&gt;"/><marker lat="40.456515048695316" lng="-80.016515559088219" zone="Zone 1" incidentdate="2016-01-11" incidenttime="06:11:00" incidentnumber="16006244" address="1500 block Brighton Rd" type="OFFENSE" age="" gender="" description="*********************************************** &lt;br/&gt;9498, 302 (Mental)&lt;br/&gt;"/><marker lat="40.47597732572121" lng="-79.921138032804592" zone="Zone 5" incidentdate="2016-01-11" incidenttime="11:10:00" incidentnumber="16006356" address="5700 block Bryant St" type="OFFENSE" age="" gender="" description="*********************************************** &lt;br/&gt;9496, Dead on Arrival (DOA)&lt;br/&gt;"/><marker lat="40.415034191007635" lng="-79.91601822668234" zone="Zone 4" incidentdate="2016-01-11" incidenttime="20:00:00" incidentnumber="16006623" address="Macfarren St &amp; Old Browns Hill Rd" type="OFFENSE" age="" gender="" description="*********************************************** &lt;br/&gt;3701, Robbery.&lt;br/&gt;903, Criminal Conspiracy.&lt;br/&gt;"/><marker lat="40.475614209651539" lng="-79.939923020458423" zone="Zone 5" incidentdate="2016-01-11" incidenttime="17:12:00" incidentnumber="16006517" address="900 block Brintell St" type="OFFENSE" age="" gender="" description="*********************************************** &lt;br/&gt;3921, Theft by Unlawful Taking or Disposition.&lt;br/&gt;"/><marker lat="40.4643024" lng="-79.9160277" zone="Zone 5" incidentdate="2016-01-11" incidenttime="20:00:00" incidentnumber="16006615" address="100 block Mayflower St" type="OFFENSE" age="" gender="" description="*********************************************** &lt;br/&gt;3921, Theft by Unlawful Taking or Disposition.&lt;br/&gt;"/><marker lat="40.460706790003542" lng="-79.923780776230444" zone="Zone 5" incidentdate="2016-01-11" incidenttime="17:27:00" incidentnumber="16006531" address="6100 block Penn Ave" type="OFFENSE" age="" gender="" description="*********************************************** &lt;br/&gt;3921(a), Theft by Unlawful Taking or Disposition - Movable item&lt;br/&gt;"/><marker lat="40.441228428031053" lng="-80.002073791411135" zone="Zone 2" incidentdate="2016-01-11" incidenttime="18:18:00" incidentnumber="16006563" address="200 block 5th Ave" type="OFFENSE" age="" gender="" description="*********************************************** &lt;br/&gt;9501, Bench Warrant&lt;br/&gt;3929, Retail Theft.&lt;br/&gt;"/><marker lat="40.455691175710506" lng="-80.002452655417784" zone="Zone 1" incidentdate="2016-01-11" incidenttime="01:26:00" incidentnumber="16006165" address="Cedar Ave &amp; Tripoli St" type="OFFENSE" age="" gender="" description="*********************************************** &lt;br/&gt;13(a)(32), Paraphernalia - Use or Possession&lt;br/&gt;9501, Bench Warrant&lt;br/&gt;1543, Driving While Operating Privilege is Suspended or Revoked.&lt;br/&gt;4302, Periods for Requiring Lighted Lamps.&lt;br/&gt;"/><marker lat="40.454038272737556" lng="-79.867341042290406" zone="Zone 5" incidentdate="2016-01-11" incidenttime="08:00:00" incidentnumber="16006254" address="2200 block Wilner Dr" type="OFFENSE" age="" gender="" description="*********************************************** &lt;br/&gt;9490, Missing Persons (18 and Over)&lt;br/&gt;"/><marker lat="40.487002145990218" lng="-80.012977786244406" zone="Zone 1" incidentdate="2016-01-11" incidenttime="20:58:00" incidentnumber="16006633" address="300 block Richey Ave" type="OFFENSE" age="" gender="" description="*********************************************** &lt;br/&gt;9488, False  Burglar Alarm&lt;br/&gt;"/><marker lat="40.410675925327148" lng="-80.009569522439293" zone="Zone 6" incidentdate="2016-01-11" incidenttime="07:00:00" incidentnumber="16006295" address="200 block LONDON TOWNE Dr" type="OFFENSE" age="" gender="" description="*********************************************** &lt;br/&gt;3304, Criminal Mischief.&lt;br/&gt;"/><marker lat="40.442149856978411" lng="-79.957840380080995" zone="Zone 4" incidentdate="2016-01-11" incidenttime="15:15:00" incidentnumber="16006603" address="100 block Oakland Ave" type="OFFENSE" age="" gender="" description="*********************************************** &lt;br/&gt;3921, Theft by Unlawful Taking or Disposition.&lt;br/&gt;"/><marker lat="40.441406159731216" lng="-80.002873255548053" zone="Zone 2" incidentdate="2016-01-11" incidenttime="09:30:00" incidentnumber="16006309" address="100 block 5th Ave" type="OFFENSE" age="" gender="" description="*********************************************** &lt;br/&gt;5505, Public Drunkenness&lt;br/&gt;"/><marker lat="40.465913053577324" lng="-79.953250701447303" zone="Zone 2" incidentdate="2016-01-11" incidenttime="19:30:00" incidentnumber="16006575" address="4400 block Penn Ave" type="OFFENSE" age="" gender="" description="*********************************************** &lt;br/&gt;029, Missing Juvenile&lt;br/&gt;"/><marker lat="40.462752029993148" lng="-79.905590697682214" zone="Zone 5" incidentdate="2016-01-11" incidenttime="10:44:00" incidentnumber="16006343" address="1000 block Washington Blvd" type="OFFENSE" age="" gender="" description="*********************************************** &lt;br/&gt;3921, Theft by Unlawful Taking or Disposition.&lt;br/&gt;"/><marker lat="40.428438567956732" lng="-79.983105958684874" zone="Zone 3" incidentdate="2016-01-11" incidenttime="08:15:00" incidentnumber="16006291" address="100 block S 16th St" type="OFFENSE" age="" gender="" description="*********************************************** &lt;br/&gt;3934, Theft from Vehicle&lt;br/&gt;"/><marker lat="40.451062991618954" lng="-79.968730527227905" zone="Zone 2" incidentdate="2016-01-11" incidenttime="19:37:00" incidentnumber="16006597" address="2800 block Webster Ave" type="OFFENSE" age="" gender="" description="*********************************************** &lt;br/&gt;2705, Recklessly Endangering Another Person.&lt;br/&gt;2706, Terroristic Threats.&lt;br/&gt;2701(a)(3), Simple Assault - Attempts by Physical Menace&lt;br/&gt;6105(a)(1), Persons not to possess, use, manufacture, control, sell or transfer firearms: Former convict enumerated in subsection (b)&lt;br/&gt;"/><marker lat="40.450920630788971" lng="-79.964888378791841" zone="Zone 2" incidentdate="2016-01-11" incidenttime="10:00:00" incidentnumber="16006316" address="600 block Herron Ave" type="OFFENSE" age="" gender="" description="*********************************************** &lt;br/&gt;3502, Burglary.&lt;br/&gt;"/><marker lat="40.4538163" lng="-80.0102449" zone="Zone 1" incidentdate="2016-01-11" incidenttime="05:15:00" incidentnumber="16006236" address="700 block Arch St" type="OFFENSE" age="" gender="" description="*********************************************** &lt;br/&gt;9488, False  Burglar Alarm&lt;br/&gt;"/><marker lat="40.440670620036947" lng="-80.000370076304534" zone="Zone 2" incidentdate="2016-01-11" incidenttime="17:00:00" incidentnumber="16006544" address="300 block 5th Ave" type="OFFENSE" age="" gender="" description="*********************************************** &lt;br/&gt;5503(a)(4), DISORDERLY CONDUCT - HAZARDOUS/PHYS. OFF&lt;br/&gt;2709.A3, HARASSMENT - COURSE OF CONDUCT W/NO LEGIT. PURPOSE&lt;br/&gt;"/><marker lat="40.456074371118916" lng="-80.056352185035564" zone="Zone 6" incidentdate="2016-01-11" incidenttime="12:34:00" incidentnumber="16006371" address="3100 block Ashlyn St" type="OFFENSE" age="" gender="" description="*********************************************** &lt;br/&gt;9488, False  Burglar Alarm&lt;br/&gt;"/><marker lat="40.450113129898341" lng="-80.062093315146058" zone="Zone 6" incidentdate="2016-01-11" incidenttime="22:29:00" incidentnumber="16006671" address="1400 block Hillsboro St" type="OFFENSE" age="" gender="" description="*********************************************** &lt;br/&gt;2701, Simple Assault.&lt;br/&gt;"/><marker lat="40.414497644021225" lng="-79.92431019547486" zone="Zone 4" incidentdate="2016-01-11" incidenttime="21:40:00" incidentnumber="16006651" address="100 block Imogene Rd" type="OFFENSE" age="" gender="" description="*********************************************** &lt;br/&gt;9999, 9999 - (Misc. Incident):&lt;br/&gt;"/><marker lat="40.453470511792048" lng="-80.001533243378148" zone="Zone 1" incidentdate="2016-01-11" incidenttime="20:02:00" incidentnumber="16006611" address="400 block East Ohio St" type="OFFENSE" age="" gender="" description="*********************************************** &lt;br/&gt;9488, False  Burglar Alarm&lt;br/&gt;"/><marker lat="40.465838470934138" lng="-80.013002898313445" zone="Zone 1" incidentdate="2016-01-11" incidenttime="16:54:00" incidentnumber="16006499" address="Cutler St &amp; Wilson Ave" type="OFFENSE" age="" gender="" description="*********************************************** &lt;br/&gt;3736, Reckless Driving&lt;br/&gt;3743, Accidents Involving Damage to Attended Veh. or Property&lt;br/&gt;"/><marker lat="40.419140860216693" lng="-80.025747090374608" zone="Zone 6" incidentdate="2016-01-11" incidenttime="10:38:00" incidentnumber="16006338" address="1000 block Tropical Ave" type="OFFENSE" age="" gender="" description="*********************************************** &lt;br/&gt;3304, Criminal Mischief.&lt;br/&gt;3934, Theft from Vehicle&lt;br/&gt;"/><marker lat="40.489613629341036" lng="-80.018113956283486" zone="Zone 1" incidentdate="2016-01-11" incidenttime="17:17:00" incidentnumber="16006518" address="3900 block Perrysville Ave" type="OFFENSE" age="" gender="" description="*********************************************** &lt;br/&gt;3745, Accidents Involving Damage to Unattended Veh.or Prop.&lt;br/&gt;"/><marker lat="40.4460829" lng="-80.0104173" zone="Zone 1" incidentdate="2016-01-11" incidenttime="09:00:00" incidentnumber="16006348" address="300 block North Shore Dr" type="OFFENSE" age="" gender="" description="*********************************************** &lt;br/&gt;9489, Found Property&lt;br/&gt;"/><marker lat="40.457996845611397" lng="-80.009370377151654" zone="Zone 1" incidentdate="2016-01-11" incidenttime="08:45:00" incidentnumber="16006313" address="1500 block arch St" type="OFFENSE" age="" gender="" description="*********************************************** &lt;br/&gt;3502, Burglary.&lt;br/&gt;"/><marker lat="40.410949712877226" lng="-80.013988112262453" zone="Zone 6" incidentdate="2016-01-11" incidenttime="15:30:00" incidentnumber="16006494" address="1400 block West Liberty Ave" type="OFFENSE" age="" gender="" description="*********************************************** &lt;br/&gt;3934, Theft from Vehicle&lt;br/&gt;"/><marker lat="40.45803936285224" lng="-79.904251416277006" zone="Zone 5" incidentdate="2016-01-11" incidenttime="03:31:00" incidentnumber="16006214" address="6900 block Frankstown Ave" type="OFFENSE" age="" gender="" description="*********************************************** &lt;br/&gt;6106, Firearms not to be Carried without a License.&lt;br/&gt;"/><marker lat="40.452952663955934" lng="-79.874021402815671" zone="Zone 5" incidentdate="2016-01-11" incidenttime="12:11:00" incidentnumber="16006372" address="2100 block Park Hill Dr" type="OFFENSE" age="" gender="" description="*********************************************** &lt;br/&gt;9497, Aided Case&lt;br/&gt;"/><marker lat="40.423331455789388" lng="-79.97535771838325" zone="Zone 3" incidentdate="2016-01-11" incidenttime="07:30:00" incidentnumber="16006261" address="2100 block Mission St" type="OFFENSE" age="" gender="" description="*********************************************** &lt;br/&gt;3921(a), Theft by Unlawful Taking or Disposition - Movable item&lt;br/&gt;"/><marker lat="40.448886166113461" lng="-79.962039583746105" zone="Zone 2" incidentdate="2016-01-11" incidenttime="12:30:00" incidentnumber="16006455" address="3100 block Centre Ave" type="OFFENSE" age="" gender="" description="*********************************************** &lt;br/&gt;2701, Simple Assault.&lt;br/&gt;"/><marker lat="40.450086838602907" lng="-79.90035141354079" zone="Zone 4" incidentdate="2016-01-11" incidenttime="09:35:00" incidentnumber="16006310" address="200 block S Homewood Ave" type="OFFENSE" age="" gender="" description="*********************************************** &lt;br/&gt;9999, 9999 - (Misc. Incident):&lt;br/&gt;"/><marker lat="40.476630079004408" lng="-79.958740634984068" zone="Zone 2" incidentdate="2016-01-11" incidenttime="04:53:00" incidentnumber="16006229" address="4800 block Hatfield St" type="OFFENSE" age="" gender="" description="*********************************************** &lt;br/&gt;2701, Simple Assault.&lt;br/&gt;2709.1, Stalking Conduct or Repeatedly Acts Including Follows&lt;br/&gt;"/><marker lat="40.464455487334092" lng="-79.953808978599767" zone="Zone 5" incidentdate="2016-01-11" incidenttime="08:39:00" incidentnumber="16006287" address="4300 block Main St" type="OFFENSE" age="" gender="" description="*********************************************** &lt;br/&gt;9496, Dead on Arrival (DOA)&lt;br/&gt;"/><marker lat="40.426969028595799" lng="-80.005240133206257" zone="Zone 3" incidentdate="2016-01-11" incidenttime="16:00:00" incidentnumber="16006527" address="Ruth St" type="OFFENSE" age="" gender="" description="*********************************************** &lt;br/&gt;3304, Criminal Mischief.&lt;br/&gt;"/><marker lat="40.477650117914308" lng="-79.932723042823852" zone="Zone 2" incidentdate="2016-01-11" incidenttime="09:00:00" incidentnumber="16006332" address="5100 block Stanton Ave" type="OFFENSE" age="" gender="" description="*********************************************** &lt;br/&gt;3304, Criminal Mischief.&lt;br/&gt;"/><marker lat="40.4471653" lng="-80.0523328" zone="Zone 6" incidentdate="2016-01-11" incidenttime="11:00:00" incidentnumber="16006362" address="1500 block Crucible St" type="OFFENSE" age="" gender="" description="*********************************************** &lt;br/&gt;3921(a), Theft by Unlawful Taking or Disposition - Movable item&lt;br/&gt;"/><marker lat="40.4538163" lng="-80.0102449" zone="Zone 1" incidentdate="2016-01-11" incidenttime="11:30:00" incidentnumber="16006376" address="700 block Arch St" type="OFFENSE" age="" gender="" description="*********************************************** &lt;br/&gt;3921(a), Theft by Unlawful Taking or Disposition - Movable item&lt;br/&gt;"/><marker lat="40.453539170738004" lng="-80.000575279128412" zone="Zone 1" incidentdate="2016-01-11" incidenttime="15:30:00" incidentnumber="16006442" address="500 block East Ohio St" type="OFFENSE" age="" gender="" description="*********************************************** &lt;br/&gt;9497, Aided Case&lt;br/&gt;"/><marker lat="40.453675651234356" lng="-80.04883059197202" zone="Zone 6" incidentdate="2016-01-11" incidenttime="23:00:00" incidentnumber="15241675" address="2700 block Merwyn Ave" type="ARREST" age="52" gender="M" description="*********************************************** &lt;br/&gt;3502, Burglary.&lt;br/&gt;3921(a), Theft by Unlawful Taking or Disposition - Movable item&lt;br/&gt;2902, Unlawful Restraint.&lt;br/&gt;9093, Indirect Criminal Contempt&lt;br/&gt;2706, Terroristic Threats.&lt;br/&gt;2701(a)(3), Simple Assault - Attempts by Physical Menace&lt;br/&gt;3503(a), Criminal Trespass&lt;br/&gt;"/><marker lat="40.417594970280931" lng="-79.978561382443203" zone="Zone 3" incidentdate="2016-01-11" incidenttime="20:20:00" incidentnumber="16000485" address="2000 block Spring St" type="ARREST" age="26" gender="M" description="*********************************************** &lt;br/&gt;3928, Unauthorized Use of Automobile and Other Vehicles.&lt;br/&gt;"/><marker lat="40.44409702483955" lng="-80.029427993025735" zone="Zone 3" incidentdate="2016-01-11" incidenttime="12:00:00" incidentnumber="15178372" address="West End Cir &amp; West End Brg" type="ARREST" age="28" gender="M" description="*********************************************** &lt;br/&gt;13(a)(16), Possession of Controlled Substance&lt;br/&gt;13(a)(31), Marijuana: Possession Small Amount&lt;br/&gt;13(a)(32), Paraphernalia - Use or Possession&lt;br/&gt;9015, Failure To Appear/Arrest on Attachment Order&lt;br/&gt;1501, Drivers Required to be Licensed.&lt;br/&gt;3334, Turning Movements and Required Signals.&lt;br/&gt;"/><marker lat="40.435095503606554" lng="-79.993077686753679" zone="Zone 2" incidentdate="2016-01-11" incidenttime="06:25:00" incidentnumber="14026998" address="900 block 2nd Ave" type="ARREST" age="57" gender="M" description="*********************************************** &lt;br/&gt;13(a)(16), Possession of Controlled Substance&lt;br/&gt;13(a)(30), Possession w/ Intent to Del. Controlled Substance&lt;br/&gt;13(a)(31), Marijuana: Possession Small Amount&lt;br/&gt;13(a)(32), Paraphernalia - Use or Possession&lt;br/&gt;4910, Tampering with or Fabricating Physical Evidence.&lt;br/&gt;903, Criminal Conspiracy.&lt;br/&gt;7512, Criminal Use of Communication&lt;br/&gt;"/><marker lat="40.442452018573462" lng="-79.957449520185975" zone="Zone 4" incidentdate="2016-01-11" incidenttime="22:30:00" incidentnumber="15200887" address="100 block S Bouquet St" type="ARREST" age="24" gender="M" description="*********************************************** &lt;br/&gt;2709(a)(1), Harassment by Physical Contact, or Attempts or Threats&lt;br/&gt;2706, Terroristic Threats.&lt;br/&gt;"/><marker lat="40.450892721440539" lng="-80.000843891836467" zone="Zone 1" incidentdate="2016-01-11" incidenttime="22:30:00" incidentnumber="16006664" address="300 block Cedar Ave" type="ARREST" age="24" gender="M" description="*********************************************** &lt;br/&gt;13(a)(31), Marijuana: Possession Small Amount&lt;br/&gt;3334, Turning Movements and Required Signals.&lt;br/&gt;"/><marker lat="40.476630079004408" lng="-79.958740634984068" zone="Zone 2" incidentdate="2016-01-11" incidenttime="05:09:00" incidentnumber="16006229" address="4800 block Hatfield St" type="ARREST" age="46" gender="M" description="*********************************************** &lt;br/&gt;2701, Simple Assault.&lt;br/&gt;2709.1, Stalking Conduct or Repeatedly Acts Including Follows&lt;br/&gt;"/><marker lat="40.462766370932492" lng="-79.957250054964803" zone="Zone 2" incidentdate="2016-01-11" incidenttime="19:25:00" incidentnumber="15233544" address="4000 block Liberty Ave" type="ARREST" age="44" gender="M" description="*********************************************** &lt;br/&gt;903, Criminal Conspiracy.&lt;br/&gt;4106, Access Device Fraud&lt;br/&gt;4120, Identity Theft&lt;br/&gt;"/><marker lat="40.407435133532175" lng="-79.992595304592015" zone="Zone 3" incidentdate="2016-01-11" incidenttime="10:00:00" incidentnumber="15210392" address="200 block Wilbur St" type="ARREST" age="43" gender="M" description="*********************************************** &lt;br/&gt;2701(a)(1), Simple Assault - Intent., Know., Reckless.Cause Bod. Injury&lt;br/&gt;"/><marker lat="40.416306253079355" lng="-80.035698786896845" zone="Zone 6" incidentdate="2016-01-11" incidenttime="00:20:00" incidentnumber="15246214" address="600 block Oaklynn Ct" type="ARREST" age="30" gender="M" description="*********************************************** &lt;br/&gt;2701, Simple Assault.&lt;br/&gt;"/><marker lat="40.468598033821102" lng="-80.000394630575286" zone="Zone 1" incidentdate="2016-01-11" incidenttime="15:45:00" incidentnumber="16006439" address="Luella St" type="ARREST" age="32" gender="M" description="*********************************************** &lt;br/&gt;9093, Indirect Criminal Contempt&lt;br/&gt;"/><marker lat="40.455691175710506" lng="-80.002452655417784" zone="Zone 1" incidentdate="2016-01-11" incidenttime="01:26:00" incidentnumber="16006165" address="Cedar Ave &amp; Tripoli St" type="ARREST" age="53" gender="M" description="*********************************************** &lt;br/&gt;13(a)(32), Paraphernalia - Use or Possession&lt;br/&gt;9501, Bench Warrant&lt;br/&gt;1543, Driving While Operating Privilege is Suspended or Revoked.&lt;br/&gt;4302, Periods for Requiring Lighted Lamps.&lt;br/&gt;"/><marker lat="40.4654821" lng="-79.8999560" zone="Zone 5" incidentdate="2016-01-11" incidenttime="10:19:00" incidentnumber="13215522" address="1200 block Arbor St" type="ARREST" age="48" gender="F" description="*********************************************** &lt;br/&gt;2702, Aggravated Assault.&lt;br/&gt;"/><marker lat="40.470459914974732" lng="-79.908540011902716" zone="Zone 5" incidentdate="2016-01-11" incidenttime="10:20:00" incidentnumber="16005902" address="1400 block Washington Blvd" type="ARREST" age="21" gender="M" description="*********************************************** &lt;br/&gt;2702, Aggravated Assault.&lt;br/&gt;2606(a), Aggravated Assault on Unborn Child&lt;br/&gt;"/><marker lat="40.450892721440539" lng="-80.000843891836467" zone="Zone 1" incidentdate="2016-01-11" incidenttime="22:30:00" incidentnumber="16006664" address="300 block Cedar Ave" type="ARREST" age="20" gender="M" description="*********************************************** &lt;br/&gt;13(a)(31), Marijuana: Possession Small Amount&lt;br/&gt;3334, Turning Movements and Required Signals.&lt;br/&gt;"/><marker lat="40.427541855392327" lng="-79.977596384534849" zone="Zone 3" incidentdate="2016-01-11" incidenttime="20:40:00" incidentnumber="16002069" address="2000 block Sarah St" type="ARREST" age="51" gender="M" description="*********************************************** &lt;br/&gt;1786, Required Financial Responsibility.&lt;br/&gt;1543, Driving While Operating Privilege is Suspended or Revoked.&lt;br/&gt;3743, Accidents Involving Damage to Attended Veh. or Property&lt;br/&gt;"/><marker lat="40.396052433870693" lng="-79.987505497219203" zone="Zone 3" incidentdate="2016-01-11" incidenttime="11:50:00" incidentnumber="15229658" address="1900 block Brownsville Rd" type="ARREST" age="20" gender="M" description="*********************************************** &lt;br/&gt;3304, Criminal Mischief.&lt;br/&gt;2705, Recklessly Endangering Another Person.&lt;br/&gt;2702, Aggravated Assault.&lt;br/&gt;901, Criminal Attempt&lt;br/&gt;6106, Firearms not to be Carried without a License.&lt;br/&gt;6105(a)(1), Persons not to possess, use, manufacture, control, sell or transfer firearms: Former convict enumerated in subsection (b)&lt;br/&gt;"/><marker lat="40.441228428031053" lng="-80.002073791411135" zone="Zone 2" incidentdate="2016-01-11" incidenttime="18:18:00" incidentnumber="16006563" address="200 block 5th Ave" type="ARREST" age="29" gender="M" description="*********************************************** &lt;br/&gt;9501, Bench Warrant&lt;br/&gt;3929, Retail Theft.&lt;br/&gt;"/><marker lat="40.45803936285224" lng="-79.904251416277006" zone="Zone 5" incidentdate="2016-01-11" incidenttime="03:35:00" incidentnumber="16006214" address="6900 block Frankstown Ave" type="ARREST" age="36" gender="M" description="*********************************************** &lt;br/&gt;6106, Firearms not to be Carried without a License.&lt;br/&gt;"/><marker lat="40.412033396632296" lng="-79.99024730086812" zone="Zone 3" incidentdate="2016-01-11" incidenttime="12:30:00" incidentnumber="15218960" address="Ibis Way &amp; Marland Way" type="ARREST" age="31" gender="M" description="*********************************************** &lt;br/&gt;2705, Recklessly Endangering Another Person.&lt;br/&gt;2702, Aggravated Assault.&lt;br/&gt;901, Criminal Attempt&lt;br/&gt;907, Possessing Instruments of Crime.&lt;br/&gt;"/><marker lat="40.435095503606554" lng="-79.993077686753679" zone="Zone 2" incidentdate="2016-01-11" incidenttime="21:34:00" incidentnumber="16003932" address="900 block Second Ave" type="ARREST" age="49" gender="M" description="*********************************************** &lt;br/&gt;9501, Bench Warrant&lt;br/&gt;3929, Retail Theft.&lt;br/&gt;"/><marker lat="40.466431123096172" lng="-79.93100498284592" zone="Zone 5" incidentdate="2016-01-11" incidenttime="03:10:00" incidentnumber="15201877" address="300 block N Fairmont St" type="ARREST" age="35" gender="F" description="*********************************************** &lt;br/&gt;2701(a)(1), Simple Assault - Intent., Know., Reckless.Cause Bod. Injury&lt;br/&gt;"/><marker lat="40.450113129898341" lng="-80.062093315146058" zone="Zone 6" incidentdate="2016-01-11" incidenttime="22:54:00" incidentnumber="16006671" address="1400 block Hillsboro St" type="ARREST" age="17" gender="F" description="*********************************************** &lt;br/&gt;2701, Simple Assault.&lt;br/&gt;"/></markers>
