<?xml version="1.0"?>
<markers><marker lat="40.446346164512178" lng="-79.994318011299683" zone="Zone 2" incidentdate="2016-02-22" incidenttime="23:13:00" incidentnumber="16032920" address="11th St" type="OFFENSE" age="" gender="" description="*********************************************** &lt;br/&gt;9501, Bench Warrant&lt;br/&gt;"/><marker lat="40.425527882983026" lng="-80.003951000240363" zone="Zone 3" incidentdate="2016-02-22" incidenttime="10:03:00" incidentnumber="16032520" address="Kathleen St &amp; Harwood St" type="OFFENSE" age="" gender="" description="*********************************************** &lt;br/&gt;3745, Accidents Involving Damage to Unattended Veh.or Prop.&lt;br/&gt;"/><marker lat="40.460623402161843" lng="-79.932766652756285" zone="Zone 5" incidentdate="2016-02-22" incidenttime="01:47:00" incidentnumber="16032264" address="300 block S Negley (Ward Home) Ave" type="OFFENSE" age="" gender="" description="*********************************************** &lt;br/&gt;029, Missing Juvenile&lt;br/&gt;"/><marker lat="40.454204011355536" lng="-80.021261849835767" zone="Zone 1" incidentdate="2016-02-22" incidenttime="23:03:00" incidentnumber="16032916" address="1100 block Sheffield St" type="OFFENSE" age="" gender="" description="*********************************************** &lt;br/&gt;3304, Criminal Mischief.&lt;br/&gt;"/><marker lat="40.454074811291946" lng="-80.021051277011892" zone="Zone 1" incidentdate="2016-02-22" incidenttime="05:34:00" incidentnumber="16032346" address="1000 block Sheffield St" type="OFFENSE" age="" gender="" description="*********************************************** &lt;br/&gt;13(a)(16), Possession of Controlled Substance&lt;br/&gt;13(a)(30), Possession w/ Intent to Del. Controlled Substance&lt;br/&gt;13(a)(32), Paraphernalia - Use or Possession&lt;br/&gt;4910, Tampering with or Fabricating Physical Evidence.&lt;br/&gt;6106, Firearms not to be Carried without a License.&lt;br/&gt;2701(a)(3), Simple Assault - Attempts by Physical Menace&lt;br/&gt;"/><marker lat="40.460143465743265" lng="-79.994970064034916" zone="Zone 1" incidentdate="2016-02-22" incidenttime="09:34:00" incidentnumber="16032431" address="1000 block Goehring St" type="OFFENSE" age="" gender="" description="*********************************************** &lt;br/&gt;029, Missing Juvenile&lt;br/&gt;"/><marker lat="40.424999704574567" lng="-79.968151226123496" zone="Zone 3" incidentdate="2016-02-22" incidenttime="02:00:00" incidentnumber="16032275" address="S 27th St" type="OFFENSE" age="" gender="" description="*********************************************** &lt;br/&gt;2702, Aggravated Assault.&lt;br/&gt;2701, Simple Assault.&lt;br/&gt;"/><marker lat="40.464855456074744" lng="-79.945719052452006" zone="Zone 5" incidentdate="2016-02-22" incidenttime="06:30:00" incidentnumber="16032870" address="200 block S Millvale Ave" type="OFFENSE" age="" gender="" description="*********************************************** &lt;br/&gt;3745, Accidents Involving Damage to Unattended Veh.or Prop.&lt;br/&gt;"/><marker lat="40.4111631" lng="-79.8649453" zone="Zone OSC" incidentdate="2016-02-22" incidenttime="08:59:00" incidentnumber="16032412" address="400 block Stokes Ave" type="OFFENSE" age="" gender="" description="*********************************************** &lt;br/&gt;9129, Miscellaneous Investigation&lt;br/&gt;"/><marker lat="40.445590651116305" lng="-79.949387243364313" zone="Zone 4" incidentdate="2016-02-22" incidenttime="12:00:00" incidentnumber="16032697" address="300 block N Craig St" type="OFFENSE" age="" gender="" description="*********************************************** &lt;br/&gt;3304(a)(4), CRIMINAL MISCHIEF- Intentionally Damage Property (By Graffiti, Aerosol Spray Paint, Broad Tip Marker, or Similar)&lt;br/&gt;"/><marker lat="40.432818630098083" lng="-79.930378011289463" zone="Zone 4" incidentdate="2016-02-22" incidenttime="11:30:00" incidentnumber="16032496" address="5500 block Kamin St" type="OFFENSE" age="" gender="" description="*********************************************** &lt;br/&gt;9999, 9999 - (Misc. Incident):&lt;br/&gt;"/><marker lat="40.458313629612618" lng="-79.891012641854417" zone="Zone 5" incidentdate="2016-02-22" incidenttime="16:27:00" incidentnumber="16032706" address="7400 block Monticello St" type="OFFENSE" age="" gender="" description="*********************************************** &lt;br/&gt;2702, Aggravated Assault.&lt;br/&gt;"/><marker lat="40.452042212663898" lng="-80.008738896002342" zone="Zone 1" incidentdate="2016-02-22" incidenttime="00:23:00" incidentnumber="16032220" address="200 block Ridge Ave" type="OFFENSE" age="" gender="" description="*********************************************** &lt;br/&gt;9490, Missing Persons (18 and Over)&lt;br/&gt;"/><marker lat="40.41980566691268" lng="-79.929179248138482" zone="Zone 4" incidentdate="2016-02-22" incidenttime="15:36:00" incidentnumber="16032705" address="800 block Hazelwood Ave" type="OFFENSE" age="" gender="" description="*********************************************** &lt;br/&gt;3929, Retail Theft.&lt;br/&gt;"/><marker lat="40.471008419756409" lng="-79.918933734644355" zone="Zone 5" incidentdate="2016-02-22" incidenttime="15:10:00" incidentnumber="16032662" address="900 block Farragut St" type="OFFENSE" age="" gender="" description="*********************************************** &lt;br/&gt;2709, Harassment (Non-Specific)&lt;br/&gt;3503(b.1), Criminal Trespass - Simple Trespasser&lt;br/&gt;"/><marker lat="40.451044101480456" lng="-80.074772651633864" zone="Zone 6" incidentdate="2016-02-22" incidenttime="16:15:00" incidentnumber="16032740" address="3300 block Windgap Ave" type="OFFENSE" age="" gender="" description="*********************************************** &lt;br/&gt;3701, Robbery.&lt;br/&gt;2701(a)(1), Simple Assault - Intent., Know., Reckless.Cause Bod. Injury&lt;br/&gt;"/><marker lat="40.443851074040047" lng="-79.920512310787061" zone="Zone 4" incidentdate="2016-02-22" incidenttime="11:22:00" incidentnumber="16032482" address="Wilkins Ave &amp; Shady Ave" type="OFFENSE" age="" gender="" description="*********************************************** &lt;br/&gt;3304(a)(4), CRIMINAL MISCHIEF- Intentionally Damage Property (By Graffiti, Aerosol Spray Paint, Broad Tip Marker, or Similar)&lt;br/&gt;"/><marker lat="40.440092571650716" lng="-80.003005012857287" zone="Zone 2" incidentdate="2016-02-22" incidenttime="15:30:00" incidentnumber="16032675" address="PPG Pl" type="OFFENSE" age="" gender="" description="*********************************************** &lt;br/&gt;2709(a)(3), Harassment No Legitimate Purpose&lt;br/&gt;"/><marker lat="40.439522433677205" lng="-79.927728501078789" zone="Zone 4" incidentdate="2016-02-22" incidenttime="16:45:00" incidentnumber="16032727" address="Aylesboro Ave &amp; Wightman St" type="OFFENSE" age="" gender="" description="*********************************************** &lt;br/&gt;2709(a), Harassment.&lt;br/&gt;"/><marker lat="40.4385648058716" lng="-79.990836351975489" zone="Zone 2" incidentdate="2016-02-22" incidenttime="00:01:00" incidentnumber="16032214" address="1000 block 5th Ave" type="OFFENSE" age="" gender="" description="*********************************************** &lt;br/&gt;2701, Simple Assault.&lt;br/&gt;"/><marker lat="40.457038774698603" lng="-80.021172931553906" zone="Zone 1" incidentdate="2016-02-22" incidenttime="12:21:00" incidentnumber="16032523" address="1500 block Allegheny Ave" type="OFFENSE" age="" gender="" description="*********************************************** &lt;br/&gt;9016, Check on Elderly Person&lt;br/&gt;"/><marker lat="40.441137684867279" lng="-79.957585934716349" zone="Zone 4" incidentdate="2016-02-22" incidenttime="19:06:00" incidentnumber="16032808" address="200 block Atwood St" type="OFFENSE" age="" gender="" description="*********************************************** &lt;br/&gt;5104, Resisting Arrest or Other Law Enforcement.&lt;br/&gt;5503, Disorderly Conduct.&lt;br/&gt;3503, Criminal Trespass&lt;br/&gt;2702, Aggravated Assault.&lt;br/&gt;5505, Public Drunkenness&lt;br/&gt;4914, False Identification to Law Enforcement Authorities&lt;br/&gt;2706, Terroristic Threats.&lt;br/&gt;"/><marker lat="40.459190603440391" lng="-79.927408851895919" zone="Zone 4" incidentdate="2016-02-22" incidenttime="11:07:00" incidentnumber="16032490" address="5900 block Centre Ave" type="OFFENSE" age="" gender="" description="*********************************************** &lt;br/&gt;3929, Retail Theft.&lt;br/&gt;"/><marker lat="40.453290771819006" lng="-79.94734685262128" zone="Zone 4" incidentdate="2016-02-22" incidenttime="23:00:00" incidentnumber="16032939" address="S Millvale Ave &amp; Centre Ave" type="OFFENSE" age="" gender="" description="*********************************************** &lt;br/&gt;3743, Accidents Involving Damage to Attended Veh. or Property&lt;br/&gt;"/><marker lat="40.456633448414188" lng="-79.936435139782176" zone="Zone 4" incidentdate="2016-02-22" incidenttime="11:19:00" incidentnumber="16032498" address="5500 block Centre Ave" type="OFFENSE" age="" gender="" description="*********************************************** &lt;br/&gt;3929, Retail Theft.&lt;br/&gt;"/><marker lat="40.440739491560123" lng="-80.000390995906869" zone="Zone 2" incidentdate="2016-02-22" incidenttime="19:54:00" incidentnumber="16032842" address="5th Ave &amp; Wood St" type="OFFENSE" age="" gender="" description="*********************************************** &lt;br/&gt;2701, Simple Assault.&lt;br/&gt;"/><marker lat="40.484269000571473" lng="-79.907846334287953" zone="Zone 5" incidentdate="2016-02-22" incidenttime="15:20:00" incidentnumber="16032670" address="Washington Blvd &amp; Allegheny River Blvd" type="OFFENSE" age="" gender="" description="*********************************************** &lt;br/&gt;3743, Accidents Involving Damage to Attended Veh. or Property&lt;br/&gt;"/><marker lat="40.45860843052202" lng="-79.908002655430892" zone="Zone 5" incidentdate="2016-02-22" incidenttime="19:35:00" incidentnumber="16032841" address="6700 block Frankstown Ave" type="OFFENSE" age="" gender="" description="*********************************************** &lt;br/&gt;3304, Criminal Mischief.&lt;br/&gt;3921, Theft by Unlawful Taking or Disposition.&lt;br/&gt;2701, Simple Assault.&lt;br/&gt;"/><marker lat="40.470459914974732" lng="-79.908540011902716" zone="Zone 5" incidentdate="2016-02-22" incidenttime="01:17:00" incidentnumber="16032243" address="1400 block Washington Blvd" type="OFFENSE" age="" gender="" description="*********************************************** &lt;br/&gt;9498, 302 (Mental)&lt;br/&gt;"/><marker lat="40.451209746298005" lng="-80.021965140261187" zone="Zone 1" incidentdate="2016-02-22" incidenttime="09:00:00" incidentnumber="16032426" address="1200 block Western Ave" type="OFFENSE" age="" gender="" description="*********************************************** &lt;br/&gt;9130, Graffiti Investigation&lt;br/&gt;"/><marker lat="40.4115059" lng="-79.9558911" zone="Zone 3" incidentdate="2016-02-22" incidenttime="18:06:00" incidentnumber="16032767" address="4600 block E Carson St" type="OFFENSE" age="" gender="" description="*********************************************** &lt;br/&gt;3743, Accidents Involving Damage to Attended Veh. or Property&lt;br/&gt;"/><marker lat="40.381953085250643" lng="-79.988099317612551" zone="Zone 3" incidentdate="2016-02-22" incidenttime="19:30:00" incidentnumber="16032832" address="500 block Horning St" type="OFFENSE" age="" gender="" description="*********************************************** &lt;br/&gt;607.03, Discharging Firearm or Airgun&lt;br/&gt;"/><marker lat="40.466877756870879" lng="-79.994177935104844" zone="Zone 1" incidentdate="2016-02-22" incidenttime="01:50:00" incidentnumber="16019695" address="100 block Rhine Pl" type="OFFENSE" age="" gender="" description="*********************************************** &lt;br/&gt;2702, Aggravated Assault.&lt;br/&gt;2701, Simple Assault.&lt;br/&gt;"/><marker lat="40.465157804159951" lng="-79.922171643415098" zone="Zone 5" incidentdate="2016-02-22" incidenttime="12:40:00" incidentnumber="16032531" address="400 block N Highland Dr" type="OFFENSE" age="" gender="" description="*********************************************** &lt;br/&gt;3929, Retail Theft.&lt;br/&gt;"/><marker lat="40.421457821964829" lng="-80.067285366773518" zone="Zone 6" incidentdate="2016-02-22" incidenttime="04:13:00" incidentnumber="16032320" address="200 block Morange Rd" type="OFFENSE" age="" gender="" description="*********************************************** &lt;br/&gt;9488, False  Burglar Alarm&lt;br/&gt;"/><marker lat="40.442888113190847" lng="-79.997936520552642" zone="Zone 2" incidentdate="2016-02-22" incidenttime="08:16:00" incidentnumber="16032395" address="900 block Liberty Ave" type="OFFENSE" age="" gender="" description="*********************************************** &lt;br/&gt;2709, Harassment (Non-Specific)&lt;br/&gt;"/><marker lat="40.468392049674968" lng="-80.025256332998723" zone="Zone 1" incidentdate="2016-02-22" incidenttime="23:25:00" incidentnumber="16032922" address="1100 block Highwood St" type="OFFENSE" age="" gender="" description="*********************************************** &lt;br/&gt;9999, 9999 - (Misc. Incident):&lt;br/&gt;"/><marker lat="40.447397258227134" lng="-79.977766513041161" zone="Zone 2" incidentdate="2016-02-22" incidenttime="09:15:00" incidentnumber="16032440" address="Webster Ave &amp; Kirkpatrick St" type="OFFENSE" age="" gender="" description="*********************************************** &lt;br/&gt;3304, Criminal Mischief.&lt;br/&gt;"/><marker lat="40.419755416785335" lng="-80.002263610370221" zone="Zone 3" incidentdate="2016-02-22" incidenttime="22:33:00" incidentnumber="16032906" address="300 block Climax St" type="OFFENSE" age="" gender="" description="*********************************************** &lt;br/&gt;9999, 9999 - (Misc. Incident):&lt;br/&gt;"/><marker lat="40.4455793" lng="-80.0599043" zone="Zone 6" incidentdate="2016-02-22" incidenttime="15:31:00" incidentnumber="16032672" address="Middletown Rd &amp; Hodgson Way" type="OFFENSE" age="" gender="" description="*********************************************** &lt;br/&gt;13(a)(16), Possession of Controlled Substance&lt;br/&gt;13(a)(32), Paraphernalia - Use or Possession&lt;br/&gt;9501, Bench Warrant&lt;br/&gt;1786, Required Financial Responsibility.&lt;br/&gt;"/><marker lat="40.396120546854483" lng="-79.986420691233604" zone="Zone 3" incidentdate="2016-02-22" incidenttime="09:00:00" incidentnumber="16032422" address="100 block Poplargrove St" type="OFFENSE" age="" gender="" description="*********************************************** &lt;br/&gt;3921(a), Theft by Unlawful Taking or Disposition - Movable item&lt;br/&gt;"/><marker lat="40.455863850234607" lng="-80.002165995755718" zone="Zone 1" incidentdate="2016-02-22" incidenttime="19:42:00" incidentnumber="16032831" address="1000 block Cedar Ave" type="OFFENSE" age="" gender="" description="*********************************************** &lt;br/&gt;13(a)(16), Possession of Controlled Substance&lt;br/&gt;13(a)(32), Paraphernalia - Use or Possession&lt;br/&gt;4910, Tampering with or Fabricating Physical Evidence.&lt;br/&gt;5104, Resisting Arrest or Other Law Enforcement.&lt;br/&gt;3334, Turning Movements and Required Signals.&lt;br/&gt;"/><marker lat="40.461263755824248" lng="-79.946362797859464" zone="Zone 5" incidentdate="2016-02-22" incidenttime="15:19:00" incidentnumber="16032666" address="4800 block Friendship Ave" type="OFFENSE" age="" gender="" description="*********************************************** &lt;br/&gt;2702, Aggravated Assault.&lt;br/&gt;"/><marker lat="40.431717714475276" lng="-79.952563199933664" zone="Zone 4" incidentdate="2016-02-22" incidenttime="15:00:00" incidentnumber="16032664" address="3300 block Parkview Ave" type="OFFENSE" age="" gender="" description="*********************************************** &lt;br/&gt;2709(a)(3), Harassment No Legitimate Purpose&lt;br/&gt;"/><marker lat="40.430028091967571" lng="-79.920633569588375" zone="Zone 4" incidentdate="2016-02-22" incidenttime="15:00:00" incidentnumber="16032678" address="2400 block Shady Ave" type="OFFENSE" age="" gender="" description="*********************************************** &lt;br/&gt;3921, Theft by Unlawful Taking or Disposition.&lt;br/&gt;"/><marker lat="40.453539170738004" lng="-80.000575279128412" zone="Zone 1" incidentdate="2016-02-22" incidenttime="17:47:00" incidentnumber="16032763" address="500 block East Ohio St" type="OFFENSE" age="" gender="" description="*********************************************** &lt;br/&gt;4304(a)(1), Endangering Welfare of Children - Course of Conduct Enhanced&lt;br/&gt;3802(a)(1), DUI - General Impairment&lt;br/&gt;3802(c), DUI - Highest Rate of Alcohol - BAC &gt;= .16%&lt;br/&gt;"/><marker lat="40.480412767851995" lng="-80.040857362064529" zone="Zone 1" incidentdate="2016-02-22" incidenttime="09:22:00" incidentnumber="16032424" address="3600 block California Ave" type="OFFENSE" age="" gender="" description="*********************************************** &lt;br/&gt;3924, Theft of Property Lost, Mislaid or Delivered by Mistake.&lt;br/&gt;"/><marker lat="40.449646657025653" lng="-79.892798110797884" zone="Zone 4" incidentdate="2016-02-22" incidenttime="09:01:00" incidentnumber="16032415" address="300 block N Braddock Ave" type="OFFENSE" age="" gender="" description="*********************************************** &lt;br/&gt;9497, Aided Case&lt;br/&gt;"/><marker lat="40.412113440292771" lng="-80.034389036365511" zone="Zone 6" incidentdate="2016-02-22" incidenttime="16:35:00" incidentnumber="16032674" address="200 block Roseberry Ln" type="OFFENSE" age="" gender="" description="*********************************************** &lt;br/&gt;9496, Dead on Arrival (DOA)&lt;br/&gt;"/><marker lat="40.439471219172596" lng="-79.994020372370457" zone="Zone 2" incidentdate="2016-02-22" incidenttime="00:05:00" incidentnumber="16032295" address="500 block Ross St" type="OFFENSE" age="" gender="" description="*********************************************** &lt;br/&gt;3921(a), Theft by Unlawful Taking or Disposition - Movable item&lt;br/&gt;"/><marker lat="40.444922392030769" lng="-80.03921034107951" zone="Zone 6" incidentdate="2016-02-22" incidenttime="01:40:00" incidentnumber="16032260" address="Gibson St &amp; Lorenz Ave" type="OFFENSE" age="" gender="" description="*********************************************** &lt;br/&gt;13(a)(16), Possession of Controlled Substance&lt;br/&gt;4914, False Identification to Law Enforcement Authorities&lt;br/&gt;"/><marker lat="40.456515048695316" lng="-80.016515559088219" zone="Zone 1" incidentdate="2016-02-22" incidenttime="12:45:00" incidentnumber="16032535" address="1500 block Brighton Rd" type="OFFENSE" age="" gender="" description="*********************************************** &lt;br/&gt;9093, Indirect Criminal Contempt&lt;br/&gt;"/><marker lat="40.4540118" lng="-80.0292026" zone="Zone 1" incidentdate="2016-02-22" incidenttime="11:30:00" incidentnumber="16032510" address="1400 block Beaver Ave" type="OFFENSE" age="" gender="" description="*********************************************** &lt;br/&gt;9999, 9999 - (Misc. Incident):&lt;br/&gt;"/><marker lat="40.442584949905417" lng="-80.001789508770926" zone="Zone 2" incidentdate="2016-02-22" incidenttime="10:30:00" incidentnumber="16032479" address="600 block Penn Ave" type="OFFENSE" age="" gender="" description="*********************************************** &lt;br/&gt;3502, Burglary.&lt;br/&gt;"/><marker lat="40.381775663195995" lng="-79.97908793358603" zone="Zone 3" incidentdate="2016-02-22" incidenttime="18:40:00" incidentnumber="16032794" address="100 block Owendale Ave" type="OFFENSE" age="" gender="" description="*********************************************** &lt;br/&gt;9999, 9999 - (Misc. Incident):&lt;br/&gt;"/><marker lat="40.411352131057285" lng="-79.993006739748296" zone="Zone 3" incidentdate="2016-02-22" incidenttime="05:00:00" incidentnumber="16032348" address="300 block Moore Ave" type="OFFENSE" age="" gender="" description="*********************************************** &lt;br/&gt;3745, Accidents Involving Damage to Unattended Veh.or Prop.&lt;br/&gt;"/><marker lat="40.405934655153253" lng="-79.943182659504586" zone="Zone 4" incidentdate="2016-02-22" incidenttime="20:52:00" incidentnumber="16032873" address="5200 block 2nd Ave" type="OFFENSE" age="" gender="" description="*********************************************** &lt;br/&gt;2702, Aggravated Assault.&lt;br/&gt;3503.B1I, DEF. TRESPASS ACTUAL COMMUNICATION&lt;br/&gt;"/><marker lat="40.465941694116658" lng="-79.905683723846863" zone="Zone 5" incidentdate="2016-02-22" incidenttime="05:45:00" incidentnumber="16032342" address="6500 block Odessa Pl" type="OFFENSE" age="" gender="" description="*********************************************** &lt;br/&gt;029, Missing Juvenile&lt;br/&gt;"/><marker lat="40.437890442673748" lng="-79.999025579558094" zone="Zone 2" incidentdate="2016-02-22" incidenttime="17:00:00" incidentnumber="16032708" address="3rd Ave &amp; Cherry Way" type="OFFENSE" age="" gender="" description="*********************************************** &lt;br/&gt;13(a)(32), Paraphernalia - Use or Possession&lt;br/&gt;5505, Public Drunkenness&lt;br/&gt;601.08(a), Alcohol or Liquor Consumption on Streets or Sidewalks&lt;br/&gt;"/><marker lat="40.439603576293273" lng="-79.897693057022877" zone="Zone 4" incidentdate="2016-02-22" incidenttime="00:30:00" incidentnumber="16032225" address="600 block S Braddock Ave" type="OFFENSE" age="" gender="" description="*********************************************** &lt;br/&gt;5104, Resisting Arrest or Other Law Enforcement.&lt;br/&gt;5503, Disorderly Conduct.&lt;br/&gt;2702, Aggravated Assault.&lt;br/&gt;3701, Robbery.&lt;br/&gt;5505, Public Drunkenness&lt;br/&gt;3503.B1I, DEF. TRESPASS ACTUAL COMMUNICATION&lt;br/&gt;"/><marker lat="40.450469327653117" lng="-80.016421323674152" zone="Zone 1" incidentdate="2016-02-22" incidenttime="12:00:00" incidentnumber="16032589" address="900 block Ridge Ave" type="OFFENSE" age="" gender="" description="*********************************************** &lt;br/&gt;3924, Theft of Property Lost, Mislaid or Delivered by Mistake.&lt;br/&gt;"/><marker lat="40.441456453135075" lng="-79.997731160448353" zone="Zone 2" incidentdate="2016-02-22" incidenttime="10:20:00" incidentnumber="16032460" address="Smithfield St &amp; 6th Ave" type="OFFENSE" age="" gender="" description="*********************************************** &lt;br/&gt;3934, Theft from Vehicle&lt;br/&gt;"/><marker lat="40.453406582272002" lng="-79.885404721364026" zone="Zone 5" incidentdate="2016-02-22" incidenttime="01:30:00" incidentnumber="16032254" address="7900 block Batavia St" type="OFFENSE" age="" gender="" description="*********************************************** &lt;br/&gt;8106, Shots Fired&lt;br/&gt;"/><marker lat="40.415706804658406" lng="-79.970452890638995" zone="Zone 3" incidentdate="2016-02-22" incidenttime="10:00:00" incidentnumber="15052509" address="2600 block Spring St" type="OFFENSE" age="" gender="" description="*********************************************** &lt;br/&gt;3304, Criminal Mischief.&lt;br/&gt;9093, Indirect Criminal Contempt&lt;br/&gt;901, Criminal Attempt&lt;br/&gt;"/><marker lat="40.440697119948119" lng="-80.003946068250272" zone="Zone 2" incidentdate="2016-02-22" incidenttime="17:55:00" incidentnumber="16032768" address="100 block Forbes Ave" type="OFFENSE" age="" gender="" description="*********************************************** &lt;br/&gt;13(a)(16), Possession of Controlled Substance&lt;br/&gt;13(a)(32), Paraphernalia - Use or Possession&lt;br/&gt;"/><marker lat="40.456885755361007" lng="-80.054867253123305" zone="Zone 6" incidentdate="2016-02-22" incidenttime="19:32:00" incidentnumber="16032825" address="3100 block Bergman St" type="OFFENSE" age="" gender="" description="*********************************************** &lt;br/&gt;9093, Indirect Criminal Contempt&lt;br/&gt;"/><marker lat="40.428478873788158" lng="-79.980265799395895" zone="Zone 3" incidentdate="2016-02-22" incidenttime="21:35:00" incidentnumber="16032884" address="1800 block E Carson St" type="OFFENSE" age="" gender="" description="*********************************************** &lt;br/&gt;9501, Bench Warrant&lt;br/&gt;3926(a)(1), Theft of Services; Cable, Gas, Taxi, Bill, Tab, etc.&lt;br/&gt;"/><marker lat="40.443580942147605" lng="-79.979979097296493" zone="Zone 2" incidentdate="2016-02-22" incidenttime="14:30:00" incidentnumber="16032648" address="2000 block Centre Ave" type="OFFENSE" age="" gender="" description="*********************************************** &lt;br/&gt;9124, Drug Investigation&lt;br/&gt;"/><marker lat="40.4641375" lng="-80.0033646" zone="Zone 1" incidentdate="2016-02-22" incidenttime="16:50:00" incidentnumber="16032718" address="200 block Pynchon St" type="OFFENSE" age="" gender="" description="*********************************************** &lt;br/&gt;13(a)(16), Possession of Controlled Substance&lt;br/&gt;13(a)(32), Paraphernalia - Use or Possession&lt;br/&gt;3334, Turning Movements and Required Signals.&lt;br/&gt;"/><marker lat="40.4477992" lng="-80.0197333" zone="Zone 1" incidentdate="2016-02-22" incidenttime="01:10:00" incidentnumber="16032244" address="1000 block Reedsdale St" type="OFFENSE" age="" gender="" description="*********************************************** &lt;br/&gt;9497, Aided Case&lt;br/&gt;"/><marker lat="40.467009653319337" lng="-79.889949597646535" zone="Zone 5" incidentdate="2016-02-22" incidenttime="15:43:00" incidentnumber="16032676" address="7300 block Lemington Ave" type="OFFENSE" age="" gender="" description="*********************************************** &lt;br/&gt;9999, 9999 - (Misc. Incident):&lt;br/&gt;"/><marker lat="40.405731477126295" lng="-79.987808400500967" zone="Zone 3" incidentdate="2016-02-22" incidenttime="10:15:00" incidentnumber="16032457" address="Calhoun Ave &amp; Ben Way" type="OFFENSE" age="" gender="" description="*********************************************** &lt;br/&gt;9999, 9999 - (Misc. Incident):&lt;br/&gt;"/><marker lat="40.460302578526942" lng="-80.006980071080037" zone="Zone 1" incidentdate="2016-02-22" incidenttime="11:41:00" incidentnumber="16032928" address="1700 block Belleau Dr" type="OFFENSE" age="" gender="" description="*********************************************** &lt;br/&gt;2702, Aggravated Assault.&lt;br/&gt;"/><marker lat="40.401507114595418" lng="-80.014458709987323" zone="Zone 6" incidentdate="2016-02-22" incidenttime="15:52:00" incidentnumber="16032836" address="600 block Mayville Ave" type="OFFENSE" age="" gender="" description="*********************************************** &lt;br/&gt;9999, 9999 - (Misc. Incident):&lt;br/&gt;"/><marker lat="40.465157804159951" lng="-79.922171643415098" zone="Zone 5" incidentdate="2016-02-22" incidenttime="10:35:00" incidentnumber="16032798" address="400 block N Highland Ave" type="OFFENSE" age="" gender="" description="*********************************************** &lt;br/&gt;3743, Accidents Involving Damage to Attended Veh. or Property&lt;br/&gt;"/><marker lat="40.428985020183561" lng="-79.924237004106203" zone="Zone 4" incidentdate="2016-02-22" incidenttime="18:00:00" incidentnumber="16032834" address="2700 block Murray Ave" type="OFFENSE" age="" gender="" description="*********************************************** &lt;br/&gt;3502, Burglary.&lt;br/&gt;"/><marker lat="40.4593011" lng="-80.0153029" zone="Zone 1" incidentdate="2016-02-22" incidenttime="06:27:00" incidentnumber="16032369" address="Rednap St &amp; Buena Vista St" type="OFFENSE" age="" gender="" description="*********************************************** &lt;br/&gt;3304, Criminal Mischief.&lt;br/&gt;"/><marker lat="40.393167838197392" lng="-79.986585064520185" zone="Zone 3" incidentdate="2016-02-22" incidenttime="21:46:00" incidentnumber="16032893" address="2100 block Brownsville Rd" type="OFFENSE" age="" gender="" description="*********************************************** &lt;br/&gt;3502, Burglary.&lt;br/&gt;2701, Simple Assault.&lt;br/&gt;903, Criminal Conspiracy.&lt;br/&gt;"/><marker lat="40.428814179717264" lng="-80.024291780088404" zone="Zone 3" incidentdate="2016-02-22" incidenttime="08:30:00" incidentnumber="16032410" address="800 block Saw Mill Run Blvd" type="OFFENSE" age="" gender="" description="*********************************************** &lt;br/&gt;2709, Harassment (Non-Specific)&lt;br/&gt;"/><marker lat="40.479996371853524" lng="-79.957888923034403" zone="Zone 2" incidentdate="2016-02-22" incidenttime="16:09:00" incidentnumber="16032689" address="100 block 51st St" type="OFFENSE" age="" gender="" description="*********************************************** &lt;br/&gt;9999, 9999 - (Misc. Incident):&lt;br/&gt;"/><marker lat="40.469257392481524" lng="-79.978846464391097" zone="Zone 1" incidentdate="2016-02-22" incidenttime="10:41:00" incidentnumber="16032469" address="2100 block Lowrie St" type="OFFENSE" age="" gender="" description="*********************************************** &lt;br/&gt;9999, 9999 - (Misc. Incident):&lt;br/&gt;"/><marker lat="40.432040302290311" lng="-79.954566962677859" zone="Zone 4" incidentdate="2016-02-22" incidenttime="18:00:00" incidentnumber="16032908" address="200 block Holmes Pl" type="OFFENSE" age="" gender="" description="*********************************************** &lt;br/&gt;3921(a), Theft by Unlawful Taking or Disposition - Movable item&lt;br/&gt;"/><marker lat="40.415706804658406" lng="-79.970452890638995" zone="Zone 3" incidentdate="2016-02-22" incidenttime="10:00:00" incidentnumber="15052509" address="2600 block Spring St" type="ARREST" age="32" gender="M" description="*********************************************** &lt;br/&gt;3304, Criminal Mischief.&lt;br/&gt;9093, Indirect Criminal Contempt&lt;br/&gt;901, Criminal Attempt&lt;br/&gt;"/><marker lat="40.393167838197392" lng="-79.986585064520185" zone="Zone 3" incidentdate="2016-02-22" incidenttime="22:00:00" incidentnumber="16032893" address="2100 block Brownsville Rd" type="ARREST" age="53" gender="F" description="*********************************************** &lt;br/&gt;3502, Burglary.&lt;br/&gt;2701, Simple Assault.&lt;br/&gt;903, Criminal Conspiracy.&lt;br/&gt;"/><marker lat="40.4455793" lng="-80.0599043" zone="Zone 6" incidentdate="2016-02-22" incidenttime="15:35:00" incidentnumber="16032672" address="Middletown Rd &amp; Hodgson Way" type="ARREST" age="25" gender="M" description="*********************************************** &lt;br/&gt;13(a)(16), Possession of Controlled Substance&lt;br/&gt;13(a)(32), Paraphernalia - Use or Possession&lt;br/&gt;9501, Bench Warrant&lt;br/&gt;1786, Required Financial Responsibility.&lt;br/&gt;"/><marker lat="40.461960442137752" lng="-79.930433862678029" zone="Zone 5" incidentdate="2016-02-22" incidenttime="18:30:00" incidentnumber="16024212" address="Amber St &amp; Eva St" type="ARREST" age="15" gender="M" description="*********************************************** &lt;br/&gt;2705, Recklessly Endangering Another Person.&lt;br/&gt;3701, Robbery.&lt;br/&gt;1501, Drivers Required to be Licensed.&lt;br/&gt;3925, Receiving Stolen Property.&lt;br/&gt;3733, Fleeing or Attempting to Elude Police Officer&lt;br/&gt;3323, Stop Signs and Yield Signs.&lt;br/&gt;4952, Intimidation of Witnesses or Victims&lt;br/&gt;"/><marker lat="40.4641375" lng="-80.0033646" zone="Zone 1" incidentdate="2016-02-22" incidenttime="16:50:00" incidentnumber="16032718" address="200 block Pynchon St" type="ARREST" age="23" gender="F" description="*********************************************** &lt;br/&gt;13(a)(16), Possession of Controlled Substance&lt;br/&gt;13(a)(32), Paraphernalia - Use or Possession&lt;br/&gt;3334, Turning Movements and Required Signals.&lt;br/&gt;"/><marker lat="40.453539170738004" lng="-80.000575279128412" zone="Zone 1" incidentdate="2016-02-22" incidenttime="18:15:00" incidentnumber="16032763" address="500 block East Ohio St" type="ARREST" age="50" gender="F" description="*********************************************** &lt;br/&gt;4304(a)(1), Endangering Welfare of Children - Course of Conduct Enhanced&lt;br/&gt;3802(a)(1), DUI - General Impairment&lt;br/&gt;3802(c), DUI - Highest Rate of Alcohol - BAC &gt;= .16%&lt;br/&gt;"/><marker lat="40.446346164512178" lng="-79.994318011299683" zone="Zone 2" incidentdate="2016-02-22" incidenttime="23:41:00" incidentnumber="16032920" address="11th St" type="ARREST" age="43" gender="M" description="*********************************************** &lt;br/&gt;9501, Bench Warrant&lt;br/&gt;"/><marker lat="40.454074811291946" lng="-80.021051277011892" zone="Zone 1" incidentdate="2016-02-22" incidenttime="05:50:00" incidentnumber="16032346" address="1000 block Sheffield St" type="ARREST" age="36" gender="F" description="*********************************************** &lt;br/&gt;13(a)(16), Possession of Controlled Substance&lt;br/&gt;13(a)(30), Possession w/ Intent to Del. Controlled Substance&lt;br/&gt;13(a)(32), Paraphernalia - Use or Possession&lt;br/&gt;4910, Tampering with or Fabricating Physical Evidence.&lt;br/&gt;6106, Firearms not to be Carried without a License.&lt;br/&gt;2701(a)(3), Simple Assault - Attempts by Physical Menace&lt;br/&gt;"/><marker lat="40.455150711408479" lng="-79.886436699873201" zone="Zone 5" incidentdate="2016-02-22" incidenttime="15:00:00" incidentnumber="15239717" address="Hale St &amp; Frankstown Ave" type="ARREST" age="33" gender="M" description="*********************************************** &lt;br/&gt;13(a)(31), Marijuana: Possession Small Amount&lt;br/&gt;9501, Bench Warrant&lt;br/&gt;1543, Driving While Operating Privilege is Suspended or Revoked.&lt;br/&gt;3802(a)(1), DUI - General Impairment&lt;br/&gt;3323, Stop Signs and Yield Signs.&lt;br/&gt;"/><marker lat="40.4455793" lng="-80.0599043" zone="Zone 6" incidentdate="2016-02-22" incidenttime="15:35:00" incidentnumber="16032672" address="Middletown Rd &amp; Hodgson Way" type="ARREST" age="35" gender="F" description="*********************************************** &lt;br/&gt;13(a)(16), Possession of Controlled Substance&lt;br/&gt;13(a)(32), Paraphernalia - Use or Possession&lt;br/&gt;9501, Bench Warrant&lt;br/&gt;1786, Required Financial Responsibility.&lt;br/&gt;"/><marker lat="40.405934655153253" lng="-79.943182659504586" zone="Zone 4" incidentdate="2016-02-22" incidenttime="21:01:00" incidentnumber="16032873" address="5200 block 2nd Ave" type="ARREST" age="48" gender="M" description="*********************************************** &lt;br/&gt;2702, Aggravated Assault.&lt;br/&gt;3503.B1I, DEF. TRESPASS ACTUAL COMMUNICATION&lt;br/&gt;"/><marker lat="40.405116256168142" lng="-80.019220284458086" zone="Zone 6" incidentdate="2016-02-22" incidenttime="14:05:00" incidentnumber="15149877" address="1900 block WEST LIBERTY Ave" type="ARREST" age="46" gender="F" description="*********************************************** &lt;br/&gt;3921(a), Theft by Unlawful Taking or Disposition - Movable item&lt;br/&gt;"/><marker lat="40.444922392030769" lng="-80.03921034107951" zone="Zone 6" incidentdate="2016-02-22" incidenttime="01:40:00" incidentnumber="16032260" address="Gibson St &amp; Lorenz Ave" type="ARREST" age="28" gender="F" description="*********************************************** &lt;br/&gt;13(a)(16), Possession of Controlled Substance&lt;br/&gt;4914, False Identification to Law Enforcement Authorities&lt;br/&gt;"/><marker lat="40.458984469829907" lng="-79.914262427093618" zone="Zone 5" incidentdate="2016-02-22" incidenttime="09:00:00" incidentnumber="15166683" address="6500 block Hamilton Ave" type="ARREST" age="" gender="F" description="*********************************************** &lt;br/&gt;2701(a)(1), Simple Assault - Intent., Know., Reckless.Cause Bod. Injury&lt;br/&gt;"/><marker lat="40.428478873788158" lng="-79.980265799395895" zone="Zone 3" incidentdate="2016-02-22" incidenttime="21:35:00" incidentnumber="16032884" address="1800 block E Carson St" type="ARREST" age="32" gender="M" description="*********************************************** &lt;br/&gt;9501, Bench Warrant&lt;br/&gt;3926(a)(1), Theft of Services; Cable, Gas, Taxi, Bill, Tab, etc.&lt;br/&gt;"/><marker lat="40.423975475795658" lng="-80.009167822211523" zone="Zone 3" incidentdate="2016-02-22" incidenttime="08:30:00" incidentnumber="16027015" address="200 block Smith Way" type="ARREST" age="29" gender="M" description="*********************************************** &lt;br/&gt;3304, Criminal Mischief.&lt;br/&gt;2701, Simple Assault.&lt;br/&gt;3701, Robbery.&lt;br/&gt;"/><marker lat="40.465157804159951" lng="-79.922171643415098" zone="Zone 5" incidentdate="2016-02-22" incidenttime="13:10:00" incidentnumber="16032531" address="400 block N Highland Dr" type="ARREST" age="46" gender="F" description="*********************************************** &lt;br/&gt;3929, Retail Theft.&lt;br/&gt;"/><marker lat="40.439603576293273" lng="-79.897693057022877" zone="Zone 4" incidentdate="2016-02-22" incidenttime="00:53:00" incidentnumber="16032225" address="600 block S Braddock Ave" type="ARREST" age="34" gender="M" description="*********************************************** &lt;br/&gt;5104, Resisting Arrest or Other Law Enforcement.&lt;br/&gt;5503, Disorderly Conduct.&lt;br/&gt;2702, Aggravated Assault.&lt;br/&gt;3701, Robbery.&lt;br/&gt;5505, Public Drunkenness&lt;br/&gt;3503.B1I, DEF. TRESPASS ACTUAL COMMUNICATION&lt;br/&gt;"/><marker lat="40.437890442673748" lng="-79.999025579558094" zone="Zone 2" incidentdate="2016-02-22" incidenttime="16:32:00" incidentnumber="16032708" address="3rd Ave &amp; Cherry Way" type="ARREST" age="40" gender="M" description="*********************************************** &lt;br/&gt;13(a)(32), Paraphernalia - Use or Possession&lt;br/&gt;5505, Public Drunkenness&lt;br/&gt;601.08(a), Alcohol or Liquor Consumption on Streets or Sidewalks&lt;br/&gt;"/><marker lat="40.5613902" lng="-80.2065183" zone="Zone 1" incidentdate="2016-02-22" incidenttime="15:50:00" incidentnumber="15178520" address="Ohio River Blvd &amp; West End Brg Ramp" type="ARREST" age="34" gender="F" description="*********************************************** &lt;br/&gt;3802(a)(1), DUI - General Impairment&lt;br/&gt;3743, Accidents Involving Damage to Attended Veh. or Property&lt;br/&gt;"/><marker lat="40.441137684867279" lng="-79.957585934716349" zone="Zone 4" incidentdate="2016-02-22" incidenttime="19:22:00" incidentnumber="16032808" address="200 block Atwood St" type="ARREST" age="30" gender="M" description="*********************************************** &lt;br/&gt;5104, Resisting Arrest or Other Law Enforcement.&lt;br/&gt;5503, Disorderly Conduct.&lt;br/&gt;3503, Criminal Trespass&lt;br/&gt;2702, Aggravated Assault.&lt;br/&gt;5505, Public Drunkenness&lt;br/&gt;4914, False Identification to Law Enforcement Authorities&lt;br/&gt;2706, Terroristic Threats.&lt;br/&gt;"/><marker lat="40.393167838197392" lng="-79.986585064520185" zone="Zone 3" incidentdate="2016-02-22" incidenttime="22:00:00" incidentnumber="15154763" address="2100 block Brownsville Rd" type="ARREST" age="53" gender="M" description="*********************************************** &lt;br/&gt;2709(a)(1), Harassment by Physical Contact, or Attempts or Threats&lt;br/&gt;2706, Terroristic Threats.&lt;br/&gt;"/><marker lat="40.456515048695316" lng="-80.016515559088219" zone="Zone 1" incidentdate="2016-02-22" incidenttime="12:45:00" incidentnumber="16032535" address="1500 block Brighton Rd" type="ARREST" age="27" gender="M" description="*********************************************** &lt;br/&gt;9093, Indirect Criminal Contempt&lt;br/&gt;"/><marker lat="40.440697119948119" lng="-80.003946068250272" zone="Zone 2" incidentdate="2016-02-22" incidenttime="18:00:00" incidentnumber="16032768" address="100 block Forbes Ave" type="ARREST" age="25" gender="F" description="*********************************************** &lt;br/&gt;13(a)(16), Possession of Controlled Substance&lt;br/&gt;13(a)(32), Paraphernalia - Use or Possession&lt;br/&gt;"/><marker lat="40.393167838197392" lng="-79.986585064520185" zone="Zone 3" incidentdate="2016-02-22" incidenttime="22:00:00" incidentnumber="16032893" address="2100 block Brownsville Rd" type="ARREST" age="53" gender="M" description="*********************************************** &lt;br/&gt;3502, Burglary.&lt;br/&gt;2701, Simple Assault.&lt;br/&gt;903, Criminal Conspiracy.&lt;br/&gt;"/><marker lat="40.466877756870879" lng="-79.994177935104844" zone="Zone 1" incidentdate="2016-02-22" incidenttime="01:55:00" incidentnumber="16019695" address="100 block Rhine Pl" type="ARREST" age="48" gender="M" description="*********************************************** &lt;br/&gt;2702, Aggravated Assault.&lt;br/&gt;2701, Simple Assault.&lt;br/&gt;"/><marker lat="40.419119165871031" lng="-79.988020009516745" zone="Zone 3" incidentdate="2016-02-22" incidenttime="11:50:00" incidentnumber="15206712" address="E Amanda Ave" type="ARREST" age="20" gender="M" description="*********************************************** &lt;br/&gt;13(a)(16), Possession of Controlled Substance&lt;br/&gt;"/><marker lat="40.455863850234607" lng="-80.002165995755718" zone="Zone 1" incidentdate="2016-02-22" incidenttime="19:42:00" incidentnumber="16032831" address="1000 block Cedar Ave" type="ARREST" age="23" gender="F" description="*********************************************** &lt;br/&gt;13(a)(16), Possession of Controlled Substance&lt;br/&gt;13(a)(32), Paraphernalia - Use or Possession&lt;br/&gt;4910, Tampering with or Fabricating Physical Evidence.&lt;br/&gt;5104, Resisting Arrest or Other Law Enforcement.&lt;br/&gt;3334, Turning Movements and Required Signals.&lt;br/&gt;"/><marker lat="40.455863850234607" lng="-80.002165995755718" zone="Zone 1" incidentdate="2016-02-22" incidenttime="19:42:00" incidentnumber="16032831" address="1000 block Cedar Ave" type="ARREST" age="50" gender="F" description="*********************************************** &lt;br/&gt;13(a)(16), Possession of Controlled Substance&lt;br/&gt;13(a)(32), Paraphernalia - Use or Possession&lt;br/&gt;4910, Tampering with or Fabricating Physical Evidence.&lt;br/&gt;5104, Resisting Arrest or Other Law Enforcement.&lt;br/&gt;3334, Turning Movements and Required Signals.&lt;br/&gt;"/><marker lat="40.456885755361007" lng="-80.054867253123305" zone="Zone 6" incidentdate="2016-02-22" incidenttime="19:55:00" incidentnumber="16032825" address="3100 block Bergman St" type="ARREST" age="26" gender="M" description="*********************************************** &lt;br/&gt;9093, Indirect Criminal Contempt&lt;br/&gt;"/></markers>
