<?xml version="1.0"?>
<markers><marker lat="40.427443378121751" lng="-79.96840064229626" zone="Zone 3" incidentdate="2015-11-23" incidenttime="09:52:00" incidentnumber="15225006" address="S 26th St &amp; E Carson St" type="OFFENSE" age="" gender="" description="*********************************************** &lt;br/&gt;3743, Accidents Involving Damage to Attended Veh. or Property&lt;br/&gt;"/><marker lat="40.455276829291662" lng="-80.047672481194809" zone="Zone 6" incidentdate="2015-11-23" incidenttime="18:58:00" incidentnumber="15225332" address="2700 block Sacramento Ave" type="OFFENSE" age="" gender="" description="*********************************************** &lt;br/&gt;9490, Missing Persons (18 and Over)&lt;br/&gt;"/><marker lat="40.471005859059538" lng="-80.008598371720396" zone="Zone 1" incidentdate="2015-11-23" incidenttime="01:45:00" incidentnumber="15224846" address="Perrysville Ave &amp; N Charles St" type="OFFENSE" age="" gender="" description="*********************************************** &lt;br/&gt;13(a)(31), Marijuana: Possession Small Amount&lt;br/&gt;1501, Drivers Required to be Licensed.&lt;br/&gt;1543, Driving While Operating Privilege is Suspended or Revoked.&lt;br/&gt;"/><marker lat="40.438721756509537" lng="-79.999466085108594" zone="Zone 2" incidentdate="2015-11-23" incidenttime="11:30:00" incidentnumber="15225062" address="400 block Smithfield St" type="OFFENSE" age="" gender="" description="*********************************************** &lt;br/&gt;3929(a)(1), Retail Theft; takes possession of, carries away, or transfers displayed merchandise&lt;br/&gt;"/><marker lat="40.462471314719117" lng="-79.899507688408946" zone="Zone 5" incidentdate="2015-11-23" incidenttime="04:53:00" incidentnumber="15224901" address="7000 block Mt Vernon St" type="OFFENSE" age="" gender="" description="*********************************************** &lt;br/&gt;2701, Simple Assault.&lt;br/&gt;"/><marker lat="40.455470090179453" lng="-79.897028104534954" zone="Zone 5" incidentdate="2015-11-23" incidenttime="00:12:00" incidentnumber="15224811" address="7200 block Kelly St" type="OFFENSE" age="" gender="" description="*********************************************** &lt;br/&gt;13(a)(16), Possession of Controlled Substance&lt;br/&gt;13(a)(30), Possession w/ Intent to Del. Controlled Substance&lt;br/&gt;"/><marker lat="40.416455109029961" lng="-79.990742385941985" zone="Zone 3" incidentdate="2015-11-23" incidenttime="10:30:00" incidentnumber="15225198" address="200 block Charles St" type="OFFENSE" age="" gender="" description="*********************************************** &lt;br/&gt;3304, Criminal Mischief.&lt;br/&gt;"/><marker lat="40.468707151284001" lng="-79.962290675901343" zone="Zone 2" incidentdate="2015-11-23" incidenttime="12:00:00" incidentnumber="15225244" address="Butler St &amp; 40th St" type="OFFENSE" age="" gender="" description="*********************************************** &lt;br/&gt;3743, Accidents Involving Damage to Attended Veh. or Property&lt;br/&gt;"/><marker lat="40.4511080089232" lng="-79.912169400340119" zone="Zone 4" incidentdate="2015-11-23" incidenttime="17:13:00" incidentnumber="15225234" address="300 block N Linden Ave" type="OFFENSE" age="" gender="" description="*********************************************** &lt;br/&gt;9094, Recovered Stolen Vehicle (OUTSIDE CITY)&lt;br/&gt;"/><marker lat="40.426666138172813" lng="-79.966892407610601" zone="Zone 3" incidentdate="2015-11-23" incidenttime="20:45:00" incidentnumber="15225394" address="2700 block E Carson St" type="OFFENSE" age="" gender="" description="*********************************************** &lt;br/&gt;3921, Theft by Unlawful Taking or Disposition.&lt;br/&gt;3701, Robbery.&lt;br/&gt;"/><marker lat="40.44046002943292" lng="-79.96027451341746" zone="Zone 4" incidentdate="2015-11-23" incidenttime="22:16:00" incidentnumber="15225419" address="5th Ave &amp; Mc Kee Pl" type="OFFENSE" age="" gender="" description="*********************************************** &lt;br/&gt;3743, Accidents Involving Damage to Attended Veh. or Property&lt;br/&gt;"/><marker lat="40.42294434138671" lng="-80.000665565973307" zone="Zone 3" incidentdate="2015-11-23" incidenttime="12:20:00" incidentnumber="15225068" address="400 block Winton St" type="OFFENSE" age="" gender="" description="*********************************************** &lt;br/&gt;2709, Harassment (Non-Specific)&lt;br/&gt;"/><marker lat="40.465742686724063" lng="-79.981257181433378" zone="Zone 1" incidentdate="2015-11-23" incidenttime="00:01:00" incidentnumber="15225176" address="1900 block Lowrie St" type="OFFENSE" age="" gender="" description="*********************************************** &lt;br/&gt;4120, Identity Theft&lt;br/&gt;"/><marker lat="40.440756592117523" lng="-79.995882216271596" zone="Zone 2" incidentdate="2015-11-23" incidenttime="07:57:00" incidentnumber="15224956" address="6th Ave &amp; Grant St" type="OFFENSE" age="" gender="" description="*********************************************** &lt;br/&gt;3743, Accidents Involving Damage to Attended Veh. or Property&lt;br/&gt;"/><marker lat="40.441151120339974" lng="-79.996815603505837" zone="Zone 2" incidentdate="2015-11-23" incidenttime="01:38:00" incidentnumber="15224840" address="600 block William Penn Pl" type="OFFENSE" age="" gender="" description="*********************************************** &lt;br/&gt;9488, False  Burglar Alarm&lt;br/&gt;"/><marker lat="40.438721756509537" lng="-79.999466085108594" zone="Zone 2" incidentdate="2015-11-23" incidenttime="16:24:00" incidentnumber="15225224" address="400 block Smithfield St" type="OFFENSE" age="" gender="" description="*********************************************** &lt;br/&gt;3503, Criminal Trespass&lt;br/&gt;3929, Retail Theft.&lt;br/&gt;"/><marker lat="40.478846468228319" lng="-80.043103207786132" zone="Zone 1" incidentdate="2015-11-23" incidenttime="12:44:00" incidentnumber="15225098" address="Ohio River Blvd &amp; McKees Rocks Brg" type="OFFENSE" age="" gender="" description="*********************************************** &lt;br/&gt;5507, Obstructing Highways and Passages.&lt;br/&gt;"/><marker lat="40.452894108681285" lng="-79.92071255848731" zone="Zone 4" incidentdate="2015-11-23" incidenttime="17:49:00" incidentnumber="15225306" address="5th Ave &amp; Shady Ave" type="OFFENSE" age="" gender="" description="*********************************************** &lt;br/&gt;3745, Accidents Involving Damage to Unattended Veh.or Prop.&lt;br/&gt;3714, Careless Driving&lt;br/&gt;"/><marker lat="40.4550206" lng="-80.0558082" zone="Zone 6" incidentdate="2015-11-23" incidenttime="08:38:00" incidentnumber="15224971" address="700 block Sherwood Ave" type="OFFENSE" age="" gender="" description="*********************************************** &lt;br/&gt;9488, False  Burglar Alarm&lt;br/&gt;"/><marker lat="40.424215578915053" lng="-79.968373885968475" zone="Zone 3" incidentdate="2015-11-23" incidenttime="17:15:00" incidentnumber="15225350" address="2800 block Mary St" type="OFFENSE" age="" gender="" description="*********************************************** &lt;br/&gt;3745, Accidents Involving Damage to Unattended Veh.or Prop.&lt;br/&gt;"/><marker lat="40.458521090086435" lng="-80.015890258192599" zone="Zone 1" incidentdate="2015-11-23" incidenttime="18:20:00" incidentnumber="15225329" address="1700 block Brighton Rd" type="OFFENSE" age="" gender="" description="*********************************************** &lt;br/&gt;3921(a), Theft by Unlawful Taking or Disposition - Movable item&lt;br/&gt;"/><marker lat="40.467627622543603" lng="-80.009959746698527" zone="Zone 1" incidentdate="2015-11-23" incidenttime="13:30:00" incidentnumber="15225161" address="2400 block Perrysville Ave" type="OFFENSE" age="" gender="" description="*********************************************** &lt;br/&gt;4115, Falsely Impersonating Persons Privately Employed.&lt;br/&gt;"/><marker lat="40.455730501197131" lng="-80.022832777383954" zone="Zone 1" incidentdate="2015-11-23" incidenttime="07:49:00" incidentnumber="15224948" address="1200 block Liverpool St" type="OFFENSE" age="" gender="" description="*********************************************** &lt;br/&gt;9488, False  Burglar Alarm&lt;br/&gt;"/><marker lat="40.447132689806871" lng="-79.89516170186954" zone="Zone 4" incidentdate="2015-11-23" incidenttime="12:00:00" incidentnumber="15225105" address="Penn Ave &amp; N Braddock Ave" type="OFFENSE" age="" gender="" description="*********************************************** &lt;br/&gt;9489, Found Property&lt;br/&gt;"/><marker lat="40.452978759474085" lng="-79.909818228068545" zone="Zone 4" incidentdate="2015-11-23" incidenttime="14:00:00" incidentnumber="15225315" address="6800 block Meade St" type="OFFENSE" age="" gender="" description="*********************************************** &lt;br/&gt;3745, Accidents Involving Damage to Unattended Veh.or Prop.&lt;br/&gt;"/><marker lat="40.45398805442295" lng="-80.059533806664163" zone="Zone 6" incidentdate="2015-11-23" incidenttime="18:35:00" incidentnumber="15225345" address="Allendale St &amp; Chartiers Ave" type="OFFENSE" age="" gender="" description="*********************************************** &lt;br/&gt;2701(b)(1), Simple Assault - Fight or Scuffle Entered by Mutual Consent&lt;br/&gt;"/><marker lat="40.434886807019403" lng="-79.920138030322036" zone="Zone 4" incidentdate="2015-11-23" incidenttime="14:00:00" incidentnumber="15225175" address="5900 block Beacon St" type="OFFENSE" age="" gender="" description="*********************************************** &lt;br/&gt;4115, Falsely Impersonating Persons Privately Employed.&lt;br/&gt;"/><marker lat="40.455236857362699" lng="-79.88335604597026" zone="Zone 5" incidentdate="2015-11-23" incidenttime="18:00:00" incidentnumber="15225334" address="8100 block Frankstown Ave" type="OFFENSE" age="" gender="" description="*********************************************** &lt;br/&gt;3921(a), Theft by Unlawful Taking or Disposition - Movable item&lt;br/&gt;"/><marker lat="40.470889988219739" lng="-80.032229022281527" zone="Zone 1" incidentdate="2015-11-23" incidenttime="08:42:00" incidentnumber="15224974" address="1400 block Forsythe St" type="OFFENSE" age="" gender="" description="*********************************************** &lt;br/&gt;3502, Burglary.&lt;br/&gt;"/><marker lat="40.428308221658035" lng="-79.930106247245462" zone="Zone 4" incidentdate="2015-11-23" incidenttime="16:00:00" incidentnumber="15225225" address="3800 block Beechwood Blvd" type="OFFENSE" age="" gender="" description="*********************************************** &lt;br/&gt;2709(a)(5), Harassment Communicates Repeatedly in Anonymous Manner&lt;br/&gt;"/><marker lat="40.391322204500497" lng="-79.985422157567612" zone="Zone 3" incidentdate="2015-11-23" incidenttime="01:00:00" incidentnumber="15225002" address="2200 block Lutz Ave" type="OFFENSE" age="" gender="" description="*********************************************** &lt;br/&gt;3921, Theft by Unlawful Taking or Disposition.&lt;br/&gt;"/><marker lat="40.364818154921203" lng="-79.909094552150506" zone="Zone 4" incidentdate="2015-11-23" incidenttime="15:55:00" incidentnumber="15225208" address="5800 block Buttermilk Hollow Rd" type="OFFENSE" age="" gender="" description="*********************************************** &lt;br/&gt;3929, Retail Theft.&lt;br/&gt;"/><marker lat="40.403762675021397" lng="-80.029266278581318" zone="Zone 6" incidentdate="2015-11-23" incidenttime="14:00:00" incidentnumber="15225197" address="2200 block Los Angeles Ave" type="OFFENSE" age="" gender="" description="*********************************************** &lt;br/&gt;3921(a), Theft by Unlawful Taking or Disposition - Movable item&lt;br/&gt;"/><marker lat="40.455341408765094" lng="-79.997216164686009" zone="Zone 1" incidentdate="2015-11-23" incidenttime="15:50:00" incidentnumber="15225201" address="Madison Ave &amp; Peralta St" type="OFFENSE" age="" gender="" description="*********************************************** &lt;br/&gt;9489, Found Property&lt;br/&gt;"/><marker lat="40.446346164512178" lng="-79.994318011299683" zone="Zone 2" incidentdate="2015-11-23" incidenttime="03:15:00" incidentnumber="15224858" address="11th St" type="OFFENSE" age="" gender="" description="*********************************************** &lt;br/&gt;9999, 9999 - (Misc. Incident):&lt;br/&gt;"/><marker lat="40.475956582720592" lng="-79.920692583769608" zone="Zone 5" incidentdate="2015-11-23" incidenttime="07:00:00" incidentnumber="15224943" address="5800 block Bryant St" type="OFFENSE" age="" gender="" description="*********************************************** &lt;br/&gt;3502, Burglary.&lt;br/&gt;"/><marker lat="40.465271214712232" lng="-79.914507693005959" zone="Zone 5" incidentdate="2015-11-23" incidenttime="18:14:00" incidentnumber="15225323" address="Meadow St &amp; Larimer Ave" type="OFFENSE" age="" gender="" description="*********************************************** &lt;br/&gt;9999, 9999 - (Misc. Incident):&lt;br/&gt;"/><marker lat="40.450524087396616" lng="-79.972783406843163" zone="Zone 2" incidentdate="2015-11-23" incidenttime="16:08:00" incidentnumber="15225202" address="2500 block Bedford Ave" type="OFFENSE" age="" gender="" description="*********************************************** &lt;br/&gt;4304(a)(1), Endangering Welfare of Children - Course of Conduct Enhanced&lt;br/&gt;"/><marker lat="40.441948829716402" lng="-79.956438300298316" zone="Zone 4" incidentdate="2015-11-23" incidenttime="17:27:00" incidentnumber="15225283" address="Forbes Ave &amp; S Bouquet St" type="OFFENSE" age="" gender="" description="*********************************************** &lt;br/&gt;9504, Lost Property&lt;br/&gt;"/><marker lat="40.397519300735595" lng="-79.991168326458094" zone="Zone 3" incidentdate="2015-11-23" incidenttime="07:20:00" incidentnumber="15224942" address="1700 block Plateau St" type="OFFENSE" age="" gender="" description="*********************************************** &lt;br/&gt;3921, Theft by Unlawful Taking or Disposition.&lt;br/&gt;"/><marker lat="40.4539247715024" lng="-79.997839351546148" zone="Zone 1" incidentdate="2015-11-23" incidenttime="09:09:00" incidentnumber="15224991" address="East St &amp; East Ohio St" type="OFFENSE" age="" gender="" description="*********************************************** &lt;br/&gt;5507, Obstructing Highways and Passages.&lt;br/&gt;"/><marker lat="40.434696587775576" lng="-79.996300985228572" zone="Zone 2" incidentdate="2015-11-23" incidenttime="10:15:00" incidentnumber="15225033" address="600 block 1st Ave" type="OFFENSE" age="" gender="" description="*********************************************** &lt;br/&gt;3304(a)(4), CRIMINAL MISCHIEF- Intentionally Damage Property (By Graffiti, Aerosol Spray Paint, Broad Tip Marker, or Similar)&lt;br/&gt;"/><marker lat="40.425318965268033" lng="-79.943281551756485" zone="Zone 4" incidentdate="2015-11-23" incidenttime="20:15:00" incidentnumber="15225393" address="4000 block Haldane St" type="OFFENSE" age="" gender="" description="*********************************************** &lt;br/&gt;3502, Burglary.&lt;br/&gt;"/><marker lat="40.441151120339974" lng="-79.996815603505837" zone="Zone 2" incidentdate="2015-11-23" incidenttime="06:30:00" incidentnumber="15224940" address="600 block William Penn Pl" type="OFFENSE" age="" gender="" description="*********************************************** &lt;br/&gt;3502, Burglary.&lt;br/&gt;"/><marker lat="40.460337479290423" lng="-79.996714929651944" zone="Zone 1" incidentdate="2015-11-23" incidenttime="15:30:00" incidentnumber="15225243" address="900 block Haslage Ave" type="OFFENSE" age="" gender="" description="*********************************************** &lt;br/&gt;4912, Impersonating a Public Servant.&lt;br/&gt;"/><marker lat="40.411743423667133" lng="-80.015599892756285" zone="Zone 6" incidentdate="2015-11-23" incidenttime="09:00:00" incidentnumber="15225012" address="200 block Platt Ave" type="OFFENSE" age="" gender="" description="*********************************************** &lt;br/&gt;3502, Burglary.&lt;br/&gt;"/><marker lat="40.454074811291946" lng="-80.021051277011892" zone="Zone 1" incidentdate="2015-11-23" incidenttime="10:30:00" incidentnumber="15225009" address="1000 block Sheffield St" type="OFFENSE" age="" gender="" description="*********************************************** &lt;br/&gt;2709, Harassment (Non-Specific)&lt;br/&gt;"/><marker lat="40.444073363236868" lng="-79.984541309139829" zone="Zone 2" incidentdate="2015-11-23" incidenttime="23:33:00" incidentnumber="15225440" address="1800 block Enoch St" type="OFFENSE" age="" gender="" description="*********************************************** &lt;br/&gt;9488, False  Burglar Alarm&lt;br/&gt;"/><marker lat="40.457961320144769" lng="-80.015758219132792" zone="Zone 1" incidentdate="2015-11-23" incidenttime="09:30:00" incidentnumber="15225008" address="1600 block Brighton Rd" type="OFFENSE" age="" gender="" description="*********************************************** &lt;br/&gt;9490, Missing Persons (18 and Over)&lt;br/&gt;"/><marker lat="40.376720294203167" lng="-79.926716425759452" zone="Zone 4" incidentdate="2015-11-23" incidenttime="20:02:00" incidentnumber="15225370" address="Lebanon Rd" type="OFFENSE" age="" gender="" description="*********************************************** &lt;br/&gt;5503(a)(1), DISORDERLY CONDUCT - ENGAGE IN FIGHTING&lt;br/&gt;"/><marker lat="40.480067342031759" lng="-80.041078831731227" zone="Zone 1" incidentdate="2015-11-23" incidenttime="17:50:00" incidentnumber="15225307" address="Davis Ave &amp; California Ave" type="OFFENSE" age="" gender="" description="*********************************************** &lt;br/&gt;1786, Required Financial Responsibility.&lt;br/&gt;1543, Driving While Operating Privilege is Suspended or Revoked.&lt;br/&gt;3743, Accidents Involving Damage to Attended Veh. or Property&lt;br/&gt;1785, Proof of Financial Responsibility Following Accident.&lt;br/&gt;"/><marker lat="40.4688524" lng="-80.0382331" zone="Zone 1" incidentdate="2015-11-23" incidenttime="00:25:00" incidentnumber="15224814" address="2900 block Beaver Ave" type="OFFENSE" age="" gender="" description="*********************************************** &lt;br/&gt;9488, False  Burglar Alarm&lt;br/&gt;"/><marker lat="40.462207375257691" lng="-79.911069672048214" zone="Zone 5" incidentdate="2015-11-23" incidenttime="20:30:00" incidentnumber="15225369" address="Lowell St &amp; Meadow St" type="OFFENSE" age="" gender="" description="*********************************************** &lt;br/&gt;9999, 9999 - (Misc. Incident):&lt;br/&gt;"/><marker lat="40.471005859059538" lng="-80.008598371720396" zone="Zone 1" incidentdate="2015-11-23" incidenttime="01:45:00" incidentnumber="15042492" address="Perrysville Ave &amp; N Charles St" type="OFFENSE" age="" gender="" description="*********************************************** &lt;br/&gt;3502, Burglary.&lt;br/&gt;3921, Theft by Unlawful Taking or Disposition.&lt;br/&gt;3925, Receiving Stolen Property.&lt;br/&gt;"/><marker lat="40.473506279125687" lng="-79.918890008830587" zone="Zone 5" incidentdate="2015-11-23" incidenttime="06:38:00" incidentnumber="15224926" address="1100 block N Highland Ave" type="OFFENSE" age="" gender="" description="*********************************************** &lt;br/&gt;3502, Burglary.&lt;br/&gt;"/><marker lat="40.46865286552827" lng="-80.027265999166346" zone="Zone 1" incidentdate="2015-11-23" incidenttime="06:49:00" incidentnumber="15224929" address="1200 block Superior Ave" type="OFFENSE" age="" gender="" description="*********************************************** &lt;br/&gt;9488, False  Burglar Alarm&lt;br/&gt;"/><marker lat="40.4420439" lng="-79.9429084" zone="Zone 4" incidentdate="2015-11-23" incidenttime="13:55:00" incidentnumber="15225142" address="5100 block Margaret Morrison St" type="OFFENSE" age="" gender="" description="*********************************************** &lt;br/&gt;3743, Accidents Involving Damage to Attended Veh. or Property&lt;br/&gt;"/><marker lat="40.415074724062805" lng="-79.964839925028045" zone="Zone 3" incidentdate="2015-11-23" incidenttime="12:00:00" incidentnumber="15225100" address="300 block Bassler St" type="OFFENSE" age="" gender="" description="*********************************************** &lt;br/&gt;3921, Theft by Unlawful Taking or Disposition.&lt;br/&gt;"/><marker lat="40.459468634817931" lng="-79.938394685531392" zone="Zone 5" incidentdate="2015-11-23" incidenttime="19:47:00" incidentnumber="15225363" address="400 block S Aiken Ave" type="OFFENSE" age="" gender="" description="*********************************************** &lt;br/&gt;3304(a)(4), CRIMINAL MISCHIEF- Intentionally Damage Property (By Graffiti, Aerosol Spray Paint, Broad Tip Marker, or Similar)&lt;br/&gt;"/><marker lat="40.474099855916826" lng="-79.957790375841952" zone="Zone 2" incidentdate="2015-11-23" incidenttime="09:00:00" incidentnumber="15224985" address="4700 block Butler St" type="OFFENSE" age="" gender="" description="*********************************************** &lt;br/&gt;3921(a), Theft by Unlawful Taking or Disposition - Movable item&lt;br/&gt;"/><marker lat="40.423080835702336" lng="-80.025274751408517" zone="Zone 6" incidentdate="2015-11-23" incidenttime="17:58:00" incidentnumber="15225317" address="1100 block Shadycrest Dr" type="OFFENSE" age="" gender="" description="*********************************************** &lt;br/&gt;9093, Indirect Criminal Contempt&lt;br/&gt;"/><marker lat="40.444713091612456" lng="-79.915303237189718" zone="Zone 4" incidentdate="2015-11-23" incidenttime="12:03:00" incidentnumber="15225063" address="6600 block Kinsman Rd" type="OFFENSE" age="" gender="" description="*********************************************** &lt;br/&gt;4103, Fraud. Destruct., Remov. or Conceal.of Record. Instr.&lt;br/&gt;"/><marker lat="40.456633448414188" lng="-79.936435139782176" zone="Zone 4" incidentdate="2015-11-23" incidenttime="14:30:00" incidentnumber="15225296" address="5500 block Centre Ave" type="OFFENSE" age="" gender="" description="*********************************************** &lt;br/&gt;3921, Theft by Unlawful Taking or Disposition.&lt;br/&gt;4106, Access Device Fraud&lt;br/&gt;"/><marker lat="40.466616756829907" lng="-79.993676874083434" zone="Zone 1" incidentdate="2015-11-23" incidenttime="18:00:00" incidentnumber="15225295" address="2100 block Rhine St" type="OFFENSE" age="" gender="" description="*********************************************** &lt;br/&gt;9999, 9999 - (Misc. Incident):&lt;br/&gt;"/><marker lat="40.458132135047329" lng="-80.004368442051728" zone="Zone 1" incidentdate="2015-11-23" incidenttime="06:49:00" incidentnumber="15224930" address="1400 block Porterfield St" type="OFFENSE" age="" gender="" description="*********************************************** &lt;br/&gt;9488, False  Burglar Alarm&lt;br/&gt;"/><marker lat="40.469810397741213" lng="-79.926692736931003" zone="Zone 5" incidentdate="2015-11-23" incidenttime="14:00:00" incidentnumber="15225157" address="700 block N Negley Ave" type="OFFENSE" age="" gender="" description="*********************************************** &lt;br/&gt;3934, Theft from Vehicle&lt;br/&gt;"/><marker lat="40.438721756509537" lng="-79.999466085108594" zone="Zone 2" incidentdate="2015-11-23" incidenttime="16:39:00" incidentnumber="15225224" address="400 block Smithfield St" type="ARREST" age="28" gender="F" description="*********************************************** &lt;br/&gt;3503, Criminal Trespass&lt;br/&gt;3929, Retail Theft.&lt;br/&gt;"/><marker lat="40.435095503606554" lng="-79.993077686753679" zone="Zone 2" incidentdate="2015-11-23" incidenttime="09:18:00" incidentnumber="15138489" address="900 block 2nd Ave" type="ARREST" age="46" gender="M" description="*********************************************** &lt;br/&gt;2701, Simple Assault.&lt;br/&gt;3701, Robbery.&lt;br/&gt;"/><marker lat="40.459241184494772" lng="-80.005548013998464" zone="Zone 1" incidentdate="2015-11-23" incidenttime="13:40:00" incidentnumber="15207467" address="1600 block Sandusky Ct" type="ARREST" age="35" gender="F" description="*********************************************** &lt;br/&gt;2701, Simple Assault.&lt;br/&gt;3701, Robbery.&lt;br/&gt;903, Criminal Conspiracy.&lt;br/&gt;"/><marker lat="40.479483764053128" lng="-80.030900495509769" zone="Zone 1" incidentdate="2015-11-23" incidenttime="19:46:00" incidentnumber="15222519" address="3500 block Brighton Rd" type="ARREST" age="48" gender="M" description="*********************************************** &lt;br/&gt;4905, False Alarms to Agencies of Public Safety.&lt;br/&gt;"/><marker lat="40.426666138172813" lng="-79.966892407610601" zone="Zone 3" incidentdate="2015-11-23" incidenttime="21:10:00" incidentnumber="15225394" address="2700 block E Carson St" type="ARREST" age="24" gender="M" description="*********************************************** &lt;br/&gt;3921, Theft by Unlawful Taking or Disposition.&lt;br/&gt;3701, Robbery.&lt;br/&gt;"/><marker lat="40.434696587775576" lng="-79.996300985228572" zone="Zone 2" incidentdate="2015-11-23" incidenttime="10:30:00" incidentnumber="15186513" address="600 block 1st Ave" type="ARREST" age="43" gender="M" description="*********************************************** &lt;br/&gt;13(a)(16), Possession of Controlled Substance&lt;br/&gt;13(a)(30), Possession w/ Intent to Del. Controlled Substance&lt;br/&gt;13(a)(32), Paraphernalia - Use or Possession&lt;br/&gt;903, Criminal Conspiracy.&lt;br/&gt;"/><marker lat="40.450524087396616" lng="-79.972783406843163" zone="Zone 2" incidentdate="2015-11-23" incidenttime="16:08:00" incidentnumber="15225202" address="2500 block Bedford Ave" type="ARREST" age="25" gender="F" description="*********************************************** &lt;br/&gt;4304(a)(1), Endangering Welfare of Children - Course of Conduct Enhanced&lt;br/&gt;"/><marker lat="40.435095503606554" lng="-79.993077686753679" zone="Zone 2" incidentdate="2015-11-23" incidenttime="09:31:00" incidentnumber="15143034" address="900 block 2nd Ave" type="ARREST" age="23" gender="M" description="*********************************************** &lt;br/&gt;2701, Simple Assault.&lt;br/&gt;"/><marker lat="40.471005859059538" lng="-80.008598371720396" zone="Zone 1" incidentdate="2015-11-23" incidenttime="01:55:00" incidentnumber="15224846" address="Perrysville Ave &amp; N Charles St" type="ARREST" age="26" gender="M" description="*********************************************** &lt;br/&gt;13(a)(31), Marijuana: Possession Small Amount&lt;br/&gt;1501, Drivers Required to be Licensed.&lt;br/&gt;1543, Driving While Operating Privilege is Suspended or Revoked.&lt;br/&gt;"/><marker lat="40.437416747874401" lng="-79.979508685532437" zone="Zone 2" incidentdate="2015-11-23" incidenttime="14:00:00" incidentnumber="15218417" address="Forbes Ave &amp; Gist St" type="ARREST" age="25" gender="F" description="*********************************************** &lt;br/&gt;7122, Altered, Forged or Counterfeit Documents and Plates&lt;br/&gt;"/><marker lat="40.471005859059538" lng="-80.008598371720396" zone="Zone 1" incidentdate="2015-11-23" incidenttime="01:55:00" incidentnumber="15042492" address="Perrysville Ave &amp; N Charles St" type="ARREST" age="26" gender="M" description="*********************************************** &lt;br/&gt;3502, Burglary.&lt;br/&gt;3921, Theft by Unlawful Taking or Disposition.&lt;br/&gt;3925, Receiving Stolen Property.&lt;br/&gt;"/><marker lat="40.466832793836609" lng="-79.996581828750053" zone="Zone 1" incidentdate="2015-11-23" incidenttime="00:40:00" incidentnumber="15224808" address="Schnuttgen St" type="ARREST" age="39" gender="M" description="*********************************************** &lt;br/&gt;3304, Criminal Mischief.&lt;br/&gt;2705, Recklessly Endangering Another Person.&lt;br/&gt;2702, Aggravated Assault.&lt;br/&gt;"/><marker lat="40.462471314719117" lng="-79.899507688408946" zone="Zone 5" incidentdate="2015-11-23" incidenttime="05:10:00" incidentnumber="15224901" address="7000 block Mt Vernon St" type="ARREST" age="26" gender="F" description="*********************************************** &lt;br/&gt;2701, Simple Assault.&lt;br/&gt;"/><marker lat="40.455470090179453" lng="-79.897028104534954" zone="Zone 5" incidentdate="2015-11-23" incidenttime="00:12:00" incidentnumber="15224811" address="7200 block Kelly St" type="ARREST" age="20" gender="M" description="*********************************************** &lt;br/&gt;13(a)(16), Possession of Controlled Substance&lt;br/&gt;13(a)(30), Possession w/ Intent to Del. Controlled Substance&lt;br/&gt;"/><marker lat="40.488081814906529" lng="-79.894317224387123" zone="Zone 5" incidentdate="2015-11-23" incidenttime="11:20:00" incidentnumber="15175284" address="900 block Freeport Rd" type="ARREST" age="45" gender="F" description="*********************************************** &lt;br/&gt;3929, Retail Theft.&lt;br/&gt;"/></markers>
