<?xml version="1.0"?>
<markers><marker lat="40.442092052039932" lng="-79.999423512399062" zone="Zone 2" incidentdate="2015-08-10" incidenttime="13:00:00" incidentnumber="15149340" address="600 block Wood St" type="OFFENSE" age="" gender="" description="*********************************************** &lt;br/&gt;3929, Retail Theft.&lt;br/&gt;3503.B1I, DEF. TRESPASS ACTUAL COMMUNICATION&lt;br/&gt;"/><marker lat="40.459960986169946" lng="-79.993951923273556" zone="Zone 1" incidentdate="2015-08-10" incidenttime="19:30:00" incidentnumber="15149576" address="1000 block High St" type="OFFENSE" age="" gender="" description="*********************************************** &lt;br/&gt;9999, 9999 - (Misc. Incident):&lt;br/&gt;"/><marker lat="40.403883454437931" lng="-80.028120223103258" zone="Zone 6" incidentdate="2015-08-10" incidenttime="19:04:00" incidentnumber="15149559" address="Shiras Ave &amp; Vodeli St" type="OFFENSE" age="" gender="" description="*********************************************** &lt;br/&gt;9489, Found Property&lt;br/&gt;"/><marker lat="40.4774720" lng="-80.0379392" zone="Zone 1" incidentdate="2015-08-10" incidenttime="16:51:00" incidentnumber="15149470" address="3400 block Sipe St" type="OFFENSE" age="" gender="" description="*********************************************** &lt;br/&gt;9999, 9999 - (Misc. Incident):&lt;br/&gt;"/><marker lat="40.447587649477242" lng="-79.971386587368627" zone="Zone 2" incidentdate="2015-08-10" incidenttime="17:30:00" incidentnumber="15149451" address="2500 block Mahon St" type="OFFENSE" age="" gender="" description="*********************************************** &lt;br/&gt;3502, Burglary.&lt;br/&gt;903, Criminal Conspiracy.&lt;br/&gt;"/><marker lat="40.422862905866893" lng="-79.967282382398395" zone="Zone 3" incidentdate="2015-08-10" incidenttime="06:00:00" incidentnumber="15149584" address="2800 block Josephine St" type="OFFENSE" age="" gender="" description="*********************************************** &lt;br/&gt;3921, Theft by Unlawful Taking or Disposition.&lt;br/&gt;"/><marker lat="40.467375034401172" lng="-79.957944364123122" zone="Zone 6" incidentdate="2015-08-10" incidenttime="09:55:00" incidentnumber="15149269" address="300 block S Main St" type="OFFENSE" age="" gender="" description="*********************************************** &lt;br/&gt;9501, Bench Warrant&lt;br/&gt;"/><marker lat="40.410869783929577" lng="-79.994895325666036" zone="Zone 3" incidentdate="2015-08-10" incidenttime="15:00:00" incidentnumber="15149560" address="400 block Daytona St" type="OFFENSE" age="" gender="" description="*********************************************** &lt;br/&gt;2706, Terroristic Threats.&lt;br/&gt;"/><marker lat="40.474596445859554" lng="-79.929063923241074" zone="Zone 5" incidentdate="2015-08-10" incidenttime="14:20:00" incidentnumber="15149434" address="900 block Highview St" type="OFFENSE" age="" gender="" description="*********************************************** &lt;br/&gt;901, Criminal Attempt&lt;br/&gt;"/><marker lat="40.440086472089142" lng="-79.958320548707789" zone="Zone 4" incidentdate="2015-08-10" incidenttime="11:20:00" incidentnumber="15149294" address="3500 block Forbes Ave" type="OFFENSE" age="" gender="" description="*********************************************** &lt;br/&gt;9497, Aided Case&lt;br/&gt;"/><marker lat="40.396229870153952" lng="-80.023661636796888" zone="Zone 6" incidentdate="2015-08-10" incidenttime="20:25:00" incidentnumber="15149614" address="Brookline Blvd &amp; Pioneer Ave" type="OFFENSE" age="" gender="" description="*********************************************** &lt;br/&gt;5505, Public Drunkenness&lt;br/&gt;"/><marker lat="40.459193569420677" lng="-79.922071937344356" zone="Zone 4" incidentdate="2015-08-10" incidenttime="14:43:00" incidentnumber="15149389" address="Shady Ave &amp; Ellsworth Ave" type="OFFENSE" age="" gender="" description="*********************************************** &lt;br/&gt;3503.B1I, DEF. TRESPASS ACTUAL COMMUNICATION&lt;br/&gt;"/><marker lat="40.441688508499325" lng="-80.002700301164367" zone="Zone 2" incidentdate="2015-08-10" incidenttime="15:45:00" incidentnumber="15140702" address="5th Ave &amp; Liberty Ave" type="OFFENSE" age="" gender="" description="*********************************************** &lt;br/&gt;2701, Simple Assault.&lt;br/&gt;"/><marker lat="40.438943794278437" lng="-79.956702987700893" zone="Zone 4" incidentdate="2015-08-10" incidenttime="23:30:00" incidentnumber="15149728" address="300 block Meyran Ave" type="OFFENSE" age="" gender="" description="*********************************************** &lt;br/&gt;3921, Theft by Unlawful Taking or Disposition.&lt;br/&gt;"/><marker lat="40.45093207494731" lng="-80.014494141884327" zone="Zone 1" incidentdate="2015-08-10" incidenttime="00:45:00" incidentnumber="15149072" address="800 block Chapel Way" type="OFFENSE" age="" gender="" description="*********************************************** &lt;br/&gt;901, Criminal Attempt&lt;br/&gt;3701, Robbery.&lt;br/&gt;"/><marker lat="40.445368672453796" lng="-79.933671435755983" zone="Zone 4" incidentdate="2015-08-10" incidenttime="15:00:00" incidentnumber="15149484" address="5300 block Beeler St" type="OFFENSE" age="" gender="" description="*********************************************** &lt;br/&gt;9999, 9999 - (Misc. Incident):&lt;br/&gt;"/><marker lat="40.425515211118153" lng="-79.948927583314884" zone="Zone 4" incidentdate="2015-08-10" incidenttime="13:30:00" incidentnumber="15149375" address="300 block GREENFIELD Ave" type="OFFENSE" age="" gender="" description="*********************************************** &lt;br/&gt;029, Missing Juvenile&lt;br/&gt;"/><marker lat="40.4471655" lng="-80.0523331" zone="Zone 6" incidentdate="2015-08-10" incidenttime="09:15:00" incidentnumber="15149213" address="1500 block Crucible St" type="OFFENSE" age="" gender="" description="*********************************************** &lt;br/&gt;9999, 9999 - (Misc. Incident):&lt;br/&gt;"/><marker lat="40.441371364794612" lng="-80.00389725761795" zone="Zone 2" incidentdate="2015-08-10" incidenttime="14:00:00" incidentnumber="15149437" address="Stanwix St &amp; Liberty Ave" type="OFFENSE" age="" gender="" description="*********************************************** &lt;br/&gt;3921(a), Theft by Unlawful Taking or Disposition - Movable item&lt;br/&gt;"/><marker lat="40.466609745386876" lng="-79.898488248256953" zone="Zone 5" incidentdate="2015-08-10" incidenttime="02:18:00" incidentnumber="15149112" address="1300 block Pointview St" type="OFFENSE" age="" gender="" description="*********************************************** &lt;br/&gt;5506, Loitering and Prowling at Night&lt;br/&gt;3503, Criminal Trespass&lt;br/&gt;2709(b), Stalking&lt;br/&gt;9093, Indirect Criminal Contempt&lt;br/&gt;"/><marker lat="40.441713687896751" lng="-80.035296349227849" zone="Zone 6" incidentdate="2015-08-10" incidenttime="11:15:00" incidentnumber="15149299" address="Wabash St &amp; Steuben St" type="OFFENSE" age="" gender="" description="*********************************************** &lt;br/&gt;2701, Simple Assault.&lt;br/&gt;"/><marker lat="40.396290612843622" lng="-80.002880677042484" zone="Zone 6" incidentdate="2015-08-10" incidenttime="18:30:00" incidentnumber="15149544" address="2100 block Whited St" type="OFFENSE" age="" gender="" description="*********************************************** &lt;br/&gt;3502, Burglary.&lt;br/&gt;"/><marker lat="40.47754547838678" lng="-80.036482582341762" zone="Zone 1" incidentdate="2015-08-10" incidenttime="01:33:00" incidentnumber="15149096" address="3400 block Mc Clure Ave" type="OFFENSE" age="" gender="" description="*********************************************** &lt;br/&gt;2701, Simple Assault.&lt;br/&gt;5505, Public Drunkenness&lt;br/&gt;"/><marker lat="40.465157804159951" lng="-79.922171643415098" zone="Zone 5" incidentdate="2015-08-10" incidenttime="16:17:00" incidentnumber="15149455" address="400 block N Highland Ave" type="OFFENSE" age="" gender="" description="*********************************************** &lt;br/&gt;3929(a)(1), Retail Theft; takes possession of, carries away, or transfers displayed merchandise&lt;br/&gt;"/><marker lat="40.425093282630137" lng="-79.92928294919318" zone="Zone 4" incidentdate="2015-08-10" incidenttime="17:32:00" incidentnumber="15149505" address="4100 block Windsor St" type="OFFENSE" age="" gender="" description="*********************************************** &lt;br/&gt;2709(a)(1), Harassment by Physical Contact, or Attempts or Threats&lt;br/&gt;"/><marker lat="40.462281600421555" lng="-80.007011969874569" zone="Zone 1" incidentdate="2015-08-10" incidenttime="10:30:00" incidentnumber="15149361" address="Cemetery St &amp; Belleau St" type="OFFENSE" age="" gender="" description="*********************************************** &lt;br/&gt;3745, Accidents Involving Damage to Unattended Veh.or Prop.&lt;br/&gt;"/><marker lat="40.452210852851195" lng="-79.998676352919205" zone="Zone 1" incidentdate="2015-08-10" incidenttime="16:30:00" incidentnumber="15149510" address="600 block Pressley St" type="OFFENSE" age="" gender="" description="*********************************************** &lt;br/&gt;2709(a), Harassment.&lt;br/&gt;"/><marker lat="40.449646657025653" lng="-79.892798110797884" zone="Zone 4" incidentdate="2015-08-10" incidenttime="15:00:00" incidentnumber="15149415" address="300 block N Braddock Ave" type="OFFENSE" age="" gender="" description="*********************************************** &lt;br/&gt;3921(a), Theft by Unlawful Taking or Disposition - Movable item&lt;br/&gt;"/><marker lat="40.3965048" lng="-80.0293096" zone="Zone 6" incidentdate="2015-08-10" incidenttime="02:47:00" incidentnumber="15149121" address="2700 block Amman St" type="OFFENSE" age="" gender="" description="*********************************************** &lt;br/&gt;9999, 9999 - (Misc. Incident):&lt;br/&gt;"/><marker lat="40.447791383449896" lng="-80.003763673123132" zone="Zone 1" incidentdate="2015-08-10" incidenttime="00:15:00" incidentnumber="15149234" address="100 block Federal St" type="OFFENSE" age="" gender="" description="*********************************************** &lt;br/&gt;3934, Theft from Vehicle&lt;br/&gt;3304, Criminal Mischief.&lt;br/&gt;"/><marker lat="40.443290707195686" lng="-79.999092773277866" zone="Zone 2" incidentdate="2015-08-10" incidenttime="13:30:00" incidentnumber="15149431" address="800 block Penn Ave" type="OFFENSE" age="" gender="" description="*********************************************** &lt;br/&gt;9999, 9999 - (Misc. Incident):&lt;br/&gt;"/><marker lat="40.411181540883454" lng="-79.994989033332303" zone="Zone 3" incidentdate="2015-08-10" incidenttime="09:00:00" incidentnumber="15149266" address="400 block Suncrest St" type="OFFENSE" age="" gender="" description="*********************************************** &lt;br/&gt;3502, Burglary.&lt;br/&gt;"/><marker lat="40.479936560699926" lng="-80.041856845442879" zone="Zone 1" incidentdate="2015-08-10" incidenttime="18:20:00" incidentnumber="15149534" address="1800 block Davis Ave" type="OFFENSE" age="" gender="" description="*********************************************** &lt;br/&gt;2701, Simple Assault.&lt;br/&gt;"/><marker lat="40.429232248771257" lng="-79.975998950011828" zone="Zone 3" incidentdate="2015-08-10" incidenttime="07:45:00" incidentnumber="15149255" address="2100 block Sidney St" type="OFFENSE" age="" gender="" description="*********************************************** &lt;br/&gt;3934, Theft from Vehicle&lt;br/&gt;"/><marker lat="40.451830750162799" lng="-79.895640240059095" zone="Zone 5" incidentdate="2015-08-10" incidenttime="01:25:00" incidentnumber="15149090" address="7400 block Finance St" type="OFFENSE" age="" gender="" description="*********************************************** &lt;br/&gt;3921(a), Theft by Unlawful Taking or Disposition - Movable item&lt;br/&gt;"/><marker lat="40.483442699156356" lng="-80.010231661608557" zone="Zone 1" incidentdate="2015-08-10" incidenttime="08:23:00" incidentnumber="15149208" address="200 block Watson Blvd" type="OFFENSE" age="" gender="" description="*********************************************** &lt;br/&gt;9488, False  Burglar Alarm&lt;br/&gt;"/><marker lat="40.453068030092489" lng="-80.049343022384349" zone="Zone 6" incidentdate="2015-08-10" incidenttime="11:30:00" incidentnumber="15149311" address="2700 block Zephyr Ave" type="OFFENSE" age="" gender="" description="*********************************************** &lt;br/&gt;3934, Theft from Vehicle&lt;br/&gt;"/><marker lat="40.449708796554646" lng="-79.907713462021377" zone="Zone 4" incidentdate="2015-08-10" incidenttime="06:00:00" incidentnumber="15149191" address="6900 block Blenheim Ct" type="OFFENSE" age="" gender="" description="*********************************************** &lt;br/&gt;3921, Theft by Unlawful Taking or Disposition.&lt;br/&gt;"/><marker lat="40.4539247715024" lng="-79.997839351546148" zone="Zone 1" incidentdate="2015-08-10" incidenttime="15:54:00" incidentnumber="15149439" address="East St &amp; East Ohio St" type="OFFENSE" age="" gender="" description="*********************************************** &lt;br/&gt;602.04(b)(2), Aggressive Panhandling&lt;br/&gt;601.08(a), Alcohol or Liquor Consumption on Streets or Sidewalks&lt;br/&gt;5503, Disorderly Conduct.&lt;br/&gt;5507, Obstructing Highways and Passages.&lt;br/&gt;5505, Public Drunkenness&lt;br/&gt;"/><marker lat="40.463215232308606" lng="-80.01986764251906" zone="Zone 1" incidentdate="2015-08-10" incidenttime="07:00:00" incidentnumber="15149207" address="Strauss St" type="OFFENSE" age="" gender="" description="*********************************************** &lt;br/&gt;3921, Theft by Unlawful Taking or Disposition.&lt;br/&gt;"/><marker lat="40.426540464118759" lng="-80.067673973248844" zone="Zone 6" incidentdate="2015-08-10" incidenttime="00:01:00" incidentnumber="15149352" address="2300 block Craftmont Ave" type="OFFENSE" age="" gender="" description="*********************************************** &lt;br/&gt;3304, Criminal Mischief.&lt;br/&gt;"/><marker lat="40.437440915250725" lng="-79.993100773269362" zone="Zone 2" incidentdate="2015-08-10" incidenttime="02:18:00" incidentnumber="15149098" address="700 block Forbes Ave" type="OFFENSE" age="" gender="" description="*********************************************** &lt;br/&gt;9498, 302 (Mental)&lt;br/&gt;"/><marker lat="40.437750621567652" lng="-79.916469426876148" zone="Zone 4" incidentdate="2015-08-10" incidenttime="17:00:00" incidentnumber="15149509" address="1700 block Beechwood Blvd" type="OFFENSE" age="" gender="" description="*********************************************** &lt;br/&gt;3921(a), Theft by Unlawful Taking or Disposition - Movable item&lt;br/&gt;"/><marker lat="40.4440528" lng="-79.9664415" zone="Zone 2" incidentdate="2015-08-10" incidenttime="22:15:00" incidentnumber="15149695" address="Robinson St &amp; Champion Dr" type="OFFENSE" age="" gender="" description="*********************************************** &lt;br/&gt;3304, Criminal Mischief.&lt;br/&gt;3934, Theft from Vehicle&lt;br/&gt;"/><marker lat="40.387040737230748" lng="-80.00224956741755" zone="Zone 3" incidentdate="2015-08-10" incidenttime="07:00:00" incidentnumber="15149183" address="Glenbury St" type="OFFENSE" age="" gender="" description="*********************************************** &lt;br/&gt;3502, Burglary.&lt;br/&gt;"/><marker lat="40.42734221181118" lng="-79.980658026032501" zone="Zone 3" incidentdate="2015-08-10" incidenttime="16:30:00" incidentnumber="15149498" address="1800 block Larkins Way" type="OFFENSE" age="" gender="" description="*********************************************** &lt;br/&gt;3502, Burglary.&lt;br/&gt;"/><marker lat="40.4385648058716" lng="-79.990836351975489" zone="Zone 2" incidentdate="2015-08-10" incidenttime="02:53:00" incidentnumber="15149114" address="1000 block 5th Ave" type="OFFENSE" age="" gender="" description="*********************************************** &lt;br/&gt;6106, Firearms not to be Carried without a License.&lt;br/&gt;3308, One-Way Roadways and Rotary Traffic Islands.&lt;br/&gt;"/><marker lat="40.462393148382063" lng="-80.031037488776036" zone="Zone 1" incidentdate="2015-08-10" incidenttime="09:00:00" incidentnumber="15149245" address="2300 block California Ave" type="OFFENSE" age="" gender="" description="*********************************************** &lt;br/&gt;5511(c)(1), CRUELTY TO ANIMALS&lt;br/&gt;"/><marker lat="40.441456453135075" lng="-79.997731160448353" zone="Zone 2" incidentdate="2015-08-10" incidenttime="23:47:00" incidentnumber="15149713" address="6th Ave &amp; Smithfield St" type="OFFENSE" age="" gender="" description="*********************************************** &lt;br/&gt;2709(a), Harassment.&lt;br/&gt;"/><marker lat="40.452042212663898" lng="-80.008738896002342" zone="Zone 1" incidentdate="2015-08-10" incidenttime="00:10:00" incidentnumber="15149050" address="200 block Ridge Ave" type="OFFENSE" age="" gender="" description="*********************************************** &lt;br/&gt;029, Missing Juvenile&lt;br/&gt;"/><marker lat="40.491292855083536" lng="-80.018849494671784" zone="Zone 1" incidentdate="2015-08-10" incidenttime="06:21:00" incidentnumber="15149171" address="4000 block Franklin Rd" type="OFFENSE" age="" gender="" description="*********************************************** &lt;br/&gt;9488, False  Burglar Alarm&lt;br/&gt;"/><marker lat="40.468580303977795" lng="-80.011778618826" zone="Zone 1" incidentdate="2015-08-10" incidenttime="15:00:00" incidentnumber="15149410" address="100 block W Mc Intyre Ave" type="OFFENSE" age="" gender="" description="*********************************************** &lt;br/&gt;2709(a), Harassment.&lt;br/&gt;"/><marker lat="40.462556446850741" lng="-79.897377342404567" zone="Zone 5" incidentdate="2015-08-10" incidenttime="18:12:00" incidentnumber="15149529" address="7100 block Upland St" type="OFFENSE" age="" gender="" description="*********************************************** &lt;br/&gt;2702, Aggravated Assault.&lt;br/&gt;6105(a)(2)(i), Persons not to possess, use, manufacture, control, sell or transfer firearms: 60 days to&lt;br/&gt;2701, Simple Assault.&lt;br/&gt;2705, Recklessly Endangering Another Person.&lt;br/&gt;9093, Indirect Criminal Contempt&lt;br/&gt;"/><marker lat="40.459190603440391" lng="-79.927408851895919" zone="Zone 4" incidentdate="2015-08-10" incidenttime="15:30:00" incidentnumber="15149630" address="5900 block Centre Ave" type="OFFENSE" age="" gender="" description="*********************************************** &lt;br/&gt;3921(a), Theft by Unlawful Taking or Disposition - Movable item&lt;br/&gt;"/><marker lat="40.454074811291946" lng="-80.021051277011892" zone="Zone 1" incidentdate="2015-08-10" incidenttime="19:42:00" incidentnumber="15149590" address="1000 block Sheffield St" type="OFFENSE" age="" gender="" description="*********************************************** &lt;br/&gt;9496, Dead on Arrival (DOA)&lt;br/&gt;"/><marker lat="40.464774823811233" lng="-79.942733938845166" zone="Zone 5" incidentdate="2015-08-10" incidenttime="09:53:00" incidentnumber="15149254" address="5100 block Penn Ave" type="OFFENSE" age="" gender="" description="*********************************************** &lt;br/&gt;3921, Theft by Unlawful Taking or Disposition.&lt;br/&gt;"/><marker lat="40.417788157675872" lng="-79.978268849654626" zone="Zone 3" incidentdate="2015-08-10" incidenttime="20:31:00" incidentnumber="15149618" address="2000 block Arlington Ave" type="OFFENSE" age="" gender="" description="*********************************************** &lt;br/&gt;2701, Simple Assault.&lt;br/&gt;"/><marker lat="40.484454268280615" lng="-79.941468432200651" zone="Zone 5" incidentdate="2015-08-10" incidenttime="07:30:00" incidentnumber="15149490" address="1000 block Downlook St" type="OFFENSE" age="" gender="" description="*********************************************** &lt;br/&gt;3934, Theft from Vehicle&lt;br/&gt;"/><marker lat="40.460594319900963" lng="-79.922716789802806" zone="Zone 5" incidentdate="2015-08-10" incidenttime="14:53:00" incidentnumber="15149416" address="6200 block Penn Ave" type="OFFENSE" age="" gender="" description="*********************************************** &lt;br/&gt;3743, Accidents Involving Damage to Attended Veh. or Property&lt;br/&gt;"/><marker lat="40.475991792684219" lng="-79.998237934488159" zone="Zone 1" incidentdate="2015-08-10" incidenttime="03:25:00" incidentnumber="15149137" address="700 block Mt Pleasant Rd" type="OFFENSE" age="" gender="" description="*********************************************** &lt;br/&gt;2702, Aggravated Assault.&lt;br/&gt;2701, Simple Assault.&lt;br/&gt;"/><marker lat="40.452210852851195" lng="-79.998676352919205" zone="Zone 1" incidentdate="2015-08-10" incidenttime="15:55:00" incidentnumber="15149442" address="600 block Pressley St" type="OFFENSE" age="" gender="" description="*********************************************** &lt;br/&gt;3921, Theft by Unlawful Taking or Disposition.&lt;br/&gt;"/><marker lat="40.384253368064996" lng="-80.009319901988178" zone="Zone 6" incidentdate="2015-08-10" incidenttime="16:26:00" incidentnumber="15149475" address="1900 block Creedmoor Pl" type="OFFENSE" age="" gender="" description="*********************************************** &lt;br/&gt;4120, Identity Theft&lt;br/&gt;"/><marker lat="40.4642764" lng="-79.9802776" zone="Zone 1" incidentdate="2015-08-10" incidenttime="02:40:00" incidentnumber="15149119" address="200 block East Ohio St" type="OFFENSE" age="" gender="" description="*********************************************** &lt;br/&gt;9488, False  Burglar Alarm&lt;br/&gt;"/><marker lat="40.458453202611246" lng="-80.009714766626999" zone="Zone 1" incidentdate="2015-08-10" incidenttime="17:34:00" incidentnumber="15149515" address="Alpine Ave &amp; Arch St" type="OFFENSE" age="" gender="" description="*********************************************** &lt;br/&gt;9999, 9999 - (Misc. Incident):&lt;br/&gt;"/><marker lat="40.462327693176029" lng="-80.008834397506106" zone="Zone 1" incidentdate="2015-08-10" incidenttime="18:20:00" incidentnumber="15149533" address="Mercy St &amp; Federal Ext N" type="OFFENSE" age="" gender="" description="*********************************************** &lt;br/&gt;9999, 9999 - (Misc. Incident):&lt;br/&gt;"/><marker lat="40.441061138073565" lng="-79.970620771692978" zone="Zone 2" incidentdate="2015-08-10" incidenttime="18:51:00" incidentnumber="15149557" address="100 block Hyman Pl" type="OFFENSE" age="" gender="" description="*********************************************** &lt;br/&gt;9490, Missing Persons (18 and Over)&lt;br/&gt;"/><marker lat="40.444874548184188" lng="-80.040671389143327" zone="Zone 6" incidentdate="2015-08-10" incidenttime="15:31:00" incidentnumber="15149414" address="Bucyrus St" type="OFFENSE" age="" gender="" description="*********************************************** &lt;br/&gt;2701, Simple Assault.&lt;br/&gt;"/><marker lat="40.462752029993148" lng="-79.905590697682214" zone="Zone 5" incidentdate="2015-08-10" incidenttime="10:20:00" incidentnumber="15149270" address="1000 block Washington Blvd" type="OFFENSE" age="" gender="" description="*********************************************** &lt;br/&gt;13(a)(32), Paraphernalia - Use or Possession&lt;br/&gt;3921, Theft by Unlawful Taking or Disposition.&lt;br/&gt;"/><marker lat="40.446647452630145" lng="-79.893677195645495" zone="Zone 4" incidentdate="2015-08-10" incidenttime="10:10:00" incidentnumber="15149265" address="Brushton Ave &amp; Penn Ave" type="OFFENSE" age="" gender="" description="*********************************************** &lt;br/&gt;9999, 9999 - (Misc. Incident):&lt;br/&gt;"/><marker lat="40.460594319900963" lng="-79.922716789802806" zone="Zone 5" incidentdate="2015-08-10" incidenttime="15:23:00" incidentnumber="15149417" address="6200 block Penn Ave" type="OFFENSE" age="" gender="" description="*********************************************** &lt;br/&gt;5104, Resisting Arrest or Other Law Enforcement.&lt;br/&gt;5503, Disorderly Conduct.&lt;br/&gt;3929, Retail Theft.&lt;br/&gt;13(a)(32), Paraphernalia - Use or Possession&lt;br/&gt;"/><marker lat="40.451826159296438" lng="-80.00076377136098" zone="Zone 1" incidentdate="2015-08-10" incidenttime="20:54:00" incidentnumber="15149629" address="400 block Cedar Ave" type="OFFENSE" age="" gender="" description="*********************************************** &lt;br/&gt;2702, Aggravated Assault.&lt;br/&gt;2705, Recklessly Endangering Another Person.&lt;br/&gt;2707.1, Discharge of a Firearm into Occupied Structure&lt;br/&gt;"/><marker lat="40.468958433840406" lng="-80.031655160053063" zone="Zone 1" incidentdate="2015-08-10" incidenttime="21:00:00" incidentnumber="15126092" address="1400 block Woodland Ave" type="ARREST" age="22" gender="M" description="*********************************************** &lt;br/&gt;3921, Theft by Unlawful Taking or Disposition.&lt;br/&gt;"/><marker lat="40.4052362" lng="-79.9443826" zone="Zone 4" incidentdate="2015-08-10" incidenttime="08:45:00" incidentnumber="15115169" address="Gloster St &amp; Roma Way" type="ARREST" age="32" gender="M" description="*********************************************** &lt;br/&gt;9501, Bench Warrant&lt;br/&gt;13(a)(16), Possession of Controlled Substance&lt;br/&gt;13(a)(30)*, Delivery of Controlled Substance&lt;br/&gt;13(a)(30), Possession w/ Intent to Del. Controlled Substance&lt;br/&gt;"/><marker lat="40.4539247715024" lng="-79.997839351546148" zone="Zone 1" incidentdate="2015-08-10" incidenttime="16:02:00" incidentnumber="15149439" address="East St &amp; East Ohio St" type="ARREST" age="28" gender="M" description="*********************************************** &lt;br/&gt;602.04(b)(2), Aggressive Panhandling&lt;br/&gt;601.08(a), Alcohol or Liquor Consumption on Streets or Sidewalks&lt;br/&gt;5503, Disorderly Conduct.&lt;br/&gt;5507, Obstructing Highways and Passages.&lt;br/&gt;5505, Public Drunkenness&lt;br/&gt;"/><marker lat="40.479936560699926" lng="-80.041856845442879" zone="Zone 1" incidentdate="2015-08-10" incidenttime="18:20:00" incidentnumber="15149534" address="1800 block Davis Ave" type="ARREST" age="51" gender="M" description="*********************************************** &lt;br/&gt;2701, Simple Assault.&lt;br/&gt;"/><marker lat="40.462752029993148" lng="-79.905590697682214" zone="Zone 5" incidentdate="2015-08-10" incidenttime="10:41:00" incidentnumber="15149270" address="1000 block Washington Blvd" type="ARREST" age="32" gender="M" description="*********************************************** &lt;br/&gt;13(a)(32), Paraphernalia - Use or Possession&lt;br/&gt;3921, Theft by Unlawful Taking or Disposition.&lt;br/&gt;"/><marker lat="40.47754547838678" lng="-80.036482582341762" zone="Zone 1" incidentdate="2015-08-10" incidenttime="02:20:00" incidentnumber="15149096" address="3400 block Mc Clure Ave" type="ARREST" age="37" gender="F" description="*********************************************** &lt;br/&gt;2701, Simple Assault.&lt;br/&gt;5505, Public Drunkenness&lt;br/&gt;"/><marker lat="40.47757275268016" lng="-79.954378562794986" zone="Zone 2" incidentdate="2015-08-10" incidenttime="10:30:00" incidentnumber="15120052" address="5100 block Natrona Way" type="ARREST" age="47" gender="M" description="*********************************************** &lt;br/&gt;4106, Access Device Fraud&lt;br/&gt;4101, Forgery.&lt;br/&gt;"/><marker lat="40.47910547009959" lng="-79.952542300652155" zone="Zone 2" incidentdate="2015-08-10" incidenttime="11:40:00" incidentnumber="15047269" address="5200 block Kent Way" type="ARREST" age="20" gender="M" description="*********************************************** &lt;br/&gt;2702, Aggravated Assault.&lt;br/&gt;2706, Terroristic Threats.&lt;br/&gt;"/><marker lat="40.466609745386876" lng="-79.898488248256953" zone="Zone 5" incidentdate="2015-08-10" incidenttime="02:21:00" incidentnumber="15149112" address="1300 block Pointview St" type="ARREST" age="42" gender="M" description="*********************************************** &lt;br/&gt;5506, Loitering and Prowling at Night&lt;br/&gt;3503, Criminal Trespass&lt;br/&gt;2709(b), Stalking&lt;br/&gt;9093, Indirect Criminal Contempt&lt;br/&gt;"/><marker lat="40.417788157675872" lng="-79.978268849654626" zone="Zone 3" incidentdate="2015-08-10" incidenttime="20:51:00" incidentnumber="15149618" address="2000 block Arlington Ave" type="ARREST" age="24" gender="M" description="*********************************************** &lt;br/&gt;2701, Simple Assault.&lt;br/&gt;"/><marker lat="40.444874548184188" lng="-80.040671389143327" zone="Zone 6" incidentdate="2015-08-10" incidenttime="15:31:00" incidentnumber="15149414" address="Bucyrus St" type="ARREST" age="20" gender="F" description="*********************************************** &lt;br/&gt;2701, Simple Assault.&lt;br/&gt;"/><marker lat="40.460594319900963" lng="-79.922716789802806" zone="Zone 5" incidentdate="2015-08-10" incidenttime="15:23:00" incidentnumber="15149417" address="6200 block Penn Ave" type="ARREST" age="34" gender="M" description="*********************************************** &lt;br/&gt;5104, Resisting Arrest or Other Law Enforcement.&lt;br/&gt;5503, Disorderly Conduct.&lt;br/&gt;3929, Retail Theft.&lt;br/&gt;13(a)(32), Paraphernalia - Use or Possession&lt;br/&gt;"/><marker lat="40.453539170738004" lng="-80.000575279128412" zone="Zone 1" incidentdate="2015-08-10" incidenttime="16:30:00" incidentnumber="15122684" address="500 block E Ohio St" type="ARREST" age="29" gender="F" description="*********************************************** &lt;br/&gt;2701(a)(3), Simple Assault - Attempts by Physical Menace&lt;br/&gt;"/><marker lat="40.4385648058716" lng="-79.990836351975489" zone="Zone 2" incidentdate="2015-08-10" incidenttime="02:40:00" incidentnumber="15149114" address="1000 block 5th Ave" type="ARREST" age="31" gender="M" description="*********************************************** &lt;br/&gt;6106, Firearms not to be Carried without a License.&lt;br/&gt;3308, One-Way Roadways and Rotary Traffic Islands.&lt;br/&gt;"/><marker lat="40.417788157675872" lng="-79.978268849654626" zone="Zone 3" incidentdate="2015-08-10" incidenttime="20:51:00" incidentnumber="15149618" address="2000 block Arlington Ave" type="ARREST" age="20" gender="F" description="*********************************************** &lt;br/&gt;2701, Simple Assault.&lt;br/&gt;"/><marker lat="40.415638884802782" lng="-80.005578646047596" zone="Zone 3" incidentdate="2015-08-10" incidenttime="19:20:00" incidentnumber="15099886" address="100 block Michigan St" type="ARREST" age="28" gender="M" description="*********************************************** &lt;br/&gt;3502, Burglary.&lt;br/&gt;3925, Receiving Stolen Property.&lt;br/&gt;"/><marker lat="40.447587649477242" lng="-79.971386587368627" zone="Zone 2" incidentdate="2015-08-10" incidenttime="17:30:00" incidentnumber="15149451" address="2500 block Mahon St" type="ARREST" age="22" gender="M" description="*********************************************** &lt;br/&gt;3502, Burglary.&lt;br/&gt;903, Criminal Conspiracy.&lt;br/&gt;"/><marker lat="40.465157804159951" lng="-79.922171643415098" zone="Zone 5" incidentdate="2015-08-10" incidenttime="16:39:00" incidentnumber="15149455" address="400 block N Highland Ave" type="ARREST" age="38" gender="M" description="*********************************************** &lt;br/&gt;3929(a)(1), Retail Theft; takes possession of, carries away, or transfers displayed merchandise&lt;br/&gt;"/><marker lat="40.475991792684219" lng="-79.998237934488159" zone="Zone 1" incidentdate="2015-08-10" incidenttime="03:35:00" incidentnumber="15149137" address="700 block Mt Pleasant Rd" type="ARREST" age="32" gender="F" description="*********************************************** &lt;br/&gt;2702, Aggravated Assault.&lt;br/&gt;2701, Simple Assault.&lt;br/&gt;"/><marker lat="40.47754547838678" lng="-80.036482582341762" zone="Zone 1" incidentdate="2015-08-10" incidenttime="02:20:00" incidentnumber="15149096" address="3400 block Mc Clure Ave" type="ARREST" age="38" gender="M" description="*********************************************** &lt;br/&gt;2701, Simple Assault.&lt;br/&gt;5505, Public Drunkenness&lt;br/&gt;"/><marker lat="40.433496453029278" lng="-79.918466306105415" zone="Zone 4" incidentdate="2015-08-10" incidenttime="14:43:00" incidentnumber="15146418" address="200 block Shady Ave" type="ARREST" age="25" gender="M" description="*********************************************** &lt;br/&gt;2709.1, Stalking Conduct or Repeatedly Acts Including Follows&lt;br/&gt;3503(b)(1)(i), Actual Communication&lt;br/&gt;"/><marker lat="40.433891542802876" lng="-79.960377840951992" zone="Zone 4" incidentdate="2015-08-10" incidenttime="12:45:00" incidentnumber="15139319" address="3200 block Niagara St" type="ARREST" age="50" gender="F" description="*********************************************** &lt;br/&gt;2702, Aggravated Assault.&lt;br/&gt;"/><marker lat="40.441713687896751" lng="-80.035296349227849" zone="Zone 6" incidentdate="2015-08-10" incidenttime="11:15:00" incidentnumber="15149299" address="Wabash St &amp; Steuben St" type="ARREST" age="55" gender="M" description="*********************************************** &lt;br/&gt;2701, Simple Assault.&lt;br/&gt;"/><marker lat="40.467375034401172" lng="-79.957944364123122" zone="Zone 6" incidentdate="2015-08-10" incidenttime="09:50:00" incidentnumber="15149269" address="300 block S Main St" type="ARREST" age="29" gender="M" description="*********************************************** &lt;br/&gt;9501, Bench Warrant&lt;br/&gt;"/><marker lat="40.459193569420677" lng="-79.922071937344356" zone="Zone 4" incidentdate="2015-08-10" incidenttime="14:43:00" incidentnumber="15149389" address="Shady Ave &amp; Ellsworth Ave" type="ARREST" age="25" gender="M" description="*********************************************** &lt;br/&gt;3503.B1I, DEF. TRESPASS ACTUAL COMMUNICATION&lt;br/&gt;"/><marker lat="40.447587649477242" lng="-79.971386587368627" zone="Zone 2" incidentdate="2015-08-10" incidenttime="17:30:00" incidentnumber="15149451" address="2500 block Mahon St" type="ARREST" age="42" gender="F" description="*********************************************** &lt;br/&gt;3502, Burglary.&lt;br/&gt;903, Criminal Conspiracy.&lt;br/&gt;"/><marker lat="40.442092052039932" lng="-79.999423512399062" zone="Zone 2" incidentdate="2015-08-10" incidenttime="13:30:00" incidentnumber="15149340" address="600 block Wood St" type="ARREST" age="56" gender="M" description="*********************************************** &lt;br/&gt;3929, Retail Theft.&lt;br/&gt;3503.B1I, DEF. TRESPASS ACTUAL COMMUNICATION&lt;br/&gt;"/><marker lat="40.479936560699926" lng="-80.041856845442879" zone="Zone 1" incidentdate="2015-08-10" incidenttime="18:20:00" incidentnumber="15149534" address="1800 block Davis Ave" type="ARREST" age="30" gender="F" description="*********************************************** &lt;br/&gt;2701, Simple Assault.&lt;br/&gt;"/></markers>
