<?xml version="1.0"?>
<markers><marker lat="40.396168020757081" lng="-79.987427632359683" zone="Zone 3" incidentdate="2016-03-26" incidenttime="21:47:00" incidentnumber="16000489" address="900 block Brownsville Rd" type="OFFENSE" age="" gender="" description="*********************************************** &lt;br/&gt;3921, Theft by Unlawful Taking or Disposition.&lt;br/&gt;903, Criminal Conspiracy.&lt;br/&gt;"/><marker lat="40.428290206220495" lng="-79.980608463191615" zone="Zone 3" incidentdate="2016-03-26" incidenttime="01:15:00" incidentnumber="16053886" address="Carey Way &amp; S 18th St" type="OFFENSE" age="" gender="" description="*********************************************** &lt;br/&gt;13(a)(31), Marijuana: Possession Small Amount&lt;br/&gt;"/><marker lat="40.424153844229302" lng="-79.933379761561497" zone="Zone 4" incidentdate="2016-03-26" incidenttime="09:30:00" incidentnumber="16054070" address="900 block Greenfield Ave" type="OFFENSE" age="" gender="" description="*********************************************** &lt;br/&gt;3745, Accidents Involving Damage to Unattended Veh.or Prop.&lt;br/&gt;"/><marker lat="40.472331473947946" lng="-79.89087042606063" zone="Zone 5" incidentdate="2016-03-26" incidenttime="12:10:00" incidentnumber="16054129" address="Lincoln Ave &amp; Campania Ave" type="OFFENSE" age="" gender="" description="*********************************************** &lt;br/&gt;3743, Accidents Involving Damage to Attended Veh. or Property&lt;br/&gt;"/><marker lat="40.39458317783771" lng="-80.021692304865098" zone="Zone 6" incidentdate="2016-03-26" incidenttime="10:55:00" incidentnumber="16054085" address="700 block Brookline Blvd" type="OFFENSE" age="" gender="" description="*********************************************** &lt;br/&gt;9488, False  Burglar Alarm&lt;br/&gt;"/><marker lat="40.417087348291147" lng="-79.979941965888543" zone="Zone 3" incidentdate="2016-03-26" incidenttime="08:30:00" incidentnumber="16054083" address="100 block Rahe St" type="OFFENSE" age="" gender="" description="*********************************************** &lt;br/&gt;3934, Theft from Vehicle&lt;br/&gt;"/><marker lat="40.442802683726654" lng="-80.032470494061599" zone="Zone 6" incidentdate="2016-03-26" incidenttime="19:30:00" incidentnumber="16054340" address="100 block Steuben St" type="OFFENSE" age="" gender="" description="*********************************************** &lt;br/&gt;9999, 9999 - (Misc. Incident):&lt;br/&gt;"/><marker lat="40.435268181594665" lng="-79.994397681613918" zone="Zone 2" incidentdate="2016-03-26" incidenttime="17:00:00" incidentnumber="16054319" address="700 block 2nd Ave" type="OFFENSE" age="" gender="" description="*********************************************** &lt;br/&gt;2709, Harassment (Non-Specific)&lt;br/&gt;"/><marker lat="40.384413993627369" lng="-79.994277181866664" zone="Zone 3" incidentdate="2016-03-26" incidenttime="03:30:00" incidentnumber="16054094" address="Maytide St" type="OFFENSE" age="" gender="" description="*********************************************** &lt;br/&gt;3502, Burglary.&lt;br/&gt;"/><marker lat="40.434850439066452" lng="-80.011975665580493" zone="Zone 3" incidentdate="2016-03-26" incidenttime="07:30:00" incidentnumber="16054021" address="100 block Ulysses St" type="OFFENSE" age="" gender="" description="*********************************************** &lt;br/&gt;3745, Accidents Involving Damage to Unattended Veh.or Prop.&lt;br/&gt;"/><marker lat="40.442381390460731" lng="-79.980405310434008" zone="Zone 2" incidentdate="2016-03-26" incidenttime="23:50:00" incidentnumber="16054510" address="400 block Dinwiddie St" type="OFFENSE" age="" gender="" description="*********************************************** &lt;br/&gt;3745, Accidents Involving Damage to Unattended Veh.or Prop.&lt;br/&gt;"/><marker lat="40.422180789922365" lng="-79.969193569901833" zone="Zone 3" incidentdate="2016-03-26" incidenttime="08:00:00" incidentnumber="16054236" address="2700 block Mission St" type="OFFENSE" age="" gender="" description="*********************************************** &lt;br/&gt;3934, Theft from Vehicle&lt;br/&gt;"/><marker lat="40.448885490296938" lng="-79.98750584314844" zone="Zone 4" incidentdate="2016-03-26" incidenttime="19:33:00" incidentnumber="16054371" address="Penn Ave" type="OFFENSE" age="" gender="" description="*********************************************** &lt;br/&gt;3701, Robbery.&lt;br/&gt;"/><marker lat="40.443230518813948" lng="-80.000259352054542" zone="Zone 2" incidentdate="2016-03-26" incidenttime="23:53:00" incidentnumber="16054506" address="7th St &amp; Penn Ave" type="OFFENSE" age="" gender="" description="*********************************************** &lt;br/&gt;9497, Aided Case&lt;br/&gt;"/><marker lat="40.392933506948211" lng="-79.923841915310916" zone="Zone 4" incidentdate="2016-03-26" incidenttime="08:57:00" incidentnumber="16054043" address="Panorama St &amp; Armorhill Ave" type="OFFENSE" age="" gender="" description="*********************************************** &lt;br/&gt;3301, Arson&lt;br/&gt;9094, Recovered Stolen Vehicle (OUTSIDE CITY)&lt;br/&gt;"/><marker lat="40.429321237534872" lng="-79.983254473265774" zone="Zone 3" incidentdate="2016-03-26" incidenttime="01:50:00" incidentnumber="16053914" address="1500 block Bingham St" type="OFFENSE" age="" gender="" description="*********************************************** &lt;br/&gt;601.16, Public Urination And Defecation&lt;br/&gt;"/><marker lat="40.452888346792044" lng="-80.022356603693822" zone="Zone 1" incidentdate="2016-03-26" incidenttime="14:18:00" incidentnumber="16054180" address="1200 block W North Ave" type="OFFENSE" age="" gender="" description="*********************************************** &lt;br/&gt;13(a)(16), Possession of Controlled Substance&lt;br/&gt;13(a)(32), Paraphernalia - Use or Possession&lt;br/&gt;"/><marker lat="40.446867779409757" lng="-80.020757813868244" zone="Zone 1" incidentdate="2016-03-26" incidenttime="18:29:00" incidentnumber="16054332" address="700 block casino Dr" type="OFFENSE" age="" gender="" description="*********************************************** &lt;br/&gt;3304, Criminal Mischief.&lt;br/&gt;"/><marker lat="40.460302578526942" lng="-80.006980071080037" zone="Zone 1" incidentdate="2016-03-26" incidenttime="19:17:00" incidentnumber="16054361" address="1700 block Belleau Dr" type="OFFENSE" age="" gender="" description="*********************************************** &lt;br/&gt;2706, Terroristic Threats.&lt;br/&gt;"/><marker lat="40.397544772089951" lng="-80.006707649439633" zone="Zone 6" incidentdate="2016-03-26" incidenttime="10:28:00" incidentnumber="16054077" address="2200 block Lynnbrook Ave" type="OFFENSE" age="" gender="" description="*********************************************** &lt;br/&gt;9488, False  Burglar Alarm&lt;br/&gt;"/><marker lat="40.482879021356389" lng="-80.04453300763744" zone="Zone 1" incidentdate="2016-03-26" incidenttime="09:45:00" incidentnumber="16054060" address="2000 block Termon Ave" type="OFFENSE" age="" gender="" description="*********************************************** &lt;br/&gt;029, Missing Juvenile&lt;br/&gt;"/><marker lat="40.438677322291404" lng="-79.976681182280686" zone="Zone 4" incidentdate="2016-03-26" incidenttime="00:59:00" incidentnumber="16053877" address="2000 block De Raud St" type="OFFENSE" age="" gender="" description="*********************************************** &lt;br/&gt;9490, Missing Persons (18 and Over)&lt;br/&gt;"/><marker lat="40.460768407974605" lng="-80.054473919507714" zone="Zone 6" incidentdate="2016-03-26" incidenttime="05:34:00" incidentnumber="16054001" address="400 block Stadium St" type="OFFENSE" age="" gender="" description="*********************************************** &lt;br/&gt;2701, Simple Assault.&lt;br/&gt;"/><marker lat="40.39458317783771" lng="-80.021692304865098" zone="Zone 6" incidentdate="2016-03-26" incidenttime="19:15:00" incidentnumber="16054372" address="700 block Brookline Blvd" type="OFFENSE" age="" gender="" description="*********************************************** &lt;br/&gt;9999, 9999 - (Misc. Incident):&lt;br/&gt;"/><marker lat="40.44956618746032" lng="-79.987646691015016" zone="Zone 2" incidentdate="2016-03-26" incidenttime="01:32:00" incidentnumber="16053899" address="1600 block Smallman St" type="OFFENSE" age="" gender="" description="*********************************************** &lt;br/&gt;13(a)(16), Possession of Controlled Substance&lt;br/&gt;13(a)(31), Marijuana: Possession Small Amount&lt;br/&gt;6106, Firearms not to be Carried without a License.&lt;br/&gt;6105(a)(1), Persons not to possess, use, manufacture, control, sell or transfer firearms: Former convict enumerated in subsection (b)&lt;br/&gt;"/><marker lat="40.421531877189601" lng="-79.993577564166102" zone="Zone 3" incidentdate="2016-03-26" incidenttime="21:47:00" incidentnumber="16054452" address="800 block E Warrington Ave" type="OFFENSE" age="" gender="" description="*********************************************** &lt;br/&gt;5121, Escape.&lt;br/&gt;"/><marker lat="40.450901096519573" lng="-79.930622154707279" zone="Zone 5" incidentdate="2016-03-26" incidenttime="02:20:00" incidentnumber="16053952" address="900 block N Negley Ave" type="OFFENSE" age="" gender="" description="*********************************************** &lt;br/&gt;029, Missing Juvenile&lt;br/&gt;"/><marker lat="40.438308590945255" lng="-79.957718574743282" zone="Zone 4" incidentdate="2016-03-26" incidenttime="22:40:00" incidentnumber="16054477" address="300 block Mckee Pl" type="OFFENSE" age="" gender="" description="*********************************************** &lt;br/&gt;3502, Burglary.&lt;br/&gt;"/><marker lat="40.4845255" lng="-79.9081988" zone="Zone 5" incidentdate="2016-03-26" incidenttime="20:10:00" incidentnumber="16054407" address="Washington Blvd &amp; Allegheny Blvd" type="OFFENSE" age="" gender="" description="*********************************************** &lt;br/&gt;9999, 9999 - (Misc. Incident):&lt;br/&gt;"/><marker lat="40.458778859290838" lng="-79.970703399584181" zone="Zone 2" incidentdate="2016-03-26" incidenttime="00:58:00" incidentnumber="16053876" address="3100 block Liberty Ave" type="OFFENSE" age="" gender="" description="*********************************************** &lt;br/&gt;2701, Simple Assault.&lt;br/&gt;5505, Public Drunkenness&lt;br/&gt;2706, Terroristic Threats.&lt;br/&gt;"/><marker lat="40.428987221718174" lng="-79.968079690915459" zone="Zone 3" incidentdate="2016-03-26" incidenttime="07:00:00" incidentnumber="16054018" address="2500 block Wharton St" type="OFFENSE" age="" gender="" description="*********************************************** &lt;br/&gt;3502, Burglary.&lt;br/&gt;3921, Theft by Unlawful Taking or Disposition.&lt;br/&gt;"/><marker lat="40.430946637068146" lng="-80.05719062357268" zone="Zone 6" incidentdate="2016-03-26" incidenttime="21:30:00" incidentnumber="16054445" address="1800 block Brett St" type="OFFENSE" age="" gender="" description="*********************************************** &lt;br/&gt;3745, Accidents Involving Damage to Unattended Veh.or Prop.&lt;br/&gt;"/><marker lat="40.454253754810765" lng="-79.886870603838318" zone="Zone 5" incidentdate="2016-03-26" incidenttime="12:50:00" incidentnumber="16054024" address="800 block Hale St" type="OFFENSE" age="" gender="" description="*********************************************** &lt;br/&gt;13(a)(16), Possession of Controlled Substance&lt;br/&gt;13(a)(32), Paraphernalia - Use or Possession&lt;br/&gt;3503, Criminal Trespass&lt;br/&gt;4914, False Identification to Law Enforcement Authorities&lt;br/&gt;5123, Contraband.&lt;br/&gt;4120, Identity Theft&lt;br/&gt;"/><marker lat="40.4406248" lng="-79.9958864" zone="Zone 2" incidentdate="2016-03-26" incidenttime="01:27:00" incidentnumber="16053894" address="Fort Pitt Brg &amp; 10th St Byp Ramp" type="OFFENSE" age="" gender="" description="*********************************************** &lt;br/&gt;3743, Accidents Involving Damage to Attended Veh. or Property&lt;br/&gt;"/><marker lat="40.429396632805201" lng="-79.982507775124162" zone="Zone 3" incidentdate="2016-03-26" incidenttime="01:56:00" incidentnumber="16053915" address="1600 block Bingham St" type="OFFENSE" age="" gender="" description="*********************************************** &lt;br/&gt;601.16, Public Urination And Defecation&lt;br/&gt;"/><marker lat="40.45386432339663" lng="-80.061100958535718" zone="Zone 6" incidentdate="2016-03-26" incidenttime="01:30:00" incidentnumber="16053898" address="3100 block Chartiers Ave" type="OFFENSE" age="" gender="" description="*********************************************** &lt;br/&gt;3921, Theft by Unlawful Taking or Disposition.&lt;br/&gt;"/><marker lat="40.450997609534262" lng="-79.983089395537817" zone="Zone 6" incidentdate="2016-03-26" incidenttime="00:20:00" incidentnumber="16053840" address="2000 block West Liberty Ave" type="OFFENSE" age="" gender="" description="*********************************************** &lt;br/&gt;5505, Public Drunkenness&lt;br/&gt;"/><marker lat="40.482879021356389" lng="-80.04453300763744" zone="Zone 1" incidentdate="2016-03-26" incidenttime="09:45:00" incidentnumber="16054059" address="2000 block Termon Ave" type="OFFENSE" age="" gender="" description="*********************************************** &lt;br/&gt;029, Missing Juvenile&lt;br/&gt;"/><marker lat="40.476216742369722" lng="-80.033415163032615" zone="Zone 1" incidentdate="2016-03-26" incidenttime="03:34:00" incidentnumber="16053961" address="1400 block Woods Run Ave" type="OFFENSE" age="" gender="" description="*********************************************** &lt;br/&gt;13(a)(16), Possession of Controlled Substance&lt;br/&gt;13(a)(32), Paraphernalia - Use or Possession&lt;br/&gt;3745, Accidents Involving Damage to Unattended Veh.or Prop.&lt;br/&gt;3802(a)(1), DUI - General Impairment&lt;br/&gt;3802(b), DUI - High Rate of Alchol - BAC &gt;=.10% &lt;.16%&lt;br/&gt;"/><marker lat="40.4508816" lng="-79.9347286" zone="Zone 4" incidentdate="2016-03-26" incidenttime="02:18:00" incidentnumber="16053931" address="800 block Copeland Way" type="OFFENSE" age="" gender="" description="*********************************************** &lt;br/&gt;5503, Disorderly Conduct.&lt;br/&gt;5505, Public Drunkenness&lt;br/&gt;"/><marker lat="40.451945421387748" lng="-79.952009729366381" zone="Zone 4" incidentdate="2016-03-26" incidenttime="00:25:00" incidentnumber="16053851" address="4600 block Centre Ave" type="OFFENSE" age="" gender="" description="*********************************************** &lt;br/&gt;2709(b), Stalking&lt;br/&gt;3503(a), Criminal Trespass&lt;br/&gt;2709(a)(2), Harassment by Following Person in Public Place(s)&lt;br/&gt;"/><marker lat="40.452149094218932" lng="-80.00131982951747" zone="Zone 1" incidentdate="2016-03-26" incidenttime="19:33:00" incidentnumber="16054370" address="Cedar Ave &amp; Lockhart St" type="OFFENSE" age="" gender="" description="*********************************************** &lt;br/&gt;13(a)(16), Possession of Controlled Substance&lt;br/&gt;13(a)(32), Paraphernalia - Use or Possession&lt;br/&gt;"/><marker lat="40.444936606488817" lng="-79.99385858611916" zone="Zone 2" incidentdate="2016-03-26" incidenttime="01:28:00" incidentnumber="16053892" address="11th St &amp; Penn Ave" type="OFFENSE" age="" gender="" description="*********************************************** &lt;br/&gt;3802(a)(1), DUI - General Impairment&lt;br/&gt;3112, Traffic-Control Signals.&lt;br/&gt;3802(b), DUI - High Rate of Alchol - BAC &gt;=.10% &lt;.16%&lt;br/&gt;"/><marker lat="40.423858090267018" lng="-79.924020317602967" zone="Zone 4" incidentdate="2016-03-26" incidenttime="11:00:00" incidentnumber="16054100" address="1000 block Shady Ave" type="OFFENSE" age="" gender="" description="*********************************************** &lt;br/&gt;3304, Criminal Mischief.&lt;br/&gt;"/><marker lat="40.404180017291715" lng="-79.989382149826483" zone="Zone 3" incidentdate="2016-03-26" incidenttime="17:23:00" incidentnumber="16054273" address="1200 block Amanda St" type="OFFENSE" age="" gender="" description="*********************************************** &lt;br/&gt;4106, Access Device Fraud&lt;br/&gt;4120, Identity Theft&lt;br/&gt;"/><marker lat="40.453881093138619" lng="-79.873029877694393" zone="Zone 5" incidentdate="2016-03-26" incidenttime="19:50:00" incidentnumber="16054390" address="2200 block East Hills Dr" type="OFFENSE" age="" gender="" description="*********************************************** &lt;br/&gt;3502, Burglary.&lt;br/&gt;"/><marker lat="40.474233959839715" lng="-80.034794160679397" zone="Zone 2" incidentdate="2016-03-26" incidenttime="10:15:00" incidentnumber="16054079" address="3200 block McClure Ave" type="OFFENSE" age="" gender="" description="*********************************************** &lt;br/&gt;3745, Accidents Involving Damage to Unattended Veh.or Prop.&lt;br/&gt;"/><marker lat="40.450813726288715" lng="-79.972243374536816" zone="Zone 2" incidentdate="2016-03-26" incidenttime="13:05:00" incidentnumber="16054147" address="Chauncey Dr &amp; Bedford Ave" type="OFFENSE" age="" gender="" description="*********************************************** &lt;br/&gt;3503(b)(1)(ii), Defiant Trespass Notice Posted by Sign(s)&lt;br/&gt;601.08(a), Alcohol or Liquor Consumption on Streets or Sidewalks&lt;br/&gt;7513, Restriction on Alcoholic Beverages - Open Container&lt;br/&gt;3503.B1II, DEF. TRESPASS POSTED&lt;br/&gt;"/><marker lat="40.456420425986579" lng="-79.99873493209779" zone="Zone 5" incidentdate="2016-03-26" incidenttime="08:00:00" incidentnumber="16054087" address="East Hills" type="OFFENSE" age="" gender="" description="*********************************************** &lt;br/&gt;3921(a), Theft by Unlawful Taking or Disposition - Movable item&lt;br/&gt;"/><marker lat="40.453539170738004" lng="-80.000575279128412" zone="Zone 1" incidentdate="2016-03-26" incidenttime="20:32:00" incidentnumber="16054408" address="500 block East Ohio St" type="OFFENSE" age="" gender="" description="*********************************************** &lt;br/&gt;9488, False  Burglar Alarm&lt;br/&gt;"/><marker lat="40.473200420305879" lng="-80.002867679101314" zone="Zone 1" incidentdate="2016-03-26" incidenttime="02:53:00" incidentnumber="16053954" address="Essen St &amp; Penfort St" type="OFFENSE" age="" gender="" description="*********************************************** &lt;br/&gt;1543, Driving While Operating Privilege is Suspended or Revoked.&lt;br/&gt;3802(a)(1), DUI - General Impairment&lt;br/&gt;3802(c), DUI - Highest Rate of Alcohol - BAC &gt;= .16%&lt;br/&gt;3112, Traffic-Control Signals.&lt;br/&gt;3323, Stop Signs and Yield Signs.&lt;br/&gt;"/><marker lat="40.423858090267018" lng="-79.924020317602967" zone="Zone 4" incidentdate="2016-03-26" incidenttime="13:00:00" incidentnumber="16054149" address="1000 block Shady Ave" type="OFFENSE" age="" gender="" description="*********************************************** &lt;br/&gt;3304, Criminal Mischief.&lt;br/&gt;"/><marker lat="40.475970803438344" lng="-80.003076972725822" zone="Zone 1" incidentdate="2016-03-26" incidenttime="02:55:00" incidentnumber="16053957" address="100 block Hazlett St" type="OFFENSE" age="" gender="" description="*********************************************** &lt;br/&gt;029, Missing Juvenile&lt;br/&gt;"/><marker lat="40.481602252761284" lng="-79.95175590738765" zone="Zone 2" incidentdate="2016-03-26" incidenttime="18:22:00" incidentnumber="16054326" address="53rd St &amp; Carnegie St" type="OFFENSE" age="" gender="" description="*********************************************** &lt;br/&gt;13(a)(32), Paraphernalia - Use or Possession&lt;br/&gt;"/><marker lat="40.467069537658702" lng="-79.934770755256238" zone="Zone 5" incidentdate="2016-03-26" incidenttime="02:09:00" incidentnumber="16053925" address="300 block N Aiken Ave" type="OFFENSE" age="" gender="" description="*********************************************** &lt;br/&gt;3701, Robbery.&lt;br/&gt;"/><marker lat="40.461585779613792" lng="-80.015726619392993" zone="Zone 1" incidentdate="2016-03-26" incidenttime="23:08:00" incidentnumber="16054486" address="Overlook St" type="OFFENSE" age="" gender="" description="*********************************************** &lt;br/&gt;2701, Simple Assault.&lt;br/&gt;"/><marker lat="40.454806568300299" lng="-79.894826159537004" zone="Zone 5" incidentdate="2016-03-26" incidenttime="13:34:00" incidentnumber="16054165" address="7300 block Kelly St" type="OFFENSE" age="" gender="" description="*********************************************** &lt;br/&gt;2701(b)(1), Simple Assault - Fight or Scuffle Entered by Mutual Consent&lt;br/&gt;"/><marker lat="40.455163784473093" lng="-80.054550909657195" zone="Zone 6" incidentdate="2016-03-26" incidenttime="18:12:00" incidentnumber="16054320" address="3000 block Landis St" type="OFFENSE" age="" gender="" description="*********************************************** &lt;br/&gt;13(a)(16), Possession of Controlled Substance&lt;br/&gt;13(a)(32), Paraphernalia - Use or Possession&lt;br/&gt;4910, Tampering with or Fabricating Physical Evidence.&lt;br/&gt;1543, Driving While Operating Privilege is Suspended or Revoked.&lt;br/&gt;4703, Operation of Vehicle without Official Certif. of Inspection&lt;br/&gt;7741, Head Lamps and Tail Lamps&lt;br/&gt;"/><marker lat="40.420694780672015" lng="-79.965743073862626" zone="Zone 3" incidentdate="2016-03-26" incidenttime="01:00:00" incidentnumber="16054109" address="3100 block Mission St" type="OFFENSE" age="" gender="" description="*********************************************** &lt;br/&gt;3934, Theft from Vehicle&lt;br/&gt;"/><marker lat="40.428478873788158" lng="-79.980265799395895" zone="Zone 3" incidentdate="2016-03-26" incidenttime="10:30:00" incidentnumber="16054082" address="1800 block E Carson St" type="OFFENSE" age="" gender="" description="*********************************************** &lt;br/&gt;13(a)(16), Possession of Controlled Substance&lt;br/&gt;13(a)(32), Paraphernalia - Use or Possession&lt;br/&gt;1543, Driving While Operating Privilege is Suspended or Revoked.&lt;br/&gt;"/><marker lat="40.417594970280931" lng="-79.978561382443203" zone="Zone 1" incidentdate="2016-03-26" incidenttime="18:18:00" incidentnumber="16054322" address="2000 block Spring Garden Ave" type="OFFENSE" age="" gender="" description="*********************************************** &lt;br/&gt;3929, Retail Theft.&lt;br/&gt;"/><marker lat="40.46983150999074" lng="-80.007266655663884" zone="Zone 1" incidentdate="2016-03-26" incidenttime="18:40:00" incidentnumber="16054341" address="2500 block Maple Ave" type="OFFENSE" age="" gender="" description="*********************************************** &lt;br/&gt;9492, Dog Bite&lt;br/&gt;"/><marker lat="40.429438536176598" lng="-79.984214133354882" zone="Zone 3" incidentdate="2016-03-26" incidenttime="02:17:00" incidentnumber="16053932" address="S 14th St" type="OFFENSE" age="" gender="" description="*********************************************** &lt;br/&gt;601.16, Public Urination And Defecation&lt;br/&gt;"/><marker lat="40.428758587531433" lng="-79.980561963586084" zone="Zone 3" incidentdate="2016-03-26" incidenttime="18:25:00" incidentnumber="16054329" address="S 18th St &amp; E Carson St" type="OFFENSE" age="" gender="" description="*********************************************** &lt;br/&gt;3736, Reckless Driving&lt;br/&gt;1543, Driving While Operating Privilege is Suspended or Revoked.&lt;br/&gt;3742, Accidents Involving Death or Personal Injury&lt;br/&gt;3542, Right-Of-Way of Pedestrians in Crosswalks.&lt;br/&gt;"/><marker lat="40.44956618746032" lng="-79.987646691015016" zone="Zone 2" incidentdate="2016-03-26" incidenttime="00:02:00" incidentnumber="16053846" address="1600 block Smallman St" type="OFFENSE" age="" gender="" description="*********************************************** &lt;br/&gt;13(a)(16), Possession of Controlled Substance&lt;br/&gt;13(a)(30), Possession w/ Intent to Del. Controlled Substance&lt;br/&gt;13(a)(31), Marijuana: Possession Small Amount&lt;br/&gt;13(a)(32), Paraphernalia - Use or Possession&lt;br/&gt;6106, Firearms not to be Carried without a License.&lt;br/&gt;"/><marker lat="40.454016520179565" lng="-79.895644292400064" zone="Zone 5" incidentdate="2016-03-26" incidenttime="10:45:00" incidentnumber="16054131" address="7300 block Hamilton Ave" type="OFFENSE" age="" gender="" description="*********************************************** &lt;br/&gt;4304(a)(1), Endangering Welfare of Children - Course of Conduct Enhanced&lt;br/&gt;"/><marker lat="40.43584366632922" lng="-80.033959942268069" zone="Zone 6" incidentdate="2016-03-26" incidenttime="03:40:00" incidentnumber="16053977" address="400 block Greentree Rd" type="OFFENSE" age="" gender="" description="*********************************************** &lt;br/&gt;9488, False  Burglar Alarm&lt;br/&gt;"/><marker lat="40.452404907195394" lng="-80.014018734056577" zone="Zone 1" incidentdate="2016-03-26" incidenttime="02:20:00" incidentnumber="16053947" address="Brighton Rd &amp; Western Ave" type="OFFENSE" age="" gender="" description="*********************************************** &lt;br/&gt;3743, Accidents Involving Damage to Attended Veh. or Property&lt;br/&gt;"/><marker lat="40.457627539844381" lng="-79.931466548365393" zone="Zone 4" incidentdate="2016-03-26" incidenttime="20:15:00" incidentnumber="16054422" address="5800 block Centre Ave" type="OFFENSE" age="" gender="" description="*********************************************** &lt;br/&gt;3745, Accidents Involving Damage to Unattended Veh.or Prop.&lt;br/&gt;"/><marker lat="40.426953165177082" lng="-79.980740321759981" zone="Zone 3" incidentdate="2016-03-26" incidenttime="02:51:00" incidentnumber="16043502" address="S 18th St &amp; Jane St" type="OFFENSE" age="" gender="" description="*********************************************** &lt;br/&gt;2709(a)(1), Harassment by Physical Contact, or Attempts or Threats&lt;br/&gt;2706, Terroristic Threats.&lt;br/&gt;2709(b), Stalking&lt;br/&gt;2701(a)(3), Simple Assault - Attempts by Physical Menace&lt;br/&gt;"/><marker lat="40.449606365527259" lng="-79.974270684591801" zone="Zone 2" incidentdate="2016-03-26" incidenttime="18:45:00" incidentnumber="16054338" address="2400 block Bedford Ave" type="OFFENSE" age="" gender="" description="*********************************************** &lt;br/&gt;9497, Aided Case&lt;br/&gt;"/><marker lat="40.395480945569119" lng="-80.022439553658558" zone="Zone 6" incidentdate="2016-03-26" incidenttime="17:42:00" incidentnumber="16054298" address="Wedgemere St &amp; Brookline Blvd" type="OFFENSE" age="" gender="" description="*********************************************** &lt;br/&gt;13(a)(16), Possession of Controlled Substance&lt;br/&gt;3802(a)(1), DUI - General Impairment&lt;br/&gt;"/><marker lat="40.469793755225126" lng="-79.963637597757284" zone="Zone 2" incidentdate="2016-03-26" incidenttime="00:10:00" incidentnumber="16053900" address="4000 block Foster St" type="OFFENSE" age="" gender="" description="*********************************************** &lt;br/&gt;9999, 9999 - (Misc. Incident):&lt;br/&gt;"/><marker lat="40.411115287863552" lng="-80.006028274962105" zone="Zone 3" incidentdate="2016-03-26" incidenttime="17:32:00" incidentnumber="16054293" address="Bausman St &amp; Saw Mill Run Blvd" type="OFFENSE" age="" gender="" description="*********************************************** &lt;br/&gt;13(a)(32), Paraphernalia - Use or Possession&lt;br/&gt;3301, Arson&lt;br/&gt;"/><marker lat="40.465093683923655" lng="-79.900310455728899" zone="Zone 5" incidentdate="2016-03-26" incidenttime="16:16:00" incidentnumber="16054254" address="6900 block Apple Ave" type="OFFENSE" age="" gender="" description="*********************************************** &lt;br/&gt;5503, Disorderly Conduct.&lt;br/&gt;5101, Obstructing Admin. of Law&lt;br/&gt;2709, Harassment (Non-Specific)&lt;br/&gt;2706, Terroristic Threats.&lt;br/&gt;5502, Failure of Disorderly Persons to Disperse&lt;br/&gt;"/><marker lat="40.454253754810765" lng="-79.886870603838318" zone="Zone 5" incidentdate="2016-03-26" incidenttime="07:05:00" incidentnumber="16054024" address="800 block Hale St" type="ARREST" age="19" gender="M" description="*********************************************** &lt;br/&gt;13(a)(16), Possession of Controlled Substance&lt;br/&gt;13(a)(32), Paraphernalia - Use or Possession&lt;br/&gt;3503, Criminal Trespass&lt;br/&gt;4914, False Identification to Law Enforcement Authorities&lt;br/&gt;5123, Contraband.&lt;br/&gt;4120, Identity Theft&lt;br/&gt;"/><marker lat="40.455163784473093" lng="-80.054550909657195" zone="Zone 6" incidentdate="2016-03-26" incidenttime="18:15:00" incidentnumber="16054320" address="3000 block Landis St" type="ARREST" age="33" gender="M" description="*********************************************** &lt;br/&gt;13(a)(16), Possession of Controlled Substance&lt;br/&gt;13(a)(32), Paraphernalia - Use or Possession&lt;br/&gt;4910, Tampering with or Fabricating Physical Evidence.&lt;br/&gt;1543, Driving While Operating Privilege is Suspended or Revoked.&lt;br/&gt;4703, Operation of Vehicle without Official Certif. of Inspection&lt;br/&gt;7741, Head Lamps and Tail Lamps&lt;br/&gt;"/><marker lat="40.411115287863552" lng="-80.006028274962105" zone="Zone 3" incidentdate="2016-03-26" incidenttime="17:02:00" incidentnumber="16054293" address="Bausman St &amp; Saw Mill Run Blvd" type="ARREST" age="34" gender="M" description="*********************************************** &lt;br/&gt;13(a)(32), Paraphernalia - Use or Possession&lt;br/&gt;3301, Arson&lt;br/&gt;"/><marker lat="40.488081814906529" lng="-79.894317224387123" zone="Zone 5" incidentdate="2016-03-26" incidenttime="16:00:00" incidentnumber="16031108" address="900 block Freeport Rd" type="ARREST" age="52" gender="M" description="*********************************************** &lt;br/&gt;3929, Retail Theft.&lt;br/&gt;903, Criminal Conspiracy.&lt;br/&gt;"/><marker lat="40.44956618746032" lng="-79.987646691015016" zone="Zone 2" incidentdate="2016-03-26" incidenttime="00:02:00" incidentnumber="16053846" address="1600 block Smallman St" type="ARREST" age="32" gender="M" description="*********************************************** &lt;br/&gt;13(a)(16), Possession of Controlled Substance&lt;br/&gt;13(a)(30), Possession w/ Intent to Del. Controlled Substance&lt;br/&gt;13(a)(31), Marijuana: Possession Small Amount&lt;br/&gt;13(a)(32), Paraphernalia - Use or Possession&lt;br/&gt;6106, Firearms not to be Carried without a License.&lt;br/&gt;"/><marker lat="40.44956618746032" lng="-79.987646691015016" zone="Zone 2" incidentdate="2016-03-26" incidenttime="01:32:00" incidentnumber="16053899" address="1600 block Smallman St" type="ARREST" age="29" gender="M" description="*********************************************** &lt;br/&gt;13(a)(16), Possession of Controlled Substance&lt;br/&gt;13(a)(31), Marijuana: Possession Small Amount&lt;br/&gt;6106, Firearms not to be Carried without a License.&lt;br/&gt;6105(a)(1), Persons not to possess, use, manufacture, control, sell or transfer firearms: Former convict enumerated in subsection (b)&lt;br/&gt;"/><marker lat="40.487823540011732" lng="-79.897614208935366" zone="Zone 5" incidentdate="2016-03-26" incidenttime="16:00:00" incidentnumber="16049131" address="800 block Freeport Rd" type="ARREST" age="52" gender="M" description="*********************************************** &lt;br/&gt;3929(a)(1), Retail Theft; takes possession of, carries away, or transfers displayed merchandise&lt;br/&gt;"/><marker lat="40.473200420305879" lng="-80.002867679101314" zone="Zone 1" incidentdate="2016-03-26" incidenttime="02:56:00" incidentnumber="16053954" address="Essen St &amp; Penfort St" type="ARREST" age="35" gender="M" description="*********************************************** &lt;br/&gt;1543, Driving While Operating Privilege is Suspended or Revoked.&lt;br/&gt;3802(a)(1), DUI - General Impairment&lt;br/&gt;3802(c), DUI - Highest Rate of Alcohol - BAC &gt;= .16%&lt;br/&gt;3112, Traffic-Control Signals.&lt;br/&gt;3323, Stop Signs and Yield Signs.&lt;br/&gt;"/><marker lat="40.452149094218932" lng="-80.00131982951747" zone="Zone 1" incidentdate="2016-03-26" incidenttime="19:33:00" incidentnumber="16054370" address="Cedar Ave &amp; Lockhart St" type="ARREST" age="50" gender="M" description="*********************************************** &lt;br/&gt;13(a)(16), Possession of Controlled Substance&lt;br/&gt;13(a)(32), Paraphernalia - Use or Possession&lt;br/&gt;"/><marker lat="40.476216742369722" lng="-80.033415163032615" zone="Zone 1" incidentdate="2016-03-26" incidenttime="03:34:00" incidentnumber="16053961" address="1400 block Woods Run Ave" type="ARREST" age="27" gender="F" description="*********************************************** &lt;br/&gt;13(a)(16), Possession of Controlled Substance&lt;br/&gt;13(a)(32), Paraphernalia - Use or Possession&lt;br/&gt;3745, Accidents Involving Damage to Unattended Veh.or Prop.&lt;br/&gt;3802(a)(1), DUI - General Impairment&lt;br/&gt;3802(b), DUI - High Rate of Alchol - BAC &gt;=.10% &lt;.16%&lt;br/&gt;"/><marker lat="40.411115287863552" lng="-80.006028274962105" zone="Zone 3" incidentdate="2016-03-26" incidenttime="17:02:00" incidentnumber="16054293" address="Bausman St &amp; Saw Mill Run Blvd" type="ARREST" age="33" gender="M" description="*********************************************** &lt;br/&gt;13(a)(32), Paraphernalia - Use or Possession&lt;br/&gt;3301, Arson&lt;br/&gt;"/><marker lat="40.460768407974605" lng="-80.054473919507714" zone="Zone 6" incidentdate="2016-03-26" incidenttime="05:50:00" incidentnumber="16054001" address="400 block Stadium St" type="ARREST" age="20" gender="F" description="*********************************************** &lt;br/&gt;2701, Simple Assault.&lt;br/&gt;"/><marker lat="40.444936606488817" lng="-79.99385858611916" zone="Zone 2" incidentdate="2016-03-26" incidenttime="01:40:00" incidentnumber="16053892" address="11th St &amp; Penn Ave" type="ARREST" age="43" gender="F" description="*********************************************** &lt;br/&gt;3802(a)(1), DUI - General Impairment&lt;br/&gt;3112, Traffic-Control Signals.&lt;br/&gt;3802(b), DUI - High Rate of Alchol - BAC &gt;=.10% &lt;.16%&lt;br/&gt;"/><marker lat="40.395480945569119" lng="-80.022439553658558" zone="Zone 6" incidentdate="2016-03-26" incidenttime="17:50:00" incidentnumber="16054298" address="Wedgemere St &amp; Brookline Blvd" type="ARREST" age="57" gender="M" description="*********************************************** &lt;br/&gt;13(a)(16), Possession of Controlled Substance&lt;br/&gt;3802(a)(1), DUI - General Impairment&lt;br/&gt;"/><marker lat="40.454806568300299" lng="-79.894826159537004" zone="Zone 5" incidentdate="2016-03-26" incidenttime="13:45:00" incidentnumber="16054165" address="7300 block Kelly St" type="ARREST" age="22" gender="M" description="*********************************************** &lt;br/&gt;2701(b)(1), Simple Assault - Fight or Scuffle Entered by Mutual Consent&lt;br/&gt;"/><marker lat="40.465093683923655" lng="-79.900310455728899" zone="Zone 5" incidentdate="2016-03-26" incidenttime="16:16:00" incidentnumber="16054254" address="6900 block Apple Ave" type="ARREST" age="40" gender="F" description="*********************************************** &lt;br/&gt;5503, Disorderly Conduct.&lt;br/&gt;5101, Obstructing Admin. of Law&lt;br/&gt;2709, Harassment (Non-Specific)&lt;br/&gt;2706, Terroristic Threats.&lt;br/&gt;5502, Failure of Disorderly Persons to Disperse&lt;br/&gt;"/><marker lat="40.428758587531433" lng="-79.980561963586084" zone="Zone 3" incidentdate="2016-03-26" incidenttime="18:34:00" incidentnumber="16054329" address="S 18th St &amp; E Carson St" type="ARREST" age="63" gender="M" description="*********************************************** &lt;br/&gt;3736, Reckless Driving&lt;br/&gt;1543, Driving While Operating Privilege is Suspended or Revoked.&lt;br/&gt;3742, Accidents Involving Death or Personal Injury&lt;br/&gt;3542, Right-Of-Way of Pedestrians in Crosswalks.&lt;br/&gt;"/><marker lat="40.374761644551818" lng="-79.912731323712478" zone="Zone 4" incidentdate="2016-03-26" incidenttime="00:30:00" incidentnumber="16011385" address="4900 block Lougean Ave" type="ARREST" age="32" gender="M" description="*********************************************** &lt;br/&gt;3502, Burglary.&lt;br/&gt;3921, Theft by Unlawful Taking or Disposition.&lt;br/&gt;"/><marker lat="40.455504998738647" lng="-80.007850467221047" zone="Zone 5" incidentdate="2016-03-26" incidenttime="11:50:00" incidentnumber="16038348" address="100 block N Millvale Ave" type="ARREST" age="40" gender="F" description="*********************************************** &lt;br/&gt;3502, Burglary.&lt;br/&gt;2701, Simple Assault.&lt;br/&gt;"/><marker lat="40.428478873788158" lng="-79.980265799395895" zone="Zone 3" incidentdate="2016-03-26" incidenttime="11:00:00" incidentnumber="16054082" address="1800 block E Carson St" type="ARREST" age="32" gender="M" description="*********************************************** &lt;br/&gt;13(a)(16), Possession of Controlled Substance&lt;br/&gt;13(a)(32), Paraphernalia - Use or Possession&lt;br/&gt;1543, Driving While Operating Privilege is Suspended or Revoked.&lt;br/&gt;"/><marker lat="40.426953165177082" lng="-79.980740321759981" zone="Zone 3" incidentdate="2016-03-26" incidenttime="03:08:00" incidentnumber="16043502" address="S 18th St &amp; Jane St" type="ARREST" age="26" gender="M" description="*********************************************** &lt;br/&gt;2709(a)(1), Harassment by Physical Contact, or Attempts or Threats&lt;br/&gt;2706, Terroristic Threats.&lt;br/&gt;2709(b), Stalking&lt;br/&gt;2701(a)(3), Simple Assault - Attempts by Physical Menace&lt;br/&gt;"/><marker lat="40.454806568300299" lng="-79.894826159537004" zone="Zone 5" incidentdate="2016-03-26" incidenttime="13:43:00" incidentnumber="16054165" address="7300 block Kelly St" type="ARREST" age="24" gender="F" description="*********************************************** &lt;br/&gt;2701(b)(1), Simple Assault - Fight or Scuffle Entered by Mutual Consent&lt;br/&gt;"/><marker lat="40.465093683923655" lng="-79.900310455728899" zone="Zone 5" incidentdate="2016-03-26" incidenttime="16:16:00" incidentnumber="16054254" address="6900 block Apple Ave" type="ARREST" age="22" gender="M" description="*********************************************** &lt;br/&gt;5503, Disorderly Conduct.&lt;br/&gt;5101, Obstructing Admin. of Law&lt;br/&gt;2709, Harassment (Non-Specific)&lt;br/&gt;2706, Terroristic Threats.&lt;br/&gt;5502, Failure of Disorderly Persons to Disperse&lt;br/&gt;"/><marker lat="40.458778859290838" lng="-79.970703399584181" zone="Zone 2" incidentdate="2016-03-26" incidenttime="00:58:00" incidentnumber="16053876" address="3100 block Liberty Ave" type="ARREST" age="35" gender="M" description="*********************************************** &lt;br/&gt;2701, Simple Assault.&lt;br/&gt;5505, Public Drunkenness&lt;br/&gt;2706, Terroristic Threats.&lt;br/&gt;"/><marker lat="40.481602252761284" lng="-79.95175590738765" zone="Zone 2" incidentdate="2016-03-26" incidenttime="18:25:00" incidentnumber="16054326" address="53rd St &amp; Carnegie St" type="ARREST" age="38" gender="M" description="*********************************************** &lt;br/&gt;13(a)(32), Paraphernalia - Use or Possession&lt;br/&gt;"/><marker lat="40.454016520179565" lng="-79.895644292400064" zone="Zone 5" incidentdate="2016-03-26" incidenttime="10:45:00" incidentnumber="16054131" address="7300 block Hamilton Ave" type="ARREST" age="27" gender="M" description="*********************************************** &lt;br/&gt;4304(a)(1), Endangering Welfare of Children - Course of Conduct Enhanced&lt;br/&gt;"/><marker lat="40.448885490296938" lng="-79.98750584314844" zone="Zone 4" incidentdate="2016-03-26" incidenttime="20:15:00" incidentnumber="16054371" address="Penn Ave" type="ARREST" age="21" gender="M" description="*********************************************** &lt;br/&gt;3701, Robbery.&lt;br/&gt;"/><marker lat="40.421531877189601" lng="-79.993577564166102" zone="Zone 3" incidentdate="2016-03-26" incidenttime="21:48:00" incidentnumber="16054452" address="800 block E Warrington Ave" type="ARREST" age="38" gender="M" description="*********************************************** &lt;br/&gt;5121, Escape.&lt;br/&gt;"/><marker lat="40.428290206220495" lng="-79.980608463191615" zone="Zone 3" incidentdate="2016-03-26" incidenttime="01:20:00" incidentnumber="16053886" address="Carey Way &amp; S 18th St" type="ARREST" age="41" gender="F" description="*********************************************** &lt;br/&gt;13(a)(31), Marijuana: Possession Small Amount&lt;br/&gt;"/><marker lat="40.488081814906529" lng="-79.894317224387123" zone="Zone 5" incidentdate="2016-03-26" incidenttime="16:00:00" incidentnumber="16045001" address="900 block Freeport Rd" type="ARREST" age="40" gender="F" description="*********************************************** &lt;br/&gt;3503, Criminal Trespass&lt;br/&gt;3929, Retail Theft.&lt;br/&gt;903, Criminal Conspiracy.&lt;br/&gt;"/><marker lat="40.454016520179565" lng="-79.895644292400064" zone="Zone 5" incidentdate="2016-03-26" incidenttime="10:45:00" incidentnumber="16046567" address="7300 block Hamilton Ave" type="ARREST" age="27" gender="M" description="*********************************************** &lt;br/&gt;2701, Simple Assault.&lt;br/&gt;"/><marker lat="40.450813726288715" lng="-79.972243374536816" zone="Zone 2" incidentdate="2016-03-26" incidenttime="14:20:00" incidentnumber="16054147" address="Chauncey Dr &amp; Bedford Ave" type="ARREST" age="24" gender="M" description="*********************************************** &lt;br/&gt;3503(b)(1)(ii), Defiant Trespass Notice Posted by Sign(s)&lt;br/&gt;601.08(a), Alcohol or Liquor Consumption on Streets or Sidewalks&lt;br/&gt;7513, Restriction on Alcoholic Beverages - Open Container&lt;br/&gt;3503.B1II, DEF. TRESPASS POSTED&lt;br/&gt;"/><marker lat="40.396168020757081" lng="-79.987427632359683" zone="Zone 3" incidentdate="2016-03-26" incidenttime="21:48:00" incidentnumber="16000489" address="900 block Brownsville Rd" type="ARREST" age="38" gender="M" description="*********************************************** &lt;br/&gt;3921, Theft by Unlawful Taking or Disposition.&lt;br/&gt;903, Criminal Conspiracy.&lt;br/&gt;"/></markers>
