<?xml version="1.0"?>
<markers><marker lat="40.468669701329091" lng="-80.001196187785041" zone="Zone 1" incidentdate="2015-08-15" incidenttime="21:13:00" incidentnumber="15153272" address="2200 block East St" type="OFFENSE" age="" gender="" description="*********************************************** &lt;br/&gt;2709, Harassment (Non-Specific)&lt;br/&gt;"/><marker lat="40.425685326422098" lng="-79.969174699155474" zone="Zone 3" incidentdate="2015-08-15" incidenttime="18:00:00" incidentnumber="15153112" address="2600 block Jane St" type="OFFENSE" age="" gender="" description="*********************************************** &lt;br/&gt;3934, Theft from Vehicle&lt;br/&gt;"/><marker lat="40.428606966018023" lng="-79.985175111647919" zone="Zone 3" incidentdate="2015-08-15" incidenttime="16:00:00" incidentnumber="15153254" address="1300 block E Carson St" type="OFFENSE" age="" gender="" description="*********************************************** &lt;br/&gt;3304, Criminal Mischief.&lt;br/&gt;"/><marker lat="40.478512635239589" lng="-79.947296144888767" zone="Zone 2" incidentdate="2015-08-15" incidenttime="23:00:00" incidentnumber="15153301" address="5300 block Camelia St" type="OFFENSE" age="" gender="" description="*********************************************** &lt;br/&gt;2701, Simple Assault.&lt;br/&gt;"/><marker lat="40.4577857" lng="-80.0630272" zone="Zone 6" incidentdate="2015-08-15" incidenttime="01:28:00" incidentnumber="15152641" address="3300 block Felbinger Way" type="OFFENSE" age="" gender="" description="*********************************************** &lt;br/&gt;9999, 9999 - (Misc. Incident):&lt;br/&gt;"/><marker lat="40.445360252034405" lng="-79.970828570004869" zone="Zone 2" incidentdate="2015-08-15" incidenttime="21:30:00" incidentnumber="15153244" address="2500 block Centre Ave" type="OFFENSE" age="" gender="" description="*********************************************** &lt;br/&gt;3304, Criminal Mischief.&lt;br/&gt;"/><marker lat="40.454568730584761" lng="-79.999389413807066" zone="Zone 1" incidentdate="2015-08-15" incidenttime="00:30:00" incidentnumber="15152669" address="Foreland St &amp; Middle St" type="OFFENSE" age="" gender="" description="*********************************************** &lt;br/&gt;5902(e), Patronizing a Prostitute&lt;br/&gt;902, Criminal Solicitation.&lt;br/&gt;"/><marker lat="40.384413993627369" lng="-79.994277181866664" zone="Zone 3" incidentdate="2015-08-15" incidenttime="10:45:00" incidentnumber="15152876" address="Maytide St" type="OFFENSE" age="" gender="" description="*********************************************** &lt;br/&gt;9489, Found Property&lt;br/&gt;"/><marker lat="40.428834925885639" lng="-79.982047583109136" zone="Zone 3" incidentdate="2015-08-15" incidenttime="02:40:00" incidentnumber="15152705" address="E Carson St &amp; S 17th St" type="OFFENSE" age="" gender="" description="*********************************************** &lt;br/&gt;2709(a)(1), Harassment by Physical Contact, or Attempts or Threats&lt;br/&gt;5104, Resisting Arrest or Other Law Enforcement.&lt;br/&gt;5505, Public Drunkenness&lt;br/&gt;"/><marker lat="40.430208650087671" lng="-79.974460898016957" zone="Zone 3" incidentdate="2015-08-15" incidenttime="15:30:00" incidentnumber="15153115" address="S 22nd St &amp; Wharton St" type="OFFENSE" age="" gender="" description="*********************************************** &lt;br/&gt;3304, Criminal Mischief.&lt;br/&gt;"/><marker lat="40.453881093138619" lng="-79.873029877694393" zone="Zone 5" incidentdate="2015-08-15" incidenttime="05:30:00" incidentnumber="15152761" address="2200 block East Hills Dr" type="OFFENSE" age="" gender="" description="*********************************************** &lt;br/&gt;2701(a)(3), Simple Assault - Attempts by Physical Menace&lt;br/&gt;2706, Terroristic Threats.&lt;br/&gt;4914(A), False Identification to Law Enforcement&lt;br/&gt;"/><marker lat="40.443926593484562" lng="-79.918968983836862" zone="Zone 4" incidentdate="2015-08-15" incidenttime="06:45:00" incidentnumber="15152785" address="6400 block Wilkins Ave" type="OFFENSE" age="" gender="" description="*********************************************** &lt;br/&gt;3502, Burglary.&lt;br/&gt;"/><marker lat="40.42571264233959" lng="-79.97490552459341" zone="Zone 3" incidentdate="2015-08-15" incidenttime="12:45:00" incidentnumber="15152965" address="S 22nd St &amp; Mary St" type="OFFENSE" age="" gender="" description="*********************************************** &lt;br/&gt;3304, Criminal Mischief.&lt;br/&gt;"/><marker lat="40.438917876440819" lng="-80.001250590800993" zone="Zone 2" incidentdate="2015-08-15" incidenttime="17:50:00" incidentnumber="15153113" address="300 block Wood St" type="OFFENSE" age="" gender="" description="*********************************************** &lt;br/&gt;2701, Simple Assault.&lt;br/&gt;2709(a)(1), Harassment by Physical Contact, or Attempts or Threats&lt;br/&gt;5503, Disorderly Conduct.&lt;br/&gt;2706, Terroristic Threats.&lt;br/&gt;"/><marker lat="40.464136906438732" lng="-79.920415720327441" zone="Zone 5" incidentdate="2015-08-15" incidenttime="18:40:00" incidentnumber="15153140" address="6200 block Kalida St" type="OFFENSE" age="" gender="" description="*********************************************** &lt;br/&gt;2702, Aggravated Assault.&lt;br/&gt;"/><marker lat="40.455245760708152" lng="-80.02016366701227" zone="Zone 1" incidentdate="2015-08-15" incidenttime="07:16:00" incidentnumber="15152786" address="1000 block Pennsylvania Ave" type="OFFENSE" age="" gender="" description="*********************************************** &lt;br/&gt;5505, Public Drunkenness&lt;br/&gt;3503(b.1), Criminal Trespass - Simple Trespasser&lt;br/&gt;"/><marker lat="40.450920630788971" lng="-79.964888378791841" zone="Zone 2" incidentdate="2015-08-15" incidenttime="19:50:00" incidentnumber="15153202" address="600 block Herron Ave" type="OFFENSE" age="" gender="" description="*********************************************** &lt;br/&gt;8106, Shots Fired&lt;br/&gt;"/><marker lat="40.405788438531324" lng="-79.933411006422901" zone="Zone 4" incidentdate="2015-08-15" incidenttime="01:24:00" incidentnumber="15152638" address="700 block Johnston Ave" type="OFFENSE" age="" gender="" description="*********************************************** &lt;br/&gt;2707.1, Discharge of a Firearm into Occupied Structure&lt;br/&gt;"/><marker lat="40.468650269118584" lng="-80.02668669158534" zone="Zone 1" incidentdate="2015-08-15" incidenttime="08:02:00" incidentnumber="15152793" address="2600 block Stayton St" type="OFFENSE" age="" gender="" description="*********************************************** &lt;br/&gt;9488, False  Burglar Alarm&lt;br/&gt;"/><marker lat="40.467686821916217" lng="-79.934616925280409" zone="Zone 5" incidentdate="2015-08-15" incidenttime="00:07:00" incidentnumber="15152586" address="N Aiken Ave &amp; Hillcrest St" type="OFFENSE" age="" gender="" description="*********************************************** &lt;br/&gt;13(a)(16), Possession of Controlled Substance&lt;br/&gt;3334, Turning Movements and Required Signals.&lt;br/&gt;13(a)(32), Paraphernalia - Use or Possession&lt;br/&gt;4303, General Lighting Requirements.&lt;br/&gt;"/><marker lat="40.444136782158047" lng="-80.000993475333104" zone="Zone 2" incidentdate="2015-08-15" incidenttime="02:47:00" incidentnumber="15152695" address="100 block 7th St" type="OFFENSE" age="" gender="" description="*********************************************** &lt;br/&gt;3921(a), Theft by Unlawful Taking or Disposition - Movable item&lt;br/&gt;"/><marker lat="40.480414114073213" lng="-79.954451809989976" zone="Zone 2" incidentdate="2015-08-15" incidenttime="17:12:00" incidentnumber="15153101" address="52nd St &amp; Butler St" type="OFFENSE" age="" gender="" description="*********************************************** &lt;br/&gt;1543, Driving While Operating Privilege is Suspended or Revoked.&lt;br/&gt;3743, Accidents Involving Damage to Attended Veh. or Property&lt;br/&gt;3802(a)(1), DUI - General Impairment&lt;br/&gt;3745, Accidents Involving Damage to Unattended Veh.or Prop.&lt;br/&gt;"/><marker lat="40.441732921543291" lng="-80.006405498352649" zone="Zone 2" incidentdate="2015-08-15" incidenttime="16:27:00" incidentnumber="15153061" address="600 block Commonwealth Pl" type="OFFENSE" age="" gender="" description="*********************************************** &lt;br/&gt;2702, Aggravated Assault.&lt;br/&gt;3701, Robbery.&lt;br/&gt;"/><marker lat="40.428648587693665" lng="-79.984030978724903" zone="Zone 3" incidentdate="2015-08-15" incidenttime="02:57:00" incidentnumber="15152704" address="1400 block E Carson St" type="OFFENSE" age="" gender="" description="*********************************************** &lt;br/&gt;2709(a), Harassment.&lt;br/&gt;5505, Public Drunkenness&lt;br/&gt;"/><marker lat="40.425321074984986" lng="-79.969388115258056" zone="Zone 3" incidentdate="2015-08-15" incidenttime="14:50:00" incidentnumber="15153014" address="S 26th St &amp; Harcum Way" type="OFFENSE" age="" gender="" description="*********************************************** &lt;br/&gt;3934, Theft from Vehicle&lt;br/&gt;"/><marker lat="40.455090828128789" lng="-80.008627965480215" zone="Zone 1" incidentdate="2015-08-15" incidenttime="00:17:00" incidentnumber="15152595" address="W North Ave &amp; Arch St" type="OFFENSE" age="" gender="" description="*********************************************** &lt;br/&gt;3743, Accidents Involving Damage to Attended Veh. or Property&lt;br/&gt;"/><marker lat="40.406535126933434" lng="-79.947853494749808" zone="Zone 4" incidentdate="2015-08-15" incidenttime="11:30:00" incidentnumber="15152972" address="5100 block Langhorn St" type="OFFENSE" age="" gender="" description="*********************************************** &lt;br/&gt;2709, Harassment (Non-Specific)&lt;br/&gt;"/><marker lat="40.391808979644708" lng="-80.016709964153662" zone="Zone 6" incidentdate="2015-08-15" incidenttime="01:11:00" incidentnumber="15152629" address="Brookline Blvd &amp; Starkamp St" type="OFFENSE" age="" gender="" description="*********************************************** &lt;br/&gt;4107(b)(2), Vehicle Equipment Standards&lt;br/&gt;3802(a)(1), DUI - General Impairment&lt;br/&gt;9501, Bench Warrant&lt;br/&gt;4303, General Lighting Requirements.&lt;br/&gt;"/><marker lat="40.41136888220619" lng="-79.990299456571108" zone="Zone 3" incidentdate="2015-08-15" incidenttime="17:00:00" incidentnumber="15153095" address="200 block Knox Ave" type="OFFENSE" age="" gender="" description="*********************************************** &lt;br/&gt;2702, Aggravated Assault.&lt;br/&gt;"/><marker lat="40.468776455045955" lng="-79.918620668766948" zone="Zone 5" incidentdate="2015-08-15" incidenttime="06:19:00" incidentnumber="15152771" address="6100 block Stanton Ave" type="OFFENSE" age="" gender="" description="*********************************************** &lt;br/&gt;2701, Simple Assault.&lt;br/&gt;"/><marker lat="40.470559349698817" lng="-79.994946939312101" zone="Zone 1" incidentdate="2015-08-15" incidenttime="23:11:00" incidentnumber="15153319" address="400 block East Commons" type="OFFENSE" age="" gender="" description="*********************************************** &lt;br/&gt;4910, Tampering with or Fabricating Physical Evidence.&lt;br/&gt;13(a)(16), Possession of Controlled Substance&lt;br/&gt;13(a)(32), Paraphernalia - Use or Possession&lt;br/&gt;4914, False Identification to Law Enforcement Authorities&lt;br/&gt;9501, Bench Warrant&lt;br/&gt;"/><marker lat="40.434209319626923" lng="-80.005743364413775" zone="Zone 3" incidentdate="2015-08-15" incidenttime="20:35:00" incidentnumber="15153237" address="200 block Station Square Dr W" type="OFFENSE" age="" gender="" description="*********************************************** &lt;br/&gt;9018, Accidental Fire&lt;br/&gt;"/><marker lat="40.441024249715781" lng="-79.95736833680553" zone="Zone 4" incidentdate="2015-08-15" incidenttime="03:50:00" incidentnumber="15152733" address="3700 block Forbes Ave" type="OFFENSE" age="" gender="" description="*********************************************** &lt;br/&gt;5505, Public Drunkenness&lt;br/&gt;6308(a), Underage Purchase, Consume, Possessed or Transport Liquor&lt;br/&gt;5503(a)(4), DISORDERLY CONDUCT - HAZARDOUS/PHYS. OFF&lt;br/&gt;"/><marker lat="40.426867325069601" lng="-79.949490078436583" zone="Zone 4" incidentdate="2015-08-15" incidenttime="06:00:00" incidentnumber="15153110" address="200 block Saline St" type="OFFENSE" age="" gender="" description="*********************************************** &lt;br/&gt;3502, Burglary.&lt;br/&gt;"/><marker lat="40.457995756350627" lng="-79.963967646530719" zone="Zone 2" incidentdate="2015-08-15" incidenttime="17:10:00" incidentnumber="15153088" address="Herron Ave &amp; Melwood Ave" type="OFFENSE" age="" gender="" description="*********************************************** &lt;br/&gt;9501, Bench Warrant&lt;br/&gt;"/><marker lat="40.419095680584391" lng="-79.993657851548321" zone="Zone 3" incidentdate="2015-08-15" incidenttime="01:48:00" incidentnumber="15152679" address="800 block Freeland St" type="OFFENSE" age="" gender="" description="*********************************************** &lt;br/&gt;2702, Aggravated Assault.&lt;br/&gt;3304, Criminal Mischief.&lt;br/&gt;"/><marker lat="40.439517594123451" lng="-79.95594514096048" zone="Zone 4" incidentdate="2015-08-15" incidenttime="02:00:00" incidentnumber="15152688" address="300 block Atwood St" type="OFFENSE" age="" gender="" description="*********************************************** &lt;br/&gt;9999, 9999 - (Misc. Incident):&lt;br/&gt;"/><marker lat="40.370470239105401" lng="-79.91052321229769" zone="Zone 4" incidentdate="2015-08-15" incidenttime="09:00:00" incidentnumber="15152838" address="1400 block Leaside Dr" type="OFFENSE" age="" gender="" description="*********************************************** &lt;br/&gt;3304, Criminal Mischief.&lt;br/&gt;"/><marker lat="40.430647437098074" lng="-79.975872437675676" zone="Zone 3" incidentdate="2015-08-15" incidenttime="11:00:00" incidentnumber="15152935" address="2100 block Merriman Way" type="OFFENSE" age="" gender="" description="*********************************************** &lt;br/&gt;3304, Criminal Mischief.&lt;br/&gt;3934, Theft from Vehicle&lt;br/&gt;"/><marker lat="40.419990300063475" lng="-79.990524910550519" zone="Zone 3" incidentdate="2015-08-15" incidenttime="16:30:00" incidentnumber="15153068" address="1400 block Arlington Ave" type="OFFENSE" age="" gender="" description="*********************************************** &lt;br/&gt;3502, Burglary.&lt;br/&gt;"/><marker lat="40.451859127490565" lng="-79.969254182229392" zone="Zone 2" incidentdate="2015-08-15" incidenttime="18:56:00" incidentnumber="15153264" address="2800 block Bedford Ave" type="OFFENSE" age="" gender="" description="*********************************************** &lt;br/&gt;9093, Indirect Criminal Contempt&lt;br/&gt;"/><marker lat="40.430074375292406" lng="-79.984130773859519" zone="Zone 3" incidentdate="2015-08-15" incidenttime="09:20:00" incidentnumber="15152833" address="1400 block Muriel St" type="OFFENSE" age="" gender="" description="*********************************************** &lt;br/&gt;9489, Found Property&lt;br/&gt;"/><marker lat="40.419798824630021" lng="-80.00034616615865" zone="Zone 3" incidentdate="2015-08-15" incidenttime="17:20:00" incidentnumber="15153102" address="400 block Climax St" type="OFFENSE" age="" gender="" description="*********************************************** &lt;br/&gt;13(a)(16), Possession of Controlled Substance&lt;br/&gt;4910, Tampering with or Fabricating Physical Evidence.&lt;br/&gt;13(a)(30), Possession w/ Intent to Del. Controlled Substance&lt;br/&gt;13(a)(32), Paraphernalia - Use or Possession&lt;br/&gt;"/><marker lat="40.473291193864604" lng="-79.960898582298128" zone="Zone 2" incidentdate="2015-08-15" incidenttime="10:30:00" incidentnumber="15152912" address="Plummer St &amp; 45th St" type="OFFENSE" age="" gender="" description="*********************************************** &lt;br/&gt;3304, Criminal Mischief.&lt;br/&gt;"/><marker lat="40.430647437098074" lng="-79.975872437675676" zone="Zone 3" incidentdate="2015-08-15" incidenttime="11:00:00" incidentnumber="15152916" address="2100 block Merriman Way" type="OFFENSE" age="" gender="" description="*********************************************** &lt;br/&gt;3304, Criminal Mischief.&lt;br/&gt;3934, Theft from Vehicle&lt;br/&gt;"/><marker lat="40.451400729895013" lng="-79.949538233668463" zone="Zone 4" incidentdate="2015-08-15" incidenttime="17:00:00" incidentnumber="15153085" address="400 block N Neville St" type="OFFENSE" age="" gender="" description="*********************************************** &lt;br/&gt;3304, Criminal Mischief.&lt;br/&gt;"/><marker lat="40.46769404846107" lng="-79.903056524770619" zone="Zone 5" incidentdate="2015-08-15" incidenttime="06:19:00" incidentnumber="15152776" address="Paulson Ave &amp; Dean St" type="OFFENSE" age="" gender="" description="*********************************************** &lt;br/&gt;3714, Careless Driving&lt;br/&gt;3802(a)(1), DUI - General Impairment&lt;br/&gt;3802(b), DUI - High Rate of Alchol - BAC &gt;=.10% &lt;.16%&lt;br/&gt;6105(a)(1), Persons not to possess, use, manufacture, control, sell or transfer firearms: Former convict enumerated in subsection (b)&lt;br/&gt;3703, Driving Upon Sidewalk.&lt;br/&gt;6106, Firearms not to be Carried without a License.&lt;br/&gt;"/><marker lat="40.457993760545435" lng="-79.904347923055653" zone="Zone 5" incidentdate="2015-08-15" incidenttime="22:43:00" incidentnumber="15153298" address="6900 block Bennett St" type="OFFENSE" age="" gender="" description="*********************************************** &lt;br/&gt;029, Missing Juvenile&lt;br/&gt;"/><marker lat="40.462752029993148" lng="-79.905590697682214" zone="Zone 5" incidentdate="2015-08-15" incidenttime="12:52:00" incidentnumber="15152961" address="1000 block Washington Blvd" type="OFFENSE" age="" gender="" description="*********************************************** &lt;br/&gt;3921(a), Theft by Unlawful Taking or Disposition - Movable item&lt;br/&gt;"/><marker lat="40.426496445360861" lng="-79.970389722152859" zone="Zone 3" incidentdate="2015-08-15" incidenttime="07:30:00" incidentnumber="15152896" address="2500 block Larkins Way" type="OFFENSE" age="" gender="" description="*********************************************** &lt;br/&gt;3304, Criminal Mischief.&lt;br/&gt;"/><marker lat="40.429418411414389" lng="-79.976177564961262" zone="Zone 3" incidentdate="2015-08-15" incidenttime="02:30:00" incidentnumber="15153065" address="S 21st St &amp; Sidney St" type="OFFENSE" age="" gender="" description="*********************************************** &lt;br/&gt;3304, Criminal Mischief.&lt;br/&gt;3934, Theft from Vehicle&lt;br/&gt;"/><marker lat="40.454568730584761" lng="-79.999389413807066" zone="Zone 1" incidentdate="2015-08-15" incidenttime="01:05:00" incidentnumber="15152624" address="Middle St &amp; Foreland St" type="OFFENSE" age="" gender="" description="*********************************************** &lt;br/&gt;5902(e), Patronizing a Prostitute&lt;br/&gt;902, Criminal Solicitation.&lt;br/&gt;"/><marker lat="40.456595688375899" lng="-80.008889193582519" zone="Zone 1" incidentdate="2015-08-15" incidenttime="07:39:00" incidentnumber="15152790" address="1300 block Arch St" type="OFFENSE" age="" gender="" description="*********************************************** &lt;br/&gt;9488, False  Burglar Alarm&lt;br/&gt;"/><marker lat="40.4151798" lng="-80.0203524" zone="Zone 6" incidentdate="2015-08-15" incidenttime="11:15:00" incidentnumber="15152887" address="800 block Rockland Ave" type="OFFENSE" age="" gender="" description="*********************************************** &lt;br/&gt;2709, Harassment (Non-Specific)&lt;br/&gt;"/><marker lat="40.451299046694452" lng="-80.020070605282626" zone="Zone 1" incidentdate="2015-08-15" incidenttime="18:10:00" incidentnumber="15153122" address="Bidwell St &amp; Western Ave" type="OFFENSE" age="" gender="" description="*********************************************** &lt;br/&gt;3352, Removal of Vehicle by or at Direction of Police.&lt;br/&gt;"/><marker lat="40.451859127490565" lng="-79.969254182229392" zone="Zone 2" incidentdate="2015-08-15" incidenttime="18:56:00" incidentnumber="15153161" address="2800 block Bedford Ave" type="OFFENSE" age="" gender="" description="*********************************************** &lt;br/&gt;13(a)(32), Paraphernalia - Use or Possession&lt;br/&gt;"/><marker lat="40.482425923942237" lng="-79.927544870826054" zone="Zone 5" incidentdate="2015-08-15" incidenttime="06:00:00" incidentnumber="15152867" address="1600 block Chislett St" type="OFFENSE" age="" gender="" description="*********************************************** &lt;br/&gt;3304, Criminal Mischief.&lt;br/&gt;"/><marker lat="40.411900579341733" lng="-79.993025853533553" zone="Zone 3" incidentdate="2015-08-15" incidenttime="16:00:00" incidentnumber="15153038" address="300 block Marland Way" type="OFFENSE" age="" gender="" description="*********************************************** &lt;br/&gt;9123, Miscellaneous Fire Other Investigation to Continue&lt;br/&gt;"/><marker lat="40.415901735985756" lng="-80.02999619068801" zone="Zone 6" incidentdate="2015-08-15" incidenttime="20:55:00" incidentnumber="15153220" address="Banksville Rd &amp; Crane Ave" type="OFFENSE" age="" gender="" description="*********************************************** &lt;br/&gt;1543, Driving While Operating Privilege is Suspended or Revoked.&lt;br/&gt;13(a)(16), Possession of Controlled Substance&lt;br/&gt;13(a)(32), Paraphernalia - Use or Possession&lt;br/&gt;1786, Required Financial Responsibility.&lt;br/&gt;"/><marker lat="40.488081814906529" lng="-79.894317224387123" zone="Zone 5" incidentdate="2015-08-15" incidenttime="13:45:00" incidentnumber="15152991" address="900 block Freeport Rd" type="OFFENSE" age="" gender="" description="*********************************************** &lt;br/&gt;3929(a)(1), Retail Theft; takes possession of, carries away, or transfers displayed merchandise&lt;br/&gt;"/><marker lat="40.438294248621595" lng="-79.993296257639699" zone="Zone 2" incidentdate="2015-08-15" incidenttime="09:00:00" incidentnumber="15152841" address="Watson St &amp; Boyd St" type="OFFENSE" age="" gender="" description="*********************************************** &lt;br/&gt;3934, Theft from Vehicle&lt;br/&gt;"/><marker lat="40.44511004552583" lng="-80.039246537687731" zone="Zone 6" incidentdate="2015-08-15" incidenttime="10:55:00" incidentnumber="15152871" address="700 block Lorenz Ave" type="OFFENSE" age="" gender="" description="*********************************************** &lt;br/&gt;3743, Accidents Involving Damage to Attended Veh. or Property&lt;br/&gt;"/><marker lat="40.4600940" lng="-79.9238524" zone="Zone 4" incidentdate="2015-08-15" incidenttime="09:02:00" incidentnumber="15152819" address="6300 block Shakespeare St" type="OFFENSE" age="" gender="" description="*********************************************** &lt;br/&gt;3929(a)(5), Retail Theft; destroys, removes, damages control tag or security strip mechanism&lt;br/&gt;"/><marker lat="40.470559349698817" lng="-79.994946939312101" zone="Zone 1" incidentdate="2015-08-15" incidenttime="12:47:00" incidentnumber="15152959" address="400 block East Commons" type="OFFENSE" age="" gender="" description="*********************************************** &lt;br/&gt;9488, False  Burglar Alarm&lt;br/&gt;"/><marker lat="40.428726365881886" lng="-79.987518246307118" zone="Zone 3" incidentdate="2015-08-15" incidenttime="16:00:00" incidentnumber="15153078" address="S 11th St &amp; E Carson St" type="OFFENSE" age="" gender="" description="*********************************************** &lt;br/&gt;3934, Theft from Vehicle&lt;br/&gt;"/><marker lat="40.430531972225779" lng="-80.006275021743136" zone="Zone 3" incidentdate="2015-08-15" incidenttime="00:17:00" incidentnumber="15152594" address="Vinecliffe St" type="OFFENSE" age="" gender="" description="*********************************************** &lt;br/&gt;3701, Robbery.&lt;br/&gt;903, Criminal Conspiracy.&lt;br/&gt;5121, Escape.&lt;br/&gt;"/><marker lat="40.467088856684526" lng="-79.926169592858798" zone="Zone 5" incidentdate="2015-08-15" incidenttime="07:00:00" incidentnumber="15152787" address="500 block N St Clair St" type="OFFENSE" age="" gender="" description="*********************************************** &lt;br/&gt;029, Missing Juvenile&lt;br/&gt;"/><marker lat="40.467697760298286" lng="-79.928140955027828" zone="Zone 5" incidentdate="2015-08-15" incidenttime="21:20:00" incidentnumber="15153239" address="Margaretta St &amp; N Negley Ave" type="OFFENSE" age="" gender="" description="*********************************************** &lt;br/&gt;1301, Registration and Certificate of Title Required.&lt;br/&gt;3802(a)(1), DUI - General Impairment&lt;br/&gt;1786, Required Financial Responsibility.&lt;br/&gt;3802(c), DUI - Highest Rate of Alcohol - BAC &gt;= .16%&lt;br/&gt;"/><marker lat="40.463338906861225" lng="-79.904099989794332" zone="Zone 5" incidentdate="2015-08-15" incidenttime="03:36:00" incidentnumber="15152724" address="Lincoln Ave &amp; Tennis St" type="OFFENSE" age="" gender="" description="*********************************************** &lt;br/&gt;3921(a), Theft by Unlawful Taking or Disposition - Movable item&lt;br/&gt;"/><marker lat="40.415794755687202" lng="-80.000571540684405" zone="Zone 3" incidentdate="2015-08-15" incidenttime="01:52:00" incidentnumber="15152661" address="800 block Estella Ave" type="OFFENSE" age="" gender="" description="*********************************************** &lt;br/&gt;2902, Unlawful Restraint.&lt;br/&gt;2701, Simple Assault.&lt;br/&gt;"/><marker lat="40.47849897821235" lng="-79.939733094389894" zone="Zone 5" incidentdate="2015-08-15" incidenttime="15:50:00" incidentnumber="15153073" address="1100 block Stanton Ter" type="OFFENSE" age="" gender="" description="*********************************************** &lt;br/&gt;2709, Harassment (Non-Specific)&lt;br/&gt;"/><marker lat="40.429708771598392" lng="-79.986451286179445" zone="Zone 3" incidentdate="2015-08-15" incidenttime="12:53:00" incidentnumber="15152955" address="S 12th St &amp; Bedford Sq" type="OFFENSE" age="" gender="" description="*********************************************** &lt;br/&gt;3304, Criminal Mischief.&lt;br/&gt;"/><marker lat="40.447047363231832" lng="-80.080458722610913" zone="Zone 6" incidentdate="2015-08-15" incidenttime="21:53:00" incidentnumber="15153279" address="400 block W Prospect Ave" type="OFFENSE" age="" gender="" description="*********************************************** &lt;br/&gt;2702, Aggravated Assault.&lt;br/&gt;2501, Criminal Homicide.&lt;br/&gt;"/><marker lat="40.41601669526662" lng="-79.97264913314288" zone="Zone 3" incidentdate="2015-08-15" incidenttime="16:20:00" incidentnumber="15153071" address="2400 block Spring St" type="OFFENSE" age="" gender="" description="*********************************************** &lt;br/&gt;3921, Theft by Unlawful Taking or Disposition.&lt;br/&gt;"/><marker lat="40.426559775728883" lng="-79.970407977235183" zone="Zone 3" incidentdate="2015-08-15" incidenttime="07:00:00" incidentnumber="15152870" address="Larkins Way &amp; S 25th St" type="OFFENSE" age="" gender="" description="*********************************************** &lt;br/&gt;3304, Criminal Mischief.&lt;br/&gt;"/><marker lat="40.42408086024902" lng="-79.969983270474486" zone="Zone 3" incidentdate="2015-08-15" incidenttime="07:16:00" incidentnumber="15152783" address="S 26th St &amp; Josephine St" type="OFFENSE" age="" gender="" description="*********************************************** &lt;br/&gt;3304(a)(5), CRIMINAL MISCHIEF - Intentionally Damages Real Or Personal Property Of Another&lt;br/&gt;"/><marker lat="40.421769656358926" lng="-79.964973052709681" zone="Zone 3" incidentdate="2015-08-15" incidenttime="13:20:00" incidentnumber="15152984" address="3100 block Josephine St" type="OFFENSE" age="" gender="" description="*********************************************** &lt;br/&gt;3502, Burglary.&lt;br/&gt;"/><marker lat="40.434348049519336" lng="-80.006335021862654" zone="Zone 3" incidentdate="2015-08-15" incidenttime="01:30:00" incidentnumber="15152636" address="300 block Station Square Dr W" type="OFFENSE" age="" gender="" description="*********************************************** &lt;br/&gt;3743, Accidents Involving Damage to Attended Veh. or Property&lt;br/&gt;"/><marker lat="40.4533707" lng="-80.0541327" zone="Zone 6" incidentdate="2015-08-15" incidenttime="21:45:00" incidentnumber="15153343" address="2900 block Sheraden Blvd" type="OFFENSE" age="" gender="" description="*********************************************** &lt;br/&gt;3502, Burglary.&lt;br/&gt;"/><marker lat="40.438245622641972" lng="-79.979393201936006" zone="Zone 2" incidentdate="2015-08-15" incidenttime="06:49:00" incidentnumber="15152778" address="1900 block 5th Ave" type="OFFENSE" age="" gender="" description="*********************************************** &lt;br/&gt;9496, Dead on Arrival (DOA)&lt;br/&gt;"/><marker lat="40.417481967224546" lng="-79.969522307230847" zone="Zone 3" incidentdate="2015-08-15" incidenttime="17:00:00" incidentnumber="15153157" address="100 block Cologne St" type="OFFENSE" age="" gender="" description="*********************************************** &lt;br/&gt;3934, Theft from Vehicle&lt;br/&gt;"/><marker lat="40.456572332747427" lng="-80.001487255429311" zone="Zone 5" incidentdate="2015-08-15" incidenttime="04:20:00" incidentnumber="15152731" address="500 block N Atlantic Ave" type="OFFENSE" age="" gender="" description="*********************************************** &lt;br/&gt;9999, 9999 - (Misc. Incident):&lt;br/&gt;"/><marker lat="40.425714599846316" lng="-79.970807728273158" zone="Zone 3" incidentdate="2015-08-15" incidenttime="18:40:00" incidentnumber="15153139" address="S 25th St &amp; Harcum Way" type="OFFENSE" age="" gender="" description="*********************************************** &lt;br/&gt;3304, Criminal Mischief.&lt;br/&gt;"/><marker lat="40.416868962872634" lng="-79.972917545445213" zone="Zone 3" incidentdate="2015-08-15" incidenttime="22:12:00" incidentnumber="15153293" address="2400 block Charcot St" type="OFFENSE" age="" gender="" description="*********************************************** &lt;br/&gt;9999, 9999 - (Misc. Incident):&lt;br/&gt;"/><marker lat="40.454568730584761" lng="-79.999389413807066" zone="Zone 1" incidentdate="2015-08-15" incidenttime="01:25:00" incidentnumber="15152647" address="Middle St &amp; Foreland St" type="OFFENSE" age="" gender="" description="*********************************************** &lt;br/&gt;13(a)(31), Marijuana: Possession Small Amount&lt;br/&gt;902, Criminal Solicitation.&lt;br/&gt;5902(e), Patronizing a Prostitute&lt;br/&gt;"/><marker lat="40.428587820570804" lng="-79.977635946496946" zone="Zone 3" incidentdate="2015-08-15" incidenttime="01:05:00" incidentnumber="15152654" address="E Carson St &amp; S 20th St" type="OFFENSE" age="" gender="" description="*********************************************** &lt;br/&gt;3743, Accidents Involving Damage to Attended Veh. or Property&lt;br/&gt;"/><marker lat="40.411998076177227" lng="-79.995149476193134" zone="Zone 3" incidentdate="2015-08-15" incidenttime="05:57:00" incidentnumber="15152768" address="400 block Moore Ave" type="OFFENSE" age="" gender="" description="*********************************************** &lt;br/&gt;9999, 9999 - (Misc. Incident):&lt;br/&gt;"/><marker lat="40.4600940" lng="-79.9238524" zone="Zone 4" incidentdate="2015-08-15" incidenttime="17:09:00" incidentnumber="15153100" address="6300 block Shakespeare St" type="OFFENSE" age="" gender="" description="*********************************************** &lt;br/&gt;2701, Simple Assault.&lt;br/&gt;"/><marker lat="40.418793401544413" lng="-79.990726799964577" zone="Zone 3" incidentdate="2015-08-15" incidenttime="06:30:00" incidentnumber="15152772" address="Lillian Way &amp; Knox Ave" type="OFFENSE" age="" gender="" description="*********************************************** &lt;br/&gt;2702, Aggravated Assault.&lt;br/&gt;"/><marker lat="40.459811206906437" lng="-79.886886299411756" zone="Zone 5" incidentdate="2015-08-15" incidenttime="01:19:00" incidentnumber="15152643" address="1200 block Mohler St" type="OFFENSE" age="" gender="" description="*********************************************** &lt;br/&gt;3503(a), Criminal Trespass&lt;br/&gt;3304, Criminal Mischief.&lt;br/&gt;"/><marker lat="40.430079141306244" lng="-79.986468056049773" zone="Zone 3" incidentdate="2015-08-15" incidenttime="09:30:00" incidentnumber="15152839" address="S 12th St &amp; Muriel St" type="OFFENSE" age="" gender="" description="*********************************************** &lt;br/&gt;3304, Criminal Mischief.&lt;br/&gt;"/><marker lat="40.471468305806894" lng="-79.926296300841145" zone="Zone 5" incidentdate="2015-08-15" incidenttime="08:00:00" incidentnumber="15152829" address="5600 block Stanton Ave" type="OFFENSE" age="" gender="" description="*********************************************** &lt;br/&gt;2709(a)(5), Harassment Communicates Repeatedly in Anonymous Manner&lt;br/&gt;"/><marker lat="40.469959059252467" lng="-80.029657086822525" zone="Zone 1" incidentdate="2015-08-15" incidenttime="11:39:00" incidentnumber="15152914" address="2800 block Frederick St" type="OFFENSE" age="" gender="" description="*********************************************** &lt;br/&gt;2709, Harassment (Non-Specific)&lt;br/&gt;"/><marker lat="40.439534165811146" lng="-79.99836772444668" zone="Zone 2" incidentdate="2015-08-15" incidenttime="13:40:00" incidentnumber="15152987" address="400 block 5th Ave" type="OFFENSE" age="" gender="" description="*********************************************** &lt;br/&gt;3929, Retail Theft.&lt;br/&gt;"/><marker lat="40.467927247545596" lng="-79.903236719793938" zone="Zone 5" incidentdate="2015-08-15" incidenttime="04:30:00" incidentnumber="15152757" address="1200 block Paulson Ave" type="OFFENSE" age="" gender="" description="*********************************************** &lt;br/&gt;2702, Aggravated Assault.&lt;br/&gt;"/><marker lat="40.464230665158951" lng="-79.957658312900548" zone="Zone 5" incidentdate="2015-08-15" incidenttime="16:30:00" incidentnumber="15153077" address="4000 block Mintwood St" type="OFFENSE" age="" gender="" description="*********************************************** &lt;br/&gt;3745, Accidents Involving Damage to Unattended Veh.or Prop.&lt;br/&gt;"/><marker lat="40.413512827912385" lng="-79.991520937820866" zone="Zone 3" incidentdate="2015-08-15" incidenttime="03:09:00" incidentnumber="15152710" address="100 block Redlyn St" type="OFFENSE" age="" gender="" description="*********************************************** &lt;br/&gt;2701, Simple Assault.&lt;br/&gt;"/><marker lat="40.463840755499895" lng="-79.940398788810711" zone="Zone 5" incidentdate="2015-08-15" incidenttime="15:00:00" incidentnumber="15153193" address="200 block S Pacific Ave" type="OFFENSE" age="" gender="" description="*********************************************** &lt;br/&gt;9999, 9999 - (Misc. Incident):&lt;br/&gt;"/><marker lat="40.457708930211595" lng="-79.935327377456005" zone="Zone 5" incidentdate="2015-08-15" incidenttime="08:55:00" incidentnumber="15152821" address="5600 block Baum Blvd" type="OFFENSE" age="" gender="" description="*********************************************** &lt;br/&gt;3929, Retail Theft.&lt;br/&gt;"/><marker lat="40.428815176198341" lng="-79.983424931589681" zone="Zone 3" incidentdate="2015-08-15" incidenttime="02:00:00" incidentnumber="15152717" address="S 15th St &amp; E Carson St" type="OFFENSE" age="" gender="" description="*********************************************** &lt;br/&gt;9489, Found Property&lt;br/&gt;"/><marker lat="40.4724156" lng="-80.0150715" zone="Zone 1" incidentdate="2015-08-15" incidenttime="12:46:00" incidentnumber="15152958" address="100 block Hawkins St" type="OFFENSE" age="" gender="" description="*********************************************** &lt;br/&gt;3502, Burglary.&lt;br/&gt;"/><marker lat="40.4414658" lng="-79.9802259" zone="Zone 2" incidentdate="2015-08-15" incidenttime="19:29:00" incidentnumber="15153186" address="2100 block Reed St" type="OFFENSE" age="" gender="" description="*********************************************** &lt;br/&gt;3304(a)(5), CRIMINAL MISCHIEF - Intentionally Damages Real Or Personal Property Of Another&lt;br/&gt;"/><marker lat="40.426496445360861" lng="-79.970389722152859" zone="Zone 3" incidentdate="2015-08-15" incidenttime="07:00:00" incidentnumber="15152784" address="2500 block Larkins Way" type="OFFENSE" age="" gender="" description="*********************************************** &lt;br/&gt;3304, Criminal Mischief.&lt;br/&gt;"/><marker lat="40.415705155590395" lng="-80.005123533425305" zone="Zone 3" incidentdate="2015-08-15" incidenttime="08:41:00" incidentnumber="15152806" address="800 block Gearing Ave" type="OFFENSE" age="" gender="" description="*********************************************** &lt;br/&gt;9489, Found Property&lt;br/&gt;"/><marker lat="40.438949311117092" lng="-79.998479763213126" zone="Zone 2" incidentdate="2015-08-15" incidenttime="17:45:00" incidentnumber="15153159" address="400 block Cherry Way" type="OFFENSE" age="" gender="" description="*********************************************** &lt;br/&gt;3745, Accidents Involving Damage to Unattended Veh.or Prop.&lt;br/&gt;"/><marker lat="40.419905011916534" lng="-79.970860707927045" zone="Zone 3" incidentdate="2015-08-15" incidenttime="16:00:00" incidentnumber="15153207" address="2500 block Cobden St" type="OFFENSE" age="" gender="" description="*********************************************** &lt;br/&gt;3934, Theft from Vehicle&lt;br/&gt;"/><marker lat="40.438780945196221" lng="-79.948030696226866" zone="Zone 4" incidentdate="2015-08-15" incidenttime="14:00:00" incidentnumber="15153001" address="700 block Frank Curto Dr" type="OFFENSE" age="" gender="" description="*********************************************** &lt;br/&gt;3921(a), Theft by Unlawful Taking or Disposition - Movable item&lt;br/&gt;"/><marker lat="40.4265324" lng="-79.9527542" zone="Zone 4" incidentdate="2015-08-15" incidenttime="18:00:00" incidentnumber="15153136" address="Wormster Way" type="OFFENSE" age="" gender="" description="*********************************************** &lt;br/&gt;3921(a), Theft by Unlawful Taking or Disposition - Movable item&lt;br/&gt;"/><marker lat="40.42408086024902" lng="-79.969983270474486" zone="Zone 3" incidentdate="2015-08-15" incidenttime="15:00:00" incidentnumber="15153075" address="S 26th St &amp; Josephine St" type="OFFENSE" age="" gender="" description="*********************************************** &lt;br/&gt;3304, Criminal Mischief.&lt;br/&gt;3934, Theft from Vehicle&lt;br/&gt;"/><marker lat="40.451859127490565" lng="-79.969254182229392" zone="Zone 2" incidentdate="2015-08-15" incidenttime="18:58:00" incidentnumber="15153264" address="2800 block Bedford Ave" type="ARREST" age="53" gender="F" description="*********************************************** &lt;br/&gt;9093, Indirect Criminal Contempt&lt;br/&gt;"/><marker lat="40.454568730584761" lng="-79.999389413807066" zone="Zone 1" incidentdate="2015-08-15" incidenttime="00:30:00" incidentnumber="15152669" address="Foreland St &amp; Middle St" type="ARREST" age="49" gender="M" description="*********************************************** &lt;br/&gt;5902(e), Patronizing a Prostitute&lt;br/&gt;902, Criminal Solicitation.&lt;br/&gt;"/><marker lat="40.415794755687202" lng="-80.000571540684405" zone="Zone 3" incidentdate="2015-08-15" incidenttime="02:00:00" incidentnumber="15152661" address="800 block Estella Ave" type="ARREST" age="53" gender="M" description="*********************************************** &lt;br/&gt;2902, Unlawful Restraint.&lt;br/&gt;2701, Simple Assault.&lt;br/&gt;"/><marker lat="40.391808979644708" lng="-80.016709964153662" zone="Zone 6" incidentdate="2015-08-15" incidenttime="01:39:00" incidentnumber="15152629" address="Brookline Blvd &amp; Starkamp St" type="ARREST" age="43" gender="M" description="*********************************************** &lt;br/&gt;4107(b)(2), Vehicle Equipment Standards&lt;br/&gt;3802(a)(1), DUI - General Impairment&lt;br/&gt;9501, Bench Warrant&lt;br/&gt;4303, General Lighting Requirements.&lt;br/&gt;"/><marker lat="40.480414114073213" lng="-79.954451809989976" zone="Zone 2" incidentdate="2015-08-15" incidenttime="17:45:00" incidentnumber="15153101" address="52nd St &amp; Butler St" type="ARREST" age="49" gender="M" description="*********************************************** &lt;br/&gt;1543, Driving While Operating Privilege is Suspended or Revoked.&lt;br/&gt;3743, Accidents Involving Damage to Attended Veh. or Property&lt;br/&gt;3802(a)(1), DUI - General Impairment&lt;br/&gt;3745, Accidents Involving Damage to Unattended Veh.or Prop.&lt;br/&gt;"/><marker lat="40.470559349698817" lng="-79.994946939312101" zone="Zone 1" incidentdate="2015-08-15" incidenttime="23:12:00" incidentnumber="15153319" address="400 block East Commons" type="ARREST" age="26" gender="F" description="*********************************************** &lt;br/&gt;4910, Tampering with or Fabricating Physical Evidence.&lt;br/&gt;13(a)(16), Possession of Controlled Substance&lt;br/&gt;13(a)(32), Paraphernalia - Use or Possession&lt;br/&gt;4914, False Identification to Law Enforcement Authorities&lt;br/&gt;9501, Bench Warrant&lt;br/&gt;"/><marker lat="40.430531972225779" lng="-80.006275021743136" zone="Zone 3" incidentdate="2015-08-15" incidenttime="00:30:00" incidentnumber="15152594" address="Vinecliffe St" type="ARREST" age="12" gender="M" description="*********************************************** &lt;br/&gt;3701, Robbery.&lt;br/&gt;903, Criminal Conspiracy.&lt;br/&gt;5121, Escape.&lt;br/&gt;"/><marker lat="40.419798824630021" lng="-80.00034616615865" zone="Zone 3" incidentdate="2015-08-15" incidenttime="15:53:00" incidentnumber="15153102" address="400 block Climax St" type="ARREST" age="23" gender="M" description="*********************************************** &lt;br/&gt;13(a)(16), Possession of Controlled Substance&lt;br/&gt;4910, Tampering with or Fabricating Physical Evidence.&lt;br/&gt;13(a)(30), Possession w/ Intent to Del. Controlled Substance&lt;br/&gt;13(a)(32), Paraphernalia - Use or Possession&lt;br/&gt;"/><marker lat="40.467686821916217" lng="-79.934616925280409" zone="Zone 5" incidentdate="2015-08-15" incidenttime="00:27:00" incidentnumber="15152586" address="N Aiken Ave &amp; Hillcrest St" type="ARREST" age="24" gender="F" description="*********************************************** &lt;br/&gt;13(a)(16), Possession of Controlled Substance&lt;br/&gt;3334, Turning Movements and Required Signals.&lt;br/&gt;13(a)(32), Paraphernalia - Use or Possession&lt;br/&gt;4303, General Lighting Requirements.&lt;br/&gt;"/><marker lat="40.415901735985756" lng="-80.02999619068801" zone="Zone 6" incidentdate="2015-08-15" incidenttime="20:30:00" incidentnumber="15153220" address="Banksville Rd &amp; Crane Ave" type="ARREST" age="35" gender="F" description="*********************************************** &lt;br/&gt;1543, Driving While Operating Privilege is Suspended or Revoked.&lt;br/&gt;13(a)(16), Possession of Controlled Substance&lt;br/&gt;13(a)(32), Paraphernalia - Use or Possession&lt;br/&gt;1786, Required Financial Responsibility.&lt;br/&gt;"/><marker lat="40.428834925885639" lng="-79.982047583109136" zone="Zone 3" incidentdate="2015-08-15" incidenttime="02:41:00" incidentnumber="15152705" address="E Carson St &amp; S 17th St" type="ARREST" age="35" gender="M" description="*********************************************** &lt;br/&gt;2709(a)(1), Harassment by Physical Contact, or Attempts or Threats&lt;br/&gt;5104, Resisting Arrest or Other Law Enforcement.&lt;br/&gt;5505, Public Drunkenness&lt;br/&gt;"/><marker lat="40.430719146660898" lng="-80.007572238034967" zone="Zone 3" incidentdate="2015-08-15" incidenttime="00:17:00" incidentnumber="15112509" address="200 block Shiloh St" type="ARREST" age="19" gender="M" description="*********************************************** &lt;br/&gt;2702, Aggravated Assault.&lt;br/&gt;907, Possessing Instruments of Crime.&lt;br/&gt;5503, Disorderly Conduct.&lt;br/&gt;6106, Firearms not to be Carried without a License.&lt;br/&gt;6308(a), Underage Purchase, Consume, Possessed or Transport Liquor&lt;br/&gt;5126, Flight to Avoid Apprehension, Trial or Punishment.&lt;br/&gt;3503, Criminal Trespass&lt;br/&gt;2706, Terroristic Threats.&lt;br/&gt;2705, Recklessly Endangering Another Person.&lt;br/&gt;"/><marker lat="40.439534165811146" lng="-79.99836772444668" zone="Zone 2" incidentdate="2015-08-15" incidenttime="13:40:00" incidentnumber="15152987" address="400 block 5th Ave" type="ARREST" age="28" gender="F" description="*********************************************** &lt;br/&gt;3929, Retail Theft.&lt;br/&gt;"/><marker lat="40.454568730584761" lng="-79.999389413807066" zone="Zone 1" incidentdate="2015-08-15" incidenttime="01:05:00" incidentnumber="15152624" address="Middle St &amp; Foreland St" type="ARREST" age="37" gender="M" description="*********************************************** &lt;br/&gt;5902(e), Patronizing a Prostitute&lt;br/&gt;902, Criminal Solicitation.&lt;br/&gt;"/><marker lat="40.46769404846107" lng="-79.903056524770619" zone="Zone 5" incidentdate="2015-08-15" incidenttime="07:16:00" incidentnumber="15152776" address="Paulson Ave &amp; Dean St" type="ARREST" age="31" gender="M" description="*********************************************** &lt;br/&gt;3714, Careless Driving&lt;br/&gt;3802(a)(1), DUI - General Impairment&lt;br/&gt;3802(b), DUI - High Rate of Alchol - BAC &gt;=.10% &lt;.16%&lt;br/&gt;6105(a)(1), Persons not to possess, use, manufacture, control, sell or transfer firearms: Former convict enumerated in subsection (b)&lt;br/&gt;3703, Driving Upon Sidewalk.&lt;br/&gt;6106, Firearms not to be Carried without a License.&lt;br/&gt;"/><marker lat="40.41136888220619" lng="-79.990299456571108" zone="Zone 3" incidentdate="2015-08-15" incidenttime="17:15:00" incidentnumber="15153095" address="200 block Knox Ave" type="ARREST" age="58" gender="M" description="*********************************************** &lt;br/&gt;2702, Aggravated Assault.&lt;br/&gt;"/><marker lat="40.454568730584761" lng="-79.999389413807066" zone="Zone 1" incidentdate="2015-08-15" incidenttime="01:27:00" incidentnumber="15152647" address="Middle St &amp; Foreland St" type="ARREST" age="43" gender="M" description="*********************************************** &lt;br/&gt;13(a)(31), Marijuana: Possession Small Amount&lt;br/&gt;902, Criminal Solicitation.&lt;br/&gt;5902(e), Patronizing a Prostitute&lt;br/&gt;"/><marker lat="40.467697760298286" lng="-79.928140955027828" zone="Zone 5" incidentdate="2015-08-15" incidenttime="21:20:00" incidentnumber="15153239" address="Margaretta St &amp; N Negley Ave" type="ARREST" age="22" gender="F" description="*********************************************** &lt;br/&gt;1301, Registration and Certificate of Title Required.&lt;br/&gt;3802(a)(1), DUI - General Impairment&lt;br/&gt;1786, Required Financial Responsibility.&lt;br/&gt;3802(c), DUI - Highest Rate of Alcohol - BAC &gt;= .16%&lt;br/&gt;"/><marker lat="40.439534165811146" lng="-79.99836772444668" zone="Zone 2" incidentdate="2015-08-15" incidenttime="13:40:00" incidentnumber="15152987" address="400 block 5th Ave" type="ARREST" age="40" gender="F" description="*********************************************** &lt;br/&gt;3929, Retail Theft.&lt;br/&gt;"/><marker lat="40.422440431499879" lng="-80.004955380740157" zone="Zone 3" incidentdate="2015-08-15" incidenttime="00:43:00" incidentnumber="15076376" address="Albert St &amp; Ruth St" type="ARREST" age="19" gender="M" description="*********************************************** &lt;br/&gt;3925, Receiving Stolen Property.&lt;br/&gt;13(a)(32), Paraphernalia - Use or Possession&lt;br/&gt;"/><marker lat="40.413512827912385" lng="-79.991520937820866" zone="Zone 3" incidentdate="2015-08-15" incidenttime="03:14:00" incidentnumber="15152710" address="100 block Redlyn St" type="ARREST" age="23" gender="M" description="*********************************************** &lt;br/&gt;2701, Simple Assault.&lt;br/&gt;"/><marker lat="40.470559349698817" lng="-79.994946939312101" zone="Zone 1" incidentdate="2015-08-15" incidenttime="23:15:00" incidentnumber="15153319" address="400 block East Commons" type="ARREST" age="46" gender="M" description="*********************************************** &lt;br/&gt;4910, Tampering with or Fabricating Physical Evidence.&lt;br/&gt;13(a)(16), Possession of Controlled Substance&lt;br/&gt;13(a)(32), Paraphernalia - Use or Possession&lt;br/&gt;4914, False Identification to Law Enforcement Authorities&lt;br/&gt;9501, Bench Warrant&lt;br/&gt;"/><marker lat="40.468776455045955" lng="-79.918620668766948" zone="Zone 5" incidentdate="2015-08-15" incidenttime="06:30:00" incidentnumber="15152771" address="6100 block Stanton Ave" type="ARREST" age="51" gender="M" description="*********************************************** &lt;br/&gt;2701, Simple Assault.&lt;br/&gt;"/><marker lat="40.415901735985756" lng="-80.02999619068801" zone="Zone 6" incidentdate="2015-08-15" incidenttime="20:30:00" incidentnumber="15153220" address="Banksville Rd &amp; Crane Ave" type="ARREST" age="39" gender="M" description="*********************************************** &lt;br/&gt;1543, Driving While Operating Privilege is Suspended or Revoked.&lt;br/&gt;13(a)(16), Possession of Controlled Substance&lt;br/&gt;13(a)(32), Paraphernalia - Use or Possession&lt;br/&gt;1786, Required Financial Responsibility.&lt;br/&gt;"/><marker lat="40.457995756350627" lng="-79.963967646530719" zone="Zone 2" incidentdate="2015-08-15" incidenttime="17:04:00" incidentnumber="15153088" address="Herron Ave &amp; Melwood Ave" type="ARREST" age="25" gender="M" description="*********************************************** &lt;br/&gt;9501, Bench Warrant&lt;br/&gt;"/><marker lat="40.467686821916217" lng="-79.934616925280409" zone="Zone 5" incidentdate="2015-08-15" incidenttime="00:20:00" incidentnumber="15152586" address="N Aiken Ave &amp; Hillcrest St" type="ARREST" age="25" gender="M" description="*********************************************** &lt;br/&gt;13(a)(16), Possession of Controlled Substance&lt;br/&gt;3334, Turning Movements and Required Signals.&lt;br/&gt;13(a)(32), Paraphernalia - Use or Possession&lt;br/&gt;4303, General Lighting Requirements.&lt;br/&gt;"/><marker lat="40.453881093138619" lng="-79.873029877694393" zone="Zone 5" incidentdate="2015-08-15" incidenttime="05:30:00" incidentnumber="15152761" address="2200 block East Hills Dr" type="ARREST" age="22" gender="F" description="*********************************************** &lt;br/&gt;2701(a)(3), Simple Assault - Attempts by Physical Menace&lt;br/&gt;2706, Terroristic Threats.&lt;br/&gt;4914(A), False Identification to Law Enforcement&lt;br/&gt;"/><marker lat="40.451859127490565" lng="-79.969254182229392" zone="Zone 2" incidentdate="2015-08-15" incidenttime="18:58:00" incidentnumber="15153161" address="2800 block Bedford Ave" type="ARREST" age="53" gender="F" description="*********************************************** &lt;br/&gt;13(a)(32), Paraphernalia - Use or Possession&lt;br/&gt;"/><marker lat="40.466616756829907" lng="-79.993676874083434" zone="Zone 1" incidentdate="2015-08-15" incidenttime="15:00:00" incidentnumber="15029965" address="2100 block Rhine St" type="ARREST" age="42" gender="M" description="*********************************************** &lt;br/&gt;13(a)(31), Marijuana: Possession Small Amount&lt;br/&gt;"/><marker lat="40.487823540011732" lng="-79.897614208935366" zone="Zone 5" incidentdate="2015-08-15" incidenttime="03:30:00" incidentnumber="15148273" address="800 block Freeport Rd" type="ARREST" age="32" gender="F" description="*********************************************** &lt;br/&gt;4101, Forgery.&lt;br/&gt;4106, Access Device Fraud&lt;br/&gt;3925, Receiving Stolen Property.&lt;br/&gt;3923, Theft by Extortion.&lt;br/&gt;3921, Theft by Unlawful Taking or Disposition.&lt;br/&gt;"/><marker lat="40.430531972225779" lng="-80.006275021743136" zone="Zone 3" incidentdate="2015-08-15" incidenttime="00:43:00" incidentnumber="15152594" address="Vinecliffe St" type="ARREST" age="19" gender="M" description="*********************************************** &lt;br/&gt;3701, Robbery.&lt;br/&gt;903, Criminal Conspiracy.&lt;br/&gt;5121, Escape.&lt;br/&gt;"/></markers>
