<?xml version="1.0"?>
<markers><marker lat="40.4288154" lng="-79.9834085" zone="Zone 3" incidentdate="2014-07-19" incidenttime="00:12:00" incidentnumber="14140309" address="East Carson Street &amp; South 15th Street, Pittsburgh, PA 15203, USA" type="OFFENSE" description="*********************************************** &lt;br/&gt;Theft from Vehicle&lt;br/&gt;Resisting Arrest or Other Law Enforcement.&lt;br/&gt;Criminal Conspiracy.&lt;br/&gt;Theft from Vehicle&lt;br/&gt;Criminal Conspiracy.&lt;br/&gt;Theft from Vehicle&lt;br/&gt;Resisting Arrest or Other Law Enforcement.&lt;br/&gt;Criminal Conspiracy.&lt;br/&gt;"/><marker lat="40.4597113" lng="-80.0217292" zone="Zone 1" incidentdate="2014-07-19" incidenttime="00:15:00" incidentnumber="14140244" address="1000 Kirkbride Street, Pittsburgh, PA 15212, USA" type="OFFENSE" description="*********************************************** &lt;br/&gt;Criminal Mischief.&lt;br/&gt;"/><marker lat="40.4597113" lng="-80.0217292" zone="Zone 1" incidentdate="2014-07-19" incidenttime="00:15:00" incidentnumber="14140244" address="1000 Kirkbride Street, Pittsburgh, PA 15212, USA" type="OFFENSE" description="*********************************************** &lt;br/&gt;Criminal Mischief.&lt;br/&gt;"/><marker lat="40.4286744" lng="-79.9833156" zone="Zone 3" incidentdate="2014-07-19" incidenttime="00:20:00" incidentnumber="14140254" address="1500 East Carson Street, Pittsburgh, PA 15203, USA" type="ARREST" description="*********************************************** &lt;br/&gt;DEF. TRESPASS ACTUAL COMMUNICATION&lt;br/&gt;DEF. TRESPASS ACTUAL COMMUNICATION&lt;br/&gt;"/><marker lat="40.4286744" lng="-79.9833156" zone="Zone 3" incidentdate="2014-07-19" incidenttime="00:25:00" incidentnumber="14140254" address="1500 East Carson Street, Pittsburgh, PA 15203, USA" type="OFFENSE" description="*********************************************** &lt;br/&gt;DEF. TRESPASS ACTUAL COMMUNICATION&lt;br/&gt;DEF. TRESPASS ACTUAL COMMUNICATION&lt;br/&gt;"/><marker lat="40.4532953" lng="-80.02244" zone="Zone 1" incidentdate="2014-07-19" incidenttime="01:00:00" incidentnumber="14140635" address="1200 Hamlin Street, Pittsburgh, PA 15233, USA" type="OFFENSE" description="*********************************************** &lt;br/&gt;Criminal Mischief.&lt;br/&gt;"/><marker lat="40.4532953" lng="-80.02244" zone="Zone 1" incidentdate="2014-07-19" incidenttime="01:00:00" incidentnumber="14140635" address="1200 Hamlin Street, Pittsburgh, PA 15233, USA" type="OFFENSE" description="*********************************************** &lt;br/&gt;Criminal Mischief.&lt;br/&gt;"/><marker lat="40.4291077" lng="-79.999241" zone="Zone 3" incidentdate="2014-07-19" incidenttime="01:09:00" incidentnumber="14140288" address="Liberty Tunnel &amp; P J McArdle Roadway, Pittsburgh, PA 15203, USA" type="OFFENSE" description="*********************************************** &lt;br/&gt;Careless Driving&lt;br/&gt;DUI - General Impairment&lt;br/&gt;DUI - Highest Rate of Alcohol - BAC &gt;= .16%&lt;br/&gt;Careless Driving&lt;br/&gt;DUI - General Impairment&lt;br/&gt;DUI - Highest Rate of Alcohol - BAC &gt;= .16%&lt;br/&gt;"/><marker lat="40.4291077" lng="-79.999241" zone="Zone 3" incidentdate="2014-07-19" incidenttime="01:09:00" incidentnumber="14140288" address="Liberty Tunnel &amp; P J McArdle Roadway, Pittsburgh, PA 15203, USA" type="ARREST" description="*********************************************** &lt;br/&gt;Careless Driving&lt;br/&gt;DUI - General Impairment&lt;br/&gt;DUI - Highest Rate of Alcohol - BAC &gt;= .16%&lt;br/&gt;Careless Driving&lt;br/&gt;DUI - General Impairment&lt;br/&gt;DUI - Highest Rate of Alcohol - BAC &gt;= .16%&lt;br/&gt;"/><marker lat="40.4578969" lng="-79.8985271" zone="Zone 5" incidentdate="2014-07-19" incidenttime="01:25:00" incidentnumber="14140308" address="Frankstown Avenue &amp; North Lang Avenue, Pittsburgh, PA 15208, USA" type="ARREST" description="*********************************************** &lt;br/&gt;Drivers Required to be Licensed.&lt;br/&gt;Receiving Stolen Property.&lt;br/&gt;General Lighting Requirements.&lt;br/&gt;Bench Warrant&lt;br/&gt;Drivers Required to be Licensed.&lt;br/&gt;Receiving Stolen Property.&lt;br/&gt;General Lighting Requirements.&lt;br/&gt;Bench Warrant&lt;br/&gt;"/><marker lat="40.4578969" lng="-79.8985271" zone="Zone 5" incidentdate="2014-07-19" incidenttime="01:25:00" incidentnumber="14140308" address="Frankstown Avenue &amp; North Lang Avenue, Pittsburgh, PA 15208, USA" type="OFFENSE" description="*********************************************** &lt;br/&gt;Drivers Required to be Licensed.&lt;br/&gt;Receiving Stolen Property.&lt;br/&gt;General Lighting Requirements.&lt;br/&gt;Bench Warrant&lt;br/&gt;Drivers Required to be Licensed.&lt;br/&gt;Receiving Stolen Property.&lt;br/&gt;General Lighting Requirements.&lt;br/&gt;Bench Warrant&lt;br/&gt;"/><marker lat="40.45185439999999" lng="-79.9282525" zone="Zone 4" incidentdate="2014-07-19" incidenttime="01:30:00" incidentnumber="14140552" address="5800 Howe Street, Pittsburgh, PA 15232, USA" type="OFFENSE" description="*********************************************** &lt;br/&gt;Loitering and Prowling at Night&lt;br/&gt;"/><marker lat="40.460049" lng="-79.88642899999999" zone="Zone 5" incidentdate="2014-07-19" incidenttime="01:37:00" incidentnumber="14140328" address="1200 Mohler Street, Pittsburgh, PA 15208, USA" type="OFFENSE" description="*********************************************** &lt;br/&gt;Burglary.&lt;br/&gt;"/><marker lat="40.4182216" lng="-80.00397020000001" zone="Zone 3" incidentdate="2014-07-19" incidenttime="01:50:00" incidentnumber="14140314" address="200 Cedarhurst Street, Pittsburgh, PA 15210, USA" type="OFFENSE" description="*********************************************** &lt;br/&gt;Discharge of a Firearm into Occupied Structure&lt;br/&gt;"/><marker lat="40.4642215" lng="-79.9000748" zone="Zone 5" incidentdate="2014-07-19" incidenttime="02:00:00" incidentnumber="14140626" address="1100 Lincoln Avenue, Pittsburgh, PA 15206, USA" type="OFFENSE" description="*********************************************** &lt;br/&gt;Criminal Mischief.&lt;br/&gt;"/><marker lat="40.4288154" lng="-79.9834085" zone="Zone 3" incidentdate="2014-07-19" incidenttime="02:04:00" incidentnumber="14140309" address="East Carson Street &amp; South 15th Street, Pittsburgh, PA 15203, USA" type="ARREST" description="*********************************************** &lt;br/&gt;Theft from Vehicle&lt;br/&gt;Resisting Arrest or Other Law Enforcement.&lt;br/&gt;Criminal Conspiracy.&lt;br/&gt;Theft from Vehicle&lt;br/&gt;Criminal Conspiracy.&lt;br/&gt;Theft from Vehicle&lt;br/&gt;Resisting Arrest or Other Law Enforcement.&lt;br/&gt;Criminal Conspiracy.&lt;br/&gt;"/><marker lat="40.4288154" lng="-79.9834085" zone="Zone 3" incidentdate="2014-07-19" incidenttime="02:04:00" incidentnumber="14140309" address="East Carson Street &amp; South 15th Street, Pittsburgh, PA 15203, USA" type="ARREST" description="*********************************************** &lt;br/&gt;Theft from Vehicle&lt;br/&gt;Resisting Arrest or Other Law Enforcement.&lt;br/&gt;Criminal Conspiracy.&lt;br/&gt;Theft from Vehicle&lt;br/&gt;Criminal Conspiracy.&lt;br/&gt;Theft from Vehicle&lt;br/&gt;Resisting Arrest or Other Law Enforcement.&lt;br/&gt;Criminal Conspiracy.&lt;br/&gt;"/><marker lat="40.4519013" lng="-79.9520082" zone="Zone 4" incidentdate="2014-07-19" incidenttime="02:11:00" incidentnumber="14140354" address="300 North Craig Street, Pittsburgh, PA 15213, USA" type="OFFENSE" description="*********************************************** &lt;br/&gt;Simple Assault.&lt;br/&gt;Robbery.&lt;br/&gt;"/><marker lat="40.4510022" lng="-79.98493479999999" zone="Zone 2" incidentdate="2014-07-19" incidenttime="02:30:00" incidentnumber="14140393" address="100 19th Street, Pittsburgh, PA 15222, USA" type="OFFENSE" description="*********************************************** &lt;br/&gt;Miscellaneous&lt;br/&gt;"/><marker lat="40.4510022" lng="-79.98493479999999" zone="Zone 2" incidentdate="2014-07-19" incidenttime="02:30:00" incidentnumber="14140393" address="100 19th Street, Pittsburgh, PA 15222, USA" type="OFFENSE" description="*********************************************** &lt;br/&gt;Miscellaneous&lt;br/&gt;"/><marker lat="40.4539286" lng="-79.97981399999999" zone="Zone 2" incidentdate="2014-07-19" incidenttime="02:47:00" incidentnumber="14140391" address="2500 Penn Avenue, Pittsburgh, PA 15222, USA" type="OFFENSE" description="*********************************************** &lt;br/&gt;Recklessly Endangering Another Person.&lt;br/&gt;Discharge of a Firearm into Occupied Structure&lt;br/&gt;Criminal Mischief.&lt;br/&gt;"/><marker lat="40.4539286" lng="-79.97981399999999" zone="Zone 2" incidentdate="2014-07-19" incidenttime="02:47:00" incidentnumber="14140391" address="2500 Penn Avenue, Pittsburgh, PA 15222, USA" type="OFFENSE" description="*********************************************** &lt;br/&gt;Recklessly Endangering Another Person.&lt;br/&gt;Discharge of a Firearm into Occupied Structure&lt;br/&gt;Criminal Mischief.&lt;br/&gt;"/><marker lat="40.4510022" lng="-79.98493479999999" zone="Zone 2" incidentdate="2014-07-19" incidenttime="03:00:00" incidentnumber="14140368" address="100 19th Street, Pittsburgh, PA 15222, USA" type="OFFENSE" description="*********************************************** &lt;br/&gt;Marijuana: Possession Small Amount&lt;br/&gt;Driving While Operating Privilege is Suspended or Revoked.&lt;br/&gt;Stop, Stand and Park Outside Bus. and Res.&lt;br/&gt;Escape.&lt;br/&gt;Firearms not to be Carried without a License.&lt;br/&gt;"/><marker lat="40.4510022" lng="-79.98493479999999" zone="Zone 2" incidentdate="2014-07-19" incidenttime="03:00:00" incidentnumber="14140368" address="100 19th Street, Pittsburgh, PA 15222, USA" type="OFFENSE" description="*********************************************** &lt;br/&gt;Marijuana: Possession Small Amount&lt;br/&gt;Driving While Operating Privilege is Suspended or Revoked.&lt;br/&gt;Stop, Stand and Park Outside Bus. and Res.&lt;br/&gt;Escape.&lt;br/&gt;Firearms not to be Carried without a License.&lt;br/&gt;"/><marker lat="40.449179" lng="-79.9013037" zone="Zone 4" incidentdate="2014-07-19" incidenttime="03:00:00" incidentnumber="14140435" address="Penn Avenue &amp; North Homewood Avenue, Pittsburgh, PA 15208, USA" type="OFFENSE" description="*********************************************** &lt;br/&gt;Accidents Involving Damage to Attended Veh. or Property&lt;br/&gt;"/><marker lat="40.4288731" lng="-80.0242083" zone="Zone 3" incidentdate="2014-07-19" incidenttime="03:30:00" incidentnumber="14140415" address="Saw Mill Run Boulevard &amp; Woodruff Street, Pittsburgh, PA 15220, USA" type="OFFENSE" description="*********************************************** &lt;br/&gt;Careless Driving&lt;br/&gt;DUI - General Impairment&lt;br/&gt;DUI - Highest Rate of Alcohol - BAC &gt;= .16%&lt;br/&gt;Careless Driving&lt;br/&gt;DUI - General Impairment&lt;br/&gt;DUI - Highest Rate of Alcohol - BAC &gt;= .16%&lt;br/&gt;"/><marker lat="40.4288731" lng="-80.0242083" zone="Zone 3" incidentdate="2014-07-19" incidenttime="03:40:00" incidentnumber="14140415" address="Saw Mill Run Boulevard &amp; Woodruff Street, Pittsburgh, PA 15220, USA" type="ARREST" description="*********************************************** &lt;br/&gt;Careless Driving&lt;br/&gt;DUI - General Impairment&lt;br/&gt;DUI - Highest Rate of Alcohol - BAC &gt;= .16%&lt;br/&gt;Careless Driving&lt;br/&gt;DUI - General Impairment&lt;br/&gt;DUI - Highest Rate of Alcohol - BAC &gt;= .16%&lt;br/&gt;"/><marker lat="40.4545418" lng="-79.8741914" zone="Zone 5" incidentdate="2014-07-19" incidenttime="03:58:00" incidentnumber="14140430" address="2100 Park Hill Drive, Pittsburgh, PA 15221, USA" type="OFFENSE" description="*********************************************** &lt;br/&gt;Harassment.&lt;br/&gt;"/><marker lat="40.4237714" lng="-79.9917877" zone="Zone 3" incidentdate="2014-07-19" incidenttime="05:10:00" incidentnumber="14139332" address="Emerald Street, Pittsburgh, PA 15210, USA" type="ARREST" description="*********************************************** &lt;br/&gt;Harassment Communicates Prohibited Acts&lt;br/&gt;"/><marker lat="40.4598612" lng="-79.97127929999999" zone="Zone 2" incidentdate="2014-07-19" incidenttime="05:54:00" incidentnumber="14140464" address="Penn Avenue &amp; 31st Street, Pittsburgh, PA 15201, USA" type="OFFENSE" description="*********************************************** &lt;br/&gt;Traffic-Control Signals.&lt;br/&gt;One-Way Roadways and Rotary Traffic Islands.&lt;br/&gt;Reckless Driving&lt;br/&gt;DUI - General Impairment&lt;br/&gt;DUI - Highest Rate of Alcohol - BAC &gt;= .16%&lt;br/&gt;Traffic-Control Signals.&lt;br/&gt;One-Way Roadways and Rotary Traffic Islands.&lt;br/&gt;Reckless Driving&lt;br/&gt;DUI - General Impairment&lt;br/&gt;DUI - Highest Rate of Alcohol - BAC &gt;= .16%&lt;br/&gt;"/><marker lat="40.4598612" lng="-79.97127929999999" zone="Zone 2" incidentdate="2014-07-19" incidenttime="05:54:00" incidentnumber="14140464" address="Penn Avenue &amp; 31st Street, Pittsburgh, PA 15201, USA" type="OFFENSE" description="*********************************************** &lt;br/&gt;Traffic-Control Signals.&lt;br/&gt;One-Way Roadways and Rotary Traffic Islands.&lt;br/&gt;Reckless Driving&lt;br/&gt;DUI - General Impairment&lt;br/&gt;DUI - Highest Rate of Alcohol - BAC &gt;= .16%&lt;br/&gt;Traffic-Control Signals.&lt;br/&gt;One-Way Roadways and Rotary Traffic Islands.&lt;br/&gt;Reckless Driving&lt;br/&gt;DUI - General Impairment&lt;br/&gt;DUI - Highest Rate of Alcohol - BAC &gt;= .16%&lt;br/&gt;"/><marker lat="40.4598612" lng="-79.97127929999999" zone="Zone 2" incidentdate="2014-07-19" incidenttime="06:00:00" incidentnumber="14140464" address="Penn Avenue &amp; 31st Street, Pittsburgh, PA 15201, USA" type="ARREST" description="*********************************************** &lt;br/&gt;Traffic-Control Signals.&lt;br/&gt;One-Way Roadways and Rotary Traffic Islands.&lt;br/&gt;Reckless Driving&lt;br/&gt;DUI - General Impairment&lt;br/&gt;DUI - Highest Rate of Alcohol - BAC &gt;= .16%&lt;br/&gt;Traffic-Control Signals.&lt;br/&gt;One-Way Roadways and Rotary Traffic Islands.&lt;br/&gt;Reckless Driving&lt;br/&gt;DUI - General Impairment&lt;br/&gt;DUI - Highest Rate of Alcohol - BAC &gt;= .16%&lt;br/&gt;"/><marker lat="40.4598612" lng="-79.97127929999999" zone="Zone 2" incidentdate="2014-07-19" incidenttime="06:00:00" incidentnumber="14140464" address="Penn Avenue &amp; 31st Street, Pittsburgh, PA 15201, USA" type="ARREST" description="*********************************************** &lt;br/&gt;Traffic-Control Signals.&lt;br/&gt;One-Way Roadways and Rotary Traffic Islands.&lt;br/&gt;Reckless Driving&lt;br/&gt;DUI - General Impairment&lt;br/&gt;DUI - Highest Rate of Alcohol - BAC &gt;= .16%&lt;br/&gt;Traffic-Control Signals.&lt;br/&gt;One-Way Roadways and Rotary Traffic Islands.&lt;br/&gt;Reckless Driving&lt;br/&gt;DUI - General Impairment&lt;br/&gt;DUI - Highest Rate of Alcohol - BAC &gt;= .16%&lt;br/&gt;"/><marker lat="40.4233612" lng="-80.0106855" zone="Zone 3" incidentdate="2014-07-19" incidenttime="06:00:00" incidentnumber="14140467" address="500 Griffin Street, Pittsburgh, PA 15211, USA" type="OFFENSE" description="*********************************************** &lt;br/&gt;Theft by Unlawful Taking or Disposition - Movable item&lt;br/&gt;"/><marker lat="40.419144" lng="-79.9936622" zone="Zone 3" incidentdate="2014-07-19" incidenttime="06:15:00" incidentnumber="14140474" address="800 Freeland Street, Pittsburgh, PA 15210, USA" type="ARREST" description="*********************************************** &lt;br/&gt;Possession of Controlled Substance&lt;br/&gt;Possession w/ Intent to Del. Controlled Substance&lt;br/&gt;Marijuana: Possession Small Amount&lt;br/&gt;Paraphernalia - Use or Possession&lt;br/&gt;Receiving Stolen Property.&lt;br/&gt;Former Convict not to Own a Firearm, Etc.&lt;br/&gt;Possession of Controlled Substance&lt;br/&gt;Possession w/ Intent to Del. Controlled Substance&lt;br/&gt;Marijuana: Possession Small Amount&lt;br/&gt;Paraphernalia - Use or Possession&lt;br/&gt;Receiving Stolen Property.&lt;br/&gt;Former Convict not to Own a Firearm, Etc.&lt;br/&gt;"/><marker lat="40.46076499999999" lng="-79.991671" zone="Zone 1" incidentdate="2014-07-19" incidenttime="06:36:00" incidentnumber="14140475" address="1200 High Street, Pittsburgh, PA 15212, USA" type="OFFENSE" description="*********************************************** &lt;br/&gt;Criminal Mischief.&lt;br/&gt;"/><marker lat="40.46076499999999" lng="-79.991671" zone="Zone 1" incidentdate="2014-07-19" incidenttime="06:36:00" incidentnumber="14140475" address="1200 High Street, Pittsburgh, PA 15212, USA" type="OFFENSE" description="*********************************************** &lt;br/&gt;Criminal Mischief.&lt;br/&gt;"/><marker lat="40.4617447" lng="-80.0104511" zone="Zone 1" incidentdate="2014-07-19" incidenttime="07:25:00" incidentnumber="14140479" address="1900 Clayton Avenue, Pittsburgh, PA 15214, USA" type="OFFENSE" description="*********************************************** &lt;br/&gt;False  Burglar Alarm&lt;br/&gt;"/><marker lat="40.4617447" lng="-80.0104511" zone="Zone 1" incidentdate="2014-07-19" incidenttime="07:25:00" incidentnumber="14140479" address="1900 Clayton Avenue, Pittsburgh, PA 15214, USA" type="OFFENSE" description="*********************************************** &lt;br/&gt;False  Burglar Alarm&lt;br/&gt;"/><marker lat="40.4781172" lng="-79.94109329999999" zone="Zone 5" incidentdate="2014-07-19" incidenttime="07:45:00" incidentnumber="14140491" address="1100 Woodbine Street, Pittsburgh, PA 15201, USA" type="OFFENSE" description="*********************************************** &lt;br/&gt;Theft from Vehicle&lt;br/&gt;"/><marker lat="40.4702378" lng="-80.0280607" zone="Zone 1" incidentdate="2014-07-19" incidenttime="08:00:00" incidentnumber="14140507" address="1200 Dickson Street, Pittsburgh, PA 15212, USA" type="OFFENSE" description="*********************************************** &lt;br/&gt;Accidents Involving Damage to Unattended Veh.or Prop.&lt;br/&gt;"/><marker lat="40.4702378" lng="-80.0280607" zone="Zone 1" incidentdate="2014-07-19" incidenttime="08:00:00" incidentnumber="14140507" address="1200 Dickson Street, Pittsburgh, PA 15212, USA" type="OFFENSE" description="*********************************************** &lt;br/&gt;Accidents Involving Damage to Unattended Veh.or Prop.&lt;br/&gt;"/><marker lat="40.416942" lng="-79.97586199999999" zone="Zone 3" incidentdate="2014-07-19" incidenttime="08:00:00" incidentnumber="14140528" address="2200 Arlington Avenue, Pittsburgh, PA 15210, USA" type="OFFENSE" description="*********************************************** &lt;br/&gt;Criminal Mischief.&lt;br/&gt;"/><marker lat="40.416942" lng="-79.97586199999999" zone="Zone 3" incidentdate="2014-07-19" incidenttime="08:00:00" incidentnumber="14140532" address="2200 Arlington Avenue, Pittsburgh, PA 15210, USA" type="OFFENSE" description="*********************************************** &lt;br/&gt;Criminal Mischief.&lt;br/&gt;"/><marker lat="40.416942" lng="-79.97586199999999" zone="Zone 3" incidentdate="2014-07-19" incidenttime="08:00:00" incidentnumber="14140519" address="2200 Arlington Avenue, Pittsburgh, PA 15210, USA" type="OFFENSE" description="*********************************************** &lt;br/&gt;Criminal Mischief.&lt;br/&gt;"/><marker lat="40.419144" lng="-79.9936622" zone="Zone 3" incidentdate="2014-07-19" incidenttime="08:05:00" incidentnumber="14140474" address="800 Freeland Street, Pittsburgh, PA 15210, USA" type="OFFENSE" description="*********************************************** &lt;br/&gt;Possession of Controlled Substance&lt;br/&gt;Possession w/ Intent to Del. Controlled Substance&lt;br/&gt;Marijuana: Possession Small Amount&lt;br/&gt;Paraphernalia - Use or Possession&lt;br/&gt;Receiving Stolen Property.&lt;br/&gt;Former Convict not to Own a Firearm, Etc.&lt;br/&gt;Possession of Controlled Substance&lt;br/&gt;Possession w/ Intent to Del. Controlled Substance&lt;br/&gt;Marijuana: Possession Small Amount&lt;br/&gt;Paraphernalia - Use or Possession&lt;br/&gt;Receiving Stolen Property.&lt;br/&gt;Former Convict not to Own a Firearm, Etc.&lt;br/&gt;"/><marker lat="40.4436409" lng="-79.88466919999999" zone="Zone 2" incidentdate="2014-07-19" incidenttime="08:10:00" incidentnumber="14140501" address="700 Penn Avenue, Pittsburgh, PA 15221, USA" type="OFFENSE" description="*********************************************** &lt;br/&gt;Accidents Involving Damage to Attended Veh. or Property&lt;br/&gt;"/><marker lat="40.4550784" lng="-79.8794182" zone="Zone 5" incidentdate="2014-07-19" incidenttime="08:20:00" incidentnumber="14140588" address="8300 Frankstown Avenue, Pittsburgh, PA 15221, USA" type="OFFENSE" description="*********************************************** &lt;br/&gt;Burglary.&lt;br/&gt;"/><marker lat="40.4683185" lng="-79.8957463" zone="Zone 5" incidentdate="2014-07-19" incidenttime="08:30:00" incidentnumber="14140515" address="7100 Lemington Avenue, Pittsburgh, PA 15206, USA" type="OFFENSE" description="*********************************************** &lt;br/&gt;Harassment.&lt;br/&gt;"/><marker lat="40.4521297" lng="-80.0526812" zone="Zone 6" incidentdate="2014-07-19" incidenttime="08:30:00" incidentnumber="14140508" address="700 Municipal Street, Pittsburgh, PA 15204, USA" type="OFFENSE" description="*********************************************** &lt;br/&gt;Criminal Mischief.&lt;br/&gt;"/><marker lat="40.4139193" lng="-79.9929607" zone="Zone 3" incidentdate="2014-07-19" incidenttime="09:01:00" incidentnumber="14140525" address="Grimes Avenue, Pittsburgh, PA 15210, USA" type="OFFENSE" description="*********************************************** &lt;br/&gt;Recklessly Endangering Another Person.&lt;br/&gt;Terroristic Threats.&lt;br/&gt;Driving on Right Side of Roadway.&lt;br/&gt;Causing or Risking Catastrophe.&lt;br/&gt;CRIMINAL MISCHIEF/DMG. PROP INTENT, RECKLESS OR NEG.&lt;br/&gt;CRIMINAL MISCHIEF - Intentionally Damages Real Or Personal Property Of Another&lt;br/&gt;"/><marker lat="40.4537856" lng="-80.0073768" zone="Zone 1" incidentdate="2014-07-19" incidenttime="09:05:00" incidentnumber="14140520" address="Allegheny Center, Pittsburgh, PA, USA" type="OFFENSE" description="*********************************************** &lt;br/&gt;False  Burglar Alarm&lt;br/&gt;"/><marker lat="40.4537856" lng="-80.0073768" zone="Zone 1" incidentdate="2014-07-19" incidenttime="09:05:00" incidentnumber="14140520" address="Allegheny Center, Pittsburgh, PA, USA" type="OFFENSE" description="*********************************************** &lt;br/&gt;False  Burglar Alarm&lt;br/&gt;"/><marker lat="40.4921762" lng="-79.9383751" zone="Zone 2" incidentdate="2014-07-19" incidenttime="09:20:00" incidentnumber="14047181" address="1st Street, Pittsburgh, PA, USA" type="ARREST" description="*********************************************** &lt;br/&gt;Theft by Unlawful Taking or Disposition - Movable item&lt;br/&gt;"/><marker lat="40.4921762" lng="-79.9383751" zone="Zone 2" incidentdate="2014-07-19" incidenttime="09:24:00" incidentnumber="14105095" address="1st Street, Pittsburgh, PA, USA" type="ARREST" description="*********************************************** &lt;br/&gt;Simple Assault.&lt;br/&gt;"/><marker lat="40.4661199" lng="-79.93538199999999" zone="Zone 5" incidentdate="2014-07-19" incidenttime="09:32:00" incidentnumber="14140533" address="5400 Kincaid Street, Pittsburgh, PA 15206, USA" type="OFFENSE" description="*********************************************** &lt;br/&gt;Simple Assault.&lt;br/&gt;Simple Assault.&lt;br/&gt;"/><marker lat="40.4573734" lng="-79.9977296" zone="Zone 1" incidentdate="2014-07-19" incidenttime="10:00:00" incidentnumber="14140561" address="800 Spring Garden Avenue, Pittsburgh, PA 15212, USA" type="OFFENSE" description="*********************************************** &lt;br/&gt;Theft from Vehicle&lt;br/&gt;"/><marker lat="40.4573734" lng="-79.9977296" zone="Zone 1" incidentdate="2014-07-19" incidenttime="10:00:00" incidentnumber="14140561" address="800 Spring Garden Avenue, Pittsburgh, PA 15212, USA" type="OFFENSE" description="*********************************************** &lt;br/&gt;Theft from Vehicle&lt;br/&gt;"/><marker lat="40.4921762" lng="-79.9383751" zone="Zone 2" incidentdate="2014-07-19" incidenttime="10:10:00" incidentnumber="14125863" address="1st Street, Pittsburgh, PA, USA" type="ARREST" description="*********************************************** &lt;br/&gt;Aggravated Assault.&lt;br/&gt;Resisting Arrest or Other Law Enforcement.&lt;br/&gt;"/><marker lat="40.4594086" lng="-79.88688309999999" zone="Zone 5" incidentdate="2014-07-19" incidenttime="10:13:00" incidentnumber="14140554" address="1200 Nolan Court, Pittsburgh, PA 15208, USA" type="OFFENSE" description="*********************************************** &lt;br/&gt;9999 - (Misc. Incident):&lt;br/&gt;"/><marker lat="40.4080196" lng="-80.0291202" zone="Zone 6" incidentdate="2014-07-19" incidenttime="10:13:00" incidentnumber="14140513" address="Cagwin Avenue, Pittsburgh, PA 15216, USA" type="ARREST" description="*********************************************** &lt;br/&gt;Bench Warrant&lt;br/&gt;Bench Warrant&lt;br/&gt;"/><marker lat="40.4080196" lng="-80.0291202" zone="Zone 6" incidentdate="2014-07-19" incidenttime="10:13:00" incidentnumber="14140513" address="Cagwin Avenue, Pittsburgh, PA 15216, USA" type="OFFENSE" description="*********************************************** &lt;br/&gt;Bench Warrant&lt;br/&gt;Bench Warrant&lt;br/&gt;"/><marker lat="40.488166" lng="-80.015205" zone="Zone 1" incidentdate="2014-07-19" incidenttime="10:17:00" incidentnumber="14140557" address="3800 East Street, Pittsburgh, PA 15214, USA" type="OFFENSE" description="*********************************************** &lt;br/&gt;False  Burglar Alarm&lt;br/&gt;"/><marker lat="40.488166" lng="-80.015205" zone="Zone 1" incidentdate="2014-07-19" incidenttime="10:17:00" incidentnumber="14140557" address="3800 East Street, Pittsburgh, PA 15214, USA" type="OFFENSE" description="*********************************************** &lt;br/&gt;False  Burglar Alarm&lt;br/&gt;"/><marker lat="40.4377186" lng="-79.93297" zone="Zone 4" incidentdate="2014-07-19" incidenttime="10:56:00" incidentnumber="14140576" address="5400 Forbes Avenue, Pittsburgh, PA 15217, USA" type="OFFENSE" description="*********************************************** &lt;br/&gt;Accidents Involving Damage to Unattended Veh.or Prop.&lt;br/&gt;"/><marker lat="40.4661199" lng="-79.93538199999999" zone="Zone 5" incidentdate="2014-07-19" incidenttime="11:10:00" incidentnumber="14140533" address="5400 Kincaid Street, Pittsburgh, PA 15206, USA" type="ARREST" description="*********************************************** &lt;br/&gt;Simple Assault.&lt;br/&gt;Simple Assault.&lt;br/&gt;"/><marker lat="40.449638" lng="-79.892864" zone="Zone 4" incidentdate="2014-07-19" incidenttime="11:35:00" incidentnumber="14140595" address="300 North Braddock Avenue, Pittsburgh, PA 15208, USA" type="OFFENSE" description="*********************************************** &lt;br/&gt;Aided Case&lt;br/&gt;"/><marker lat="40.45881019999999" lng="-80.0645716" zone="Zone 6" incidentdate="2014-07-19" incidenttime="11:45:00" incidentnumber="14140599" address="1000 Criss Street, Pittsburgh, PA 15204, USA" type="OFFENSE" description="*********************************************** &lt;br/&gt;Theft by Unlawful Taking or Disposition.&lt;br/&gt;"/><marker lat="40.4665538" lng="-79.9936577" zone="Zone 1" incidentdate="2014-07-19" incidenttime="11:50:00" incidentnumber="14140602" address="2100 Rhine Street, Pittsburgh, PA 15212, USA" type="OFFENSE" description="*********************************************** &lt;br/&gt;Simple Assault.&lt;br/&gt;Simple Assault.&lt;br/&gt;"/><marker lat="40.4665538" lng="-79.9936577" zone="Zone 1" incidentdate="2014-07-19" incidenttime="11:50:00" incidentnumber="14140602" address="2100 Rhine Street, Pittsburgh, PA 15212, USA" type="OFFENSE" description="*********************************************** &lt;br/&gt;Simple Assault.&lt;br/&gt;Simple Assault.&lt;br/&gt;"/><marker lat="40.4665538" lng="-79.9936577" zone="Zone 1" incidentdate="2014-07-19" incidenttime="12:00:00" incidentnumber="14140602" address="2100 Rhine Street, Pittsburgh, PA 15212, USA" type="ARREST" description="*********************************************** &lt;br/&gt;Simple Assault.&lt;br/&gt;Simple Assault.&lt;br/&gt;"/><marker lat="40.4665538" lng="-79.9936577" zone="Zone 1" incidentdate="2014-07-19" incidenttime="12:00:00" incidentnumber="14140602" address="2100 Rhine Street, Pittsburgh, PA 15212, USA" type="ARREST" description="*********************************************** &lt;br/&gt;Simple Assault.&lt;br/&gt;Simple Assault.&lt;br/&gt;"/><marker lat="40.4165766" lng="-80.00489499999999" zone="Zone 3" incidentdate="2014-07-19" incidenttime="12:05:00" incidentnumber="14140606" address="Chalfont Street &amp; Gearing Avenue, Pittsburgh, PA 15210, USA" type="OFFENSE" description="*********************************************** &lt;br/&gt;9999 - (Misc. Incident):&lt;br/&gt;"/><marker lat="40.3922203" lng="-79.98497789999999" zone="Zone 3" incidentdate="2014-07-19" incidenttime="12:30:00" incidentnumber="14140620" address="100 Duffland Street, Pittsburgh, PA 15210, USA" type="OFFENSE" description="*********************************************** &lt;br/&gt;Cruelty to Animals.&lt;br/&gt;"/><marker lat="40.44602039999999" lng="-80.0153356" zone="Zone 1" incidentdate="2014-07-19" incidenttime="12:42:00" incidentnumber="14140633" address="100 Art Rooney Avenue, Pittsburgh, PA 15212, USA" type="OFFENSE" description="*********************************************** &lt;br/&gt;Criminal Mischief.&lt;br/&gt;"/><marker lat="40.44602039999999" lng="-80.0153356" zone="Zone 1" incidentdate="2014-07-19" incidenttime="12:42:00" incidentnumber="14140633" address="100 Art Rooney Avenue, Pittsburgh, PA 15212, USA" type="OFFENSE" description="*********************************************** &lt;br/&gt;Criminal Mischief.&lt;br/&gt;"/><marker lat="40.469002" lng="-79.999197" zone="Zone 1" incidentdate="2014-07-19" incidenttime="13:00:00" incidentnumber="14140665" address="900 Mina Street, Pittsburgh, PA 15212, USA" type="OFFENSE" description="*********************************************** &lt;br/&gt;Criminal Mischief.&lt;br/&gt;"/><marker lat="40.469002" lng="-79.999197" zone="Zone 1" incidentdate="2014-07-19" incidenttime="13:00:00" incidentnumber="14140665" address="900 Mina Street, Pittsburgh, PA 15212, USA" type="OFFENSE" description="*********************************************** &lt;br/&gt;Criminal Mischief.&lt;br/&gt;"/><marker lat="40.469014" lng="-80.031657" zone="Zone 1" incidentdate="2014-07-19" incidenttime="13:25:00" incidentnumber="14140658" address="1400 Woodland Avenue, Pittsburgh, PA 15212, USA" type="OFFENSE" description="*********************************************** &lt;br/&gt;False  Burglar Alarm&lt;br/&gt;"/><marker lat="40.469014" lng="-80.031657" zone="Zone 1" incidentdate="2014-07-19" incidenttime="13:25:00" incidentnumber="14140658" address="1400 Woodland Avenue, Pittsburgh, PA 15212, USA" type="OFFENSE" description="*********************************************** &lt;br/&gt;False  Burglar Alarm&lt;br/&gt;"/><marker lat="40.43188079999999" lng="-79.9274975" zone="Zone 4" incidentdate="2014-07-19" incidenttime="13:30:00" incidentnumber="14140796" address="5600 Hempstead Road, Pittsburgh, PA 15217, USA" type="OFFENSE" description="*********************************************** &lt;br/&gt;Lost Property&lt;br/&gt;"/><marker lat="40.45543500000001" lng="-79.89227269999999" zone="Zone 5" incidentdate="2014-07-19" incidenttime="13:47:00" incidentnumber="14140688" address="Bennett Street, Pittsburgh, PA, USA" type="OFFENSE" description="*********************************************** &lt;br/&gt;Accidents Involving Damage to Unattended Veh.or Prop.&lt;br/&gt;"/><marker lat="40.44079079999999" lng="-80.0579411" zone="Zone 6" incidentdate="2014-07-19" incidenttime="13:49:00" incidentnumber="14140673" address="1300 Round Top Street, Pittsburgh, PA 15205, USA" type="OFFENSE" description="*********************************************** &lt;br/&gt;False  Burglar Alarm&lt;br/&gt;"/><marker lat="40.484003" lng="-80.04267399999999" zone="Zone 1" incidentdate="2014-07-19" incidenttime="13:56:00" incidentnumber="14140683" address="1900 Marmaduke Street, Pittsburgh, PA 15212, USA" type="OFFENSE" description="*********************************************** &lt;br/&gt;9999 - (Misc. Incident):&lt;br/&gt;"/><marker lat="40.484003" lng="-80.04267399999999" zone="Zone 1" incidentdate="2014-07-19" incidenttime="13:56:00" incidentnumber="14140683" address="1900 Marmaduke Street, Pittsburgh, PA 15212, USA" type="OFFENSE" description="*********************************************** &lt;br/&gt;9999 - (Misc. Incident):&lt;br/&gt;"/><marker lat="40.469856" lng="-80.007156" zone="Zone 1" incidentdate="2014-07-19" incidenttime="14:52:00" incidentnumber="14140697" address="2500 Maple Avenue, Pittsburgh, PA 15214, USA" type="OFFENSE" description="*********************************************** &lt;br/&gt;Failure To Appear/Arrest on Attachment Order&lt;br/&gt;"/><marker lat="40.469856" lng="-80.007156" zone="Zone 1" incidentdate="2014-07-19" incidenttime="14:52:00" incidentnumber="14140697" address="2500 Maple Avenue, Pittsburgh, PA 15214, USA" type="OFFENSE" description="*********************************************** &lt;br/&gt;Failure To Appear/Arrest on Attachment Order&lt;br/&gt;"/><marker lat="40.4632036" lng="-80.011065" zone="Zone 1" incidentdate="2014-07-19" incidenttime="15:00:00" incidentnumber="14140747" address="200 Langley Street, Pittsburgh, PA 15214, USA" type="OFFENSE" description="*********************************************** &lt;br/&gt;Burglary.&lt;br/&gt;"/><marker lat="40.4632036" lng="-80.011065" zone="Zone 1" incidentdate="2014-07-19" incidenttime="15:00:00" incidentnumber="14140747" address="200 Langley Street, Pittsburgh, PA 15214, USA" type="OFFENSE" description="*********************************************** &lt;br/&gt;Burglary.&lt;br/&gt;"/><marker lat="40.4250918" lng="-79.9809193" zone="Zone 3" incidentdate="2014-07-19" incidenttime="15:00:00" incidentnumber="14140700" address="South 18th Street, Pittsburgh, PA, USA" type="OFFENSE" description="*********************************************** &lt;br/&gt;Theft from Vehicle&lt;br/&gt;"/><marker lat="40.4550966" lng="-79.8711225" zone="Zone 5" incidentdate="2014-07-19" incidenttime="15:00:00" incidentnumber="14140799" address="2300 East Hills Drive, Pittsburgh, PA 15221, USA" type="OFFENSE" description="*********************************************** &lt;br/&gt;Burglary.&lt;br/&gt;"/><marker lat="40.4699459" lng="-80.0256268" zone="Zone 1" incidentdate="2014-07-19" incidenttime="15:10:00" incidentnumber="14140715" address="Brighton Road, Pittsburgh, PA, USA" type="OFFENSE" description="*********************************************** &lt;br/&gt;Found Property&lt;br/&gt;"/><marker lat="40.4699459" lng="-80.0256268" zone="Zone 1" incidentdate="2014-07-19" incidenttime="15:10:00" incidentnumber="14140715" address="Brighton Road, Pittsburgh, PA, USA" type="OFFENSE" description="*********************************************** &lt;br/&gt;Found Property&lt;br/&gt;"/><marker lat="40.4606459" lng="-79.92276439999999" zone="Zone 5" incidentdate="2014-07-19" incidenttime="15:25:00" incidentnumber="14140710" address="6200 Penn Avenue, Pittsburgh, PA 15206, USA" type="OFFENSE" description="*********************************************** &lt;br/&gt;Retail Theft; takes possession of, carries away, or transfers displayed merchandise&lt;br/&gt;Bench Warrant&lt;br/&gt;Retail Theft; takes possession of, carries away, or transfers displayed merchandise&lt;br/&gt;Bench Warrant&lt;br/&gt;"/><marker lat="40.4436409" lng="-79.88466919999999" zone="Zone 2" incidentdate="2014-07-19" incidenttime="15:59:00" incidentnumber="14140711" address="700 Penn Avenue, Pittsburgh, PA 15221, USA" type="OFFENSE" description="*********************************************** &lt;br/&gt;Possession of Controlled Substance&lt;br/&gt;Marijuana: Possession Small Amount&lt;br/&gt;Contraband.&lt;br/&gt;Public Drunkenness&lt;br/&gt;Bench Warrant&lt;br/&gt;Possession of Controlled Substance&lt;br/&gt;Marijuana: Possession Small Amount&lt;br/&gt;Contraband.&lt;br/&gt;Public Drunkenness&lt;br/&gt;Bench Warrant&lt;br/&gt;"/><marker lat="40.4436409" lng="-79.88466919999999" zone="Zone 2" incidentdate="2014-07-19" incidenttime="16:00:00" incidentnumber="14140711" address="700 Penn Avenue, Pittsburgh, PA 15221, USA" type="ARREST" description="*********************************************** &lt;br/&gt;Possession of Controlled Substance&lt;br/&gt;Marijuana: Possession Small Amount&lt;br/&gt;Contraband.&lt;br/&gt;Public Drunkenness&lt;br/&gt;Bench Warrant&lt;br/&gt;Possession of Controlled Substance&lt;br/&gt;Marijuana: Possession Small Amount&lt;br/&gt;Contraband.&lt;br/&gt;Public Drunkenness&lt;br/&gt;Bench Warrant&lt;br/&gt;"/><marker lat="40.4606459" lng="-79.92276439999999" zone="Zone 5" incidentdate="2014-07-19" incidenttime="16:00:00" incidentnumber="14140710" address="6200 Penn Avenue, Pittsburgh, PA 15206, USA" type="ARREST" description="*********************************************** &lt;br/&gt;Retail Theft; takes possession of, carries away, or transfers displayed merchandise&lt;br/&gt;Bench Warrant&lt;br/&gt;Retail Theft; takes possession of, carries away, or transfers displayed merchandise&lt;br/&gt;Bench Warrant&lt;br/&gt;"/><marker lat="40.486877" lng="-79.894016" zone="Zone 5" incidentdate="2014-07-19" incidenttime="16:16:00" incidentnumber="14140732" address="900 Freeport Road, Pittsburgh, PA 15238, USA" type="ARREST" description="*********************************************** &lt;br/&gt;Actual Communication&lt;br/&gt;Resisting Arrest or Other Law Enforcement.&lt;br/&gt;Public Drunkenness&lt;br/&gt;Actual Communication&lt;br/&gt;Resisting Arrest or Other Law Enforcement.&lt;br/&gt;Public Drunkenness&lt;br/&gt;"/><marker lat="40.486877" lng="-79.894016" zone="Zone 5" incidentdate="2014-07-19" incidenttime="16:16:00" incidentnumber="14140732" address="900 Freeport Road, Pittsburgh, PA 15238, USA" type="OFFENSE" description="*********************************************** &lt;br/&gt;Actual Communication&lt;br/&gt;Resisting Arrest or Other Law Enforcement.&lt;br/&gt;Public Drunkenness&lt;br/&gt;Actual Communication&lt;br/&gt;Resisting Arrest or Other Law Enforcement.&lt;br/&gt;Public Drunkenness&lt;br/&gt;"/><marker lat="40.47055719999999" lng="-79.9627934" zone="Zone 2" incidentdate="2014-07-19" incidenttime="16:17:00" incidentnumber="14140743" address="Foster Street &amp; 41st Street, Pittsburgh, PA 15201, USA" type="OFFENSE" description="*********************************************** &lt;br/&gt;Paraphernalia - Use or Possession&lt;br/&gt;Paraphernalia - Use or Possession&lt;br/&gt;"/><marker lat="40.4471117" lng="-79.89511209999999" zone="Zone 4" incidentdate="2014-07-19" incidenttime="16:18:00" incidentnumber="14140745" address="7600 Penn Avenue, Pittsburgh, PA 15221, USA" type="OFFENSE" description="*********************************************** &lt;br/&gt;Terroristic Threats.&lt;br/&gt;Harassment (Non-Specific)&lt;br/&gt;"/><marker lat="40.47055719999999" lng="-79.9627934" zone="Zone 2" incidentdate="2014-07-19" incidenttime="16:25:00" incidentnumber="14140743" address="Foster Street &amp; 41st Street, Pittsburgh, PA 15201, USA" type="ARREST" description="*********************************************** &lt;br/&gt;Paraphernalia - Use or Possession&lt;br/&gt;Paraphernalia - Use or Possession&lt;br/&gt;"/><marker lat="40.44062479999999" lng="-79.9958864" zone="Zone 3" incidentdate="2014-07-19" incidenttime="16:30:00" incidentnumber="14140818" address="Pittsburgh, PA, USA" type="OFFENSE" description="*********************************************** &lt;br/&gt;Simple Assault.&lt;br/&gt;Terroristic Threats.&lt;br/&gt;Unlawful Restraint.&lt;br/&gt;Simple Assault.&lt;br/&gt;Terroristic Threats.&lt;br/&gt;Unlawful Restraint.&lt;br/&gt;"/><marker lat="40.486877" lng="-79.894016" zone="Zone 5" incidentdate="2014-07-19" incidenttime="16:34:00" incidentnumber="14140761" address="900 Freeport Road, Pittsburgh, PA 15238, USA" type="ARREST" description="*********************************************** &lt;br/&gt;Possession of Controlled Substance&lt;br/&gt;Retail Theft.&lt;br/&gt;Contraband.&lt;br/&gt;Possession of Controlled Substance&lt;br/&gt;Retail Theft.&lt;br/&gt;Contraband.&lt;br/&gt;"/><marker lat="40.486877" lng="-79.894016" zone="Zone 5" incidentdate="2014-07-19" incidenttime="16:34:00" incidentnumber="14140761" address="900 Freeport Road, Pittsburgh, PA 15238, USA" type="OFFENSE" description="*********************************************** &lt;br/&gt;Possession of Controlled Substance&lt;br/&gt;Retail Theft.&lt;br/&gt;Contraband.&lt;br/&gt;Possession of Controlled Substance&lt;br/&gt;Retail Theft.&lt;br/&gt;Contraband.&lt;br/&gt;"/><marker lat="40.4345656" lng="-79.9230317" zone="Zone 4" incidentdate="2014-07-19" incidenttime="17:00:00" incidentnumber="14140865" address="2000 Murray Avenue, Pittsburgh, PA 15217, USA" type="OFFENSE" description="*********************************************** &lt;br/&gt;Found Property&lt;br/&gt;"/><marker lat="40.4436278" lng="-79.98663719999999" zone="Zone 2" incidentdate="2014-07-19" incidenttime="17:01:00" incidentnumber="14140770" address="Webster Avenue &amp; Protectory Place, Pittsburgh, PA 15219, USA" type="OFFENSE" description="*********************************************** &lt;br/&gt;Possession of Controlled Substance&lt;br/&gt;Turning Movements and Required Signals.&lt;br/&gt;Possession of Controlled Substance&lt;br/&gt;Turning Movements and Required Signals.&lt;br/&gt;"/><marker lat="40.4436278" lng="-79.98663719999999" zone="Zone 2" incidentdate="2014-07-19" incidenttime="17:04:00" incidentnumber="14140770" address="Webster Avenue &amp; Protectory Place, Pittsburgh, PA 15219, USA" type="ARREST" description="*********************************************** &lt;br/&gt;Possession of Controlled Substance&lt;br/&gt;Turning Movements and Required Signals.&lt;br/&gt;Possession of Controlled Substance&lt;br/&gt;Turning Movements and Required Signals.&lt;br/&gt;"/><marker lat="40.455846" lng="-79.9151368" zone="Zone 5" incidentdate="2014-07-19" incidenttime="18:03:00" incidentnumber="14140830" address="Penn Avenue, PA, USA" type="OFFENSE" description="*********************************************** &lt;br/&gt;Criminal Mischief.&lt;br/&gt;Disorderly Conduct.&lt;br/&gt;"/><marker lat="40.443961" lng="-79.915179" zone="Zone 4" incidentdate="2014-07-19" incidenttime="18:15:00" incidentnumber="14140823" address="6600 Woodwell Street, Pittsburgh, PA 15217, USA" type="OFFENSE" description="*********************************************** &lt;br/&gt;Burglary.&lt;br/&gt;"/><marker lat="40.4560779" lng="-80.0036681" zone="Zone 1" incidentdate="2014-07-19" incidenttime="19:00:00" incidentnumber="14140861" address="300 East North Avenue, Pittsburgh, PA 15212, USA" type="OFFENSE" description="*********************************************** &lt;br/&gt;Theft from Vehicle&lt;br/&gt;"/><marker lat="40.4560779" lng="-80.0036681" zone="Zone 1" incidentdate="2014-07-19" incidenttime="19:00:00" incidentnumber="14140861" address="300 East North Avenue, Pittsburgh, PA 15212, USA" type="OFFENSE" description="*********************************************** &lt;br/&gt;Theft from Vehicle&lt;br/&gt;"/><marker lat="40.4474601" lng="-80.00906669999999" zone="Zone 1" incidentdate="2014-07-19" incidenttime="19:30:00" incidentnumber="14140868" address="West General Robinson Street, Pittsburgh, PA 15212, USA" type="OFFENSE" description="*********************************************** &lt;br/&gt;Causing or Risking Catastrophe.&lt;br/&gt;Limitations on Overtaking on the Left.&lt;br/&gt;Disorderly Conduct.&lt;br/&gt;Public Drunkenness&lt;br/&gt;Causing or Risking Catastrophe.&lt;br/&gt;Limitations on Overtaking on the Left.&lt;br/&gt;Disorderly Conduct.&lt;br/&gt;Public Drunkenness&lt;br/&gt;"/><marker lat="40.4474601" lng="-80.00906669999999" zone="Zone 1" incidentdate="2014-07-19" incidenttime="19:30:00" incidentnumber="14140868" address="West General Robinson Street, Pittsburgh, PA 15212, USA" type="OFFENSE" description="*********************************************** &lt;br/&gt;Causing or Risking Catastrophe.&lt;br/&gt;Limitations on Overtaking on the Left.&lt;br/&gt;Disorderly Conduct.&lt;br/&gt;Public Drunkenness&lt;br/&gt;Causing or Risking Catastrophe.&lt;br/&gt;Limitations on Overtaking on the Left.&lt;br/&gt;Disorderly Conduct.&lt;br/&gt;Public Drunkenness&lt;br/&gt;"/><marker lat="40.4237922" lng="-79.95216959999999" zone="Zone 2" incidentdate="2014-07-19" incidenttime="19:30:00" incidentnumber="14085619" address="900 Second Avenue, Pittsburgh, PA 15207, USA" type="ARREST" description="*********************************************** &lt;br/&gt;Theft by Unlawful Taking or Disposition.&lt;br/&gt;Theft by Unlawful Taking or Disposition - Movable item&lt;br/&gt;Theft by Unlawful Taking or Disposition.&lt;br/&gt;Theft by Unlawful Taking or Disposition - Movable item&lt;br/&gt;Driving While Operating Privilege is Suspended or Revoked.&lt;br/&gt;Receiving Stolen Property.&lt;br/&gt;Bench Warrant&lt;br/&gt;Theft by Unlawful Taking or Disposition.&lt;br/&gt;"/><marker lat="40.4346152" lng="-79.99153480000001" zone="Zone 2" incidentdate="2014-07-19" incidenttime="19:30:00" incidentnumber="14036291" address="Second Avenue, Pittsburgh, PA, USA" type="ARREST" description="*********************************************** &lt;br/&gt;Theft by Unlawful Taking or Disposition.&lt;br/&gt;"/><marker lat="40.4474601" lng="-80.00906669999999" zone="Zone 1" incidentdate="2014-07-19" incidenttime="19:42:00" incidentnumber="14140868" address="West General Robinson Street, Pittsburgh, PA 15212, USA" type="ARREST" description="*********************************************** &lt;br/&gt;Causing or Risking Catastrophe.&lt;br/&gt;Limitations on Overtaking on the Left.&lt;br/&gt;Disorderly Conduct.&lt;br/&gt;Public Drunkenness&lt;br/&gt;Causing or Risking Catastrophe.&lt;br/&gt;Limitations on Overtaking on the Left.&lt;br/&gt;Disorderly Conduct.&lt;br/&gt;Public Drunkenness&lt;br/&gt;"/><marker lat="40.4474601" lng="-80.00906669999999" zone="Zone 1" incidentdate="2014-07-19" incidenttime="19:42:00" incidentnumber="14140868" address="West General Robinson Street, Pittsburgh, PA 15212, USA" type="ARREST" description="*********************************************** &lt;br/&gt;Causing or Risking Catastrophe.&lt;br/&gt;Limitations on Overtaking on the Left.&lt;br/&gt;Disorderly Conduct.&lt;br/&gt;Public Drunkenness&lt;br/&gt;Causing or Risking Catastrophe.&lt;br/&gt;Limitations on Overtaking on the Left.&lt;br/&gt;Disorderly Conduct.&lt;br/&gt;Public Drunkenness&lt;br/&gt;"/><marker lat="40.44062479999999" lng="-79.9958864" zone="Zone 3" incidentdate="2014-07-19" incidenttime="19:45:00" incidentnumber="14140818" address="Pittsburgh, PA, USA" type="ARREST" description="*********************************************** &lt;br/&gt;Simple Assault.&lt;br/&gt;Terroristic Threats.&lt;br/&gt;Unlawful Restraint.&lt;br/&gt;Simple Assault.&lt;br/&gt;Terroristic Threats.&lt;br/&gt;Unlawful Restraint.&lt;br/&gt;"/><marker lat="40.4471388" lng="-79.8951862" zone="Zone 4" incidentdate="2014-07-19" incidenttime="20:00:00" incidentnumber="14140912" address="100 South Braddock Avenue, Pittsburgh, PA 15221, USA" type="OFFENSE" description="*********************************************** &lt;br/&gt;Accidents Involving Damage to Unattended Veh.or Prop.&lt;br/&gt;"/><marker lat="40.414765" lng="-79.995201" zone="Zone 3" incidentdate="2014-07-19" incidenttime="20:10:00" incidentnumber="14140887" address="400 Rochelle Street, Pittsburgh, PA 15210, USA" type="OFFENSE" description="*********************************************** &lt;br/&gt;Simple Assault.&lt;br/&gt;Simple Assault.&lt;br/&gt;Simple Assault.&lt;br/&gt;"/><marker lat="40.4036348" lng="-80.04140199999999" zone="Zone 6" incidentdate="2014-07-19" incidenttime="20:20:00" incidentnumber="14136749" address="Potomac Avenue &amp; Banksville Avenue, Pittsburgh, PA 15216, USA" type="ARREST" description="*********************************************** &lt;br/&gt;Careless Driving&lt;br/&gt;Accident Involv. Death/Inj. While not Licensed&lt;br/&gt;Careless Driving&lt;br/&gt;Accident Involv. Death/Inj. While not Licensed&lt;br/&gt;"/><marker lat="40.414765" lng="-79.995201" zone="Zone 3" incidentdate="2014-07-19" incidenttime="20:26:00" incidentnumber="14140887" address="400 Rochelle Street, Pittsburgh, PA 15210, USA" type="ARREST" description="*********************************************** &lt;br/&gt;Simple Assault.&lt;br/&gt;Simple Assault.&lt;br/&gt;Simple Assault.&lt;br/&gt;"/><marker lat="40.414765" lng="-79.995201" zone="Zone 3" incidentdate="2014-07-19" incidenttime="20:26:00" incidentnumber="14140887" address="400 Rochelle Street, Pittsburgh, PA 15210, USA" type="ARREST" description="*********************************************** &lt;br/&gt;Simple Assault.&lt;br/&gt;Simple Assault.&lt;br/&gt;Simple Assault.&lt;br/&gt;"/><marker lat="40.453492" lng="-80.00043590000001" zone="Zone 1" incidentdate="2014-07-19" incidenttime="20:35:00" incidentnumber="14126295" address="500 East Ohio Street, Pittsburgh, PA 15212, USA" type="ARREST" description="*********************************************** &lt;br/&gt;Simple Assault.&lt;br/&gt;Aggravated Assault.&lt;br/&gt;Recklessly Endangering Another Person.&lt;br/&gt;(a) Disruptive activity prepetrataed/caused/permitted on property by owner(s)/tenant(s)/occupant(s)/invitee(s) of the property&lt;br/&gt;Simple Assault.&lt;br/&gt;Aggravated Assault.&lt;br/&gt;Recklessly Endangering Another Person.&lt;br/&gt;"/><marker lat="40.453492" lng="-80.00043590000001" zone="Zone 1" incidentdate="2014-07-19" incidenttime="20:35:00" incidentnumber="14126295" address="500 East Ohio Street, Pittsburgh, PA 15212, USA" type="ARREST" description="*********************************************** &lt;br/&gt;Simple Assault.&lt;br/&gt;Aggravated Assault.&lt;br/&gt;Recklessly Endangering Another Person.&lt;br/&gt;(a) Disruptive activity prepetrataed/caused/permitted on property by owner(s)/tenant(s)/occupant(s)/invitee(s) of the property&lt;br/&gt;Simple Assault.&lt;br/&gt;Aggravated Assault.&lt;br/&gt;Recklessly Endangering Another Person.&lt;br/&gt;"/><marker lat="40.4151494" lng="-79.9885723" zone="Zone 3" incidentdate="2014-07-19" incidenttime="20:35:00" incidentnumber="14140901" address="100 Rochelle Street, Pittsburgh, PA 15210, USA" type="OFFENSE" description="*********************************************** &lt;br/&gt;Aggravated Assault.&lt;br/&gt;Aggravated Assault.&lt;br/&gt;"/><marker lat="40.4151494" lng="-79.9885723" zone="Zone 3" incidentdate="2014-07-19" incidenttime="20:50:00" incidentnumber="14140901" address="100 Rochelle Street, Pittsburgh, PA 15210, USA" type="ARREST" description="*********************************************** &lt;br/&gt;Aggravated Assault.&lt;br/&gt;Aggravated Assault.&lt;br/&gt;"/><marker lat="40.4694868" lng="-79.9622552" zone="Zone 2" incidentdate="2014-07-19" incidenttime="21:00:00" incidentnumber="14140943" address="Eden Way &amp; Almond Way, Pittsburgh, PA 15201, USA" type="ARREST" description="*********************************************** &lt;br/&gt;Possession of Controlled Substance&lt;br/&gt;Possession w/ Intent to Del. Controlled Substance&lt;br/&gt;Tampering with or Fabricating Physical Evidence.&lt;br/&gt;Possession of Controlled Substance&lt;br/&gt;Possession w/ Intent to Del. Controlled Substance&lt;br/&gt;Tampering with or Fabricating Physical Evidence.&lt;br/&gt;"/><marker lat="40.4694868" lng="-79.9622552" zone="Zone 2" incidentdate="2014-07-19" incidenttime="21:00:00" incidentnumber="14140943" address="Eden Way &amp; Almond Way, Pittsburgh, PA 15201, USA" type="OFFENSE" description="*********************************************** &lt;br/&gt;Possession of Controlled Substance&lt;br/&gt;Possession w/ Intent to Del. Controlled Substance&lt;br/&gt;Tampering with or Fabricating Physical Evidence.&lt;br/&gt;Possession of Controlled Substance&lt;br/&gt;Possession w/ Intent to Del. Controlled Substance&lt;br/&gt;Tampering with or Fabricating Physical Evidence.&lt;br/&gt;"/><marker lat="40.4572902" lng="-80.00721999999999" zone="Zone 1" incidentdate="2014-07-19" incidenttime="21:10:00" incidentnumber="14140920" address="Federal Street &amp; Hemlock Street, Pittsburgh, PA 15212, USA" type="OFFENSE" description="*********************************************** &lt;br/&gt;Bench Warrant&lt;br/&gt;Marijuana: Possession Small Amount&lt;br/&gt;Marijuana: Possession Small Amount&lt;br/&gt;Permitting Unauthorized Person to Drive.&lt;br/&gt;Marijuana: Possession Small Amount&lt;br/&gt;Driving While Operating Privilege is Suspended or Revoked.&lt;br/&gt;Permitting Unauthorized Person to Drive.&lt;br/&gt;Lane-Direction-Control Signals&lt;br/&gt;Bench Warrant&lt;br/&gt;"/><marker lat="40.4572902" lng="-80.00721999999999" zone="Zone 1" incidentdate="2014-07-19" incidenttime="21:10:00" incidentnumber="14140920" address="Federal Street &amp; Hemlock Street, Pittsburgh, PA 15212, USA" type="ARREST" description="*********************************************** &lt;br/&gt;Bench Warrant&lt;br/&gt;Marijuana: Possession Small Amount&lt;br/&gt;Marijuana: Possession Small Amount&lt;br/&gt;Permitting Unauthorized Person to Drive.&lt;br/&gt;Marijuana: Possession Small Amount&lt;br/&gt;Driving While Operating Privilege is Suspended or Revoked.&lt;br/&gt;Permitting Unauthorized Person to Drive.&lt;br/&gt;Lane-Direction-Control Signals&lt;br/&gt;Bench Warrant&lt;br/&gt;"/><marker lat="40.4572902" lng="-80.00721999999999" zone="Zone 1" incidentdate="2014-07-19" incidenttime="21:10:00" incidentnumber="14140920" address="Federal Street &amp; Hemlock Street, Pittsburgh, PA 15212, USA" type="ARREST" description="*********************************************** &lt;br/&gt;Bench Warrant&lt;br/&gt;Marijuana: Possession Small Amount&lt;br/&gt;Marijuana: Possession Small Amount&lt;br/&gt;Permitting Unauthorized Person to Drive.&lt;br/&gt;Marijuana: Possession Small Amount&lt;br/&gt;Driving While Operating Privilege is Suspended or Revoked.&lt;br/&gt;Permitting Unauthorized Person to Drive.&lt;br/&gt;Lane-Direction-Control Signals&lt;br/&gt;Bench Warrant&lt;br/&gt;"/><marker lat="40.4572902" lng="-80.00721999999999" zone="Zone 1" incidentdate="2014-07-19" incidenttime="21:10:00" incidentnumber="14140920" address="Federal Street &amp; Hemlock Street, Pittsburgh, PA 15212, USA" type="ARREST" description="*********************************************** &lt;br/&gt;Bench Warrant&lt;br/&gt;Marijuana: Possession Small Amount&lt;br/&gt;Marijuana: Possession Small Amount&lt;br/&gt;Permitting Unauthorized Person to Drive.&lt;br/&gt;Marijuana: Possession Small Amount&lt;br/&gt;Driving While Operating Privilege is Suspended or Revoked.&lt;br/&gt;Permitting Unauthorized Person to Drive.&lt;br/&gt;Lane-Direction-Control Signals&lt;br/&gt;Bench Warrant&lt;br/&gt;"/><marker lat="40.4572902" lng="-80.00721999999999" zone="Zone 1" incidentdate="2014-07-19" incidenttime="21:10:00" incidentnumber="14140920" address="Federal Street &amp; Hemlock Street, Pittsburgh, PA 15212, USA" type="OFFENSE" description="*********************************************** &lt;br/&gt;Bench Warrant&lt;br/&gt;Marijuana: Possession Small Amount&lt;br/&gt;Marijuana: Possession Small Amount&lt;br/&gt;Permitting Unauthorized Person to Drive.&lt;br/&gt;Marijuana: Possession Small Amount&lt;br/&gt;Driving While Operating Privilege is Suspended or Revoked.&lt;br/&gt;Permitting Unauthorized Person to Drive.&lt;br/&gt;Lane-Direction-Control Signals&lt;br/&gt;Bench Warrant&lt;br/&gt;"/><marker lat="40.4572902" lng="-80.00721999999999" zone="Zone 1" incidentdate="2014-07-19" incidenttime="21:10:00" incidentnumber="14140920" address="Federal Street &amp; Hemlock Street, Pittsburgh, PA 15212, USA" type="ARREST" description="*********************************************** &lt;br/&gt;Bench Warrant&lt;br/&gt;Marijuana: Possession Small Amount&lt;br/&gt;Marijuana: Possession Small Amount&lt;br/&gt;Permitting Unauthorized Person to Drive.&lt;br/&gt;Marijuana: Possession Small Amount&lt;br/&gt;Driving While Operating Privilege is Suspended or Revoked.&lt;br/&gt;Permitting Unauthorized Person to Drive.&lt;br/&gt;Lane-Direction-Control Signals&lt;br/&gt;Bench Warrant&lt;br/&gt;"/><marker lat="40.4572902" lng="-80.00721999999999" zone="Zone 1" incidentdate="2014-07-19" incidenttime="21:10:00" incidentnumber="14140920" address="Federal Street &amp; Hemlock Street, Pittsburgh, PA 15212, USA" type="ARREST" description="*********************************************** &lt;br/&gt;Bench Warrant&lt;br/&gt;Marijuana: Possession Small Amount&lt;br/&gt;Marijuana: Possession Small Amount&lt;br/&gt;Permitting Unauthorized Person to Drive.&lt;br/&gt;Marijuana: Possession Small Amount&lt;br/&gt;Driving While Operating Privilege is Suspended or Revoked.&lt;br/&gt;Permitting Unauthorized Person to Drive.&lt;br/&gt;Lane-Direction-Control Signals&lt;br/&gt;Bench Warrant&lt;br/&gt;"/><marker lat="40.4572902" lng="-80.00721999999999" zone="Zone 1" incidentdate="2014-07-19" incidenttime="21:10:00" incidentnumber="14140920" address="Federal Street &amp; Hemlock Street, Pittsburgh, PA 15212, USA" type="ARREST" description="*********************************************** &lt;br/&gt;Bench Warrant&lt;br/&gt;Marijuana: Possession Small Amount&lt;br/&gt;Marijuana: Possession Small Amount&lt;br/&gt;Permitting Unauthorized Person to Drive.&lt;br/&gt;Marijuana: Possession Small Amount&lt;br/&gt;Driving While Operating Privilege is Suspended or Revoked.&lt;br/&gt;Permitting Unauthorized Person to Drive.&lt;br/&gt;Lane-Direction-Control Signals&lt;br/&gt;Bench Warrant&lt;br/&gt;"/><marker lat="40.4279652" lng="-79.9885496" zone="Zone 3" incidentdate="2014-07-19" incidenttime="22:02:00" incidentnumber="14140955" address="South 10th Street &amp; Sarah Street, Pittsburgh, PA 15203, USA" type="OFFENSE" description="*********************************************** &lt;br/&gt;Carrying and Exhibiting Drivers License on Demand.&lt;br/&gt;Careless Driving&lt;br/&gt;DUI - General Impairment&lt;br/&gt;DUI - Highest Rate of Alcohol - BAC &gt;= .16%&lt;br/&gt;General Lighting Requirements.&lt;br/&gt;Littering and Dumping; Any waste, dangerous or detrimental substance upon public property&lt;br/&gt;Carrying and Exhibiting Drivers License on Demand.&lt;br/&gt;Careless Driving&lt;br/&gt;DUI - General Impairment&lt;br/&gt;DUI - Highest Rate of Alcohol - BAC &gt;= .16%&lt;br/&gt;General Lighting Requirements.&lt;br/&gt;Littering and Dumping; Any waste, dangerous or detrimental substance upon public property&lt;br/&gt;"/><marker lat="40.4279652" lng="-79.9885496" zone="Zone 3" incidentdate="2014-07-19" incidenttime="22:13:00" incidentnumber="14140955" address="South 10th Street &amp; Sarah Street, Pittsburgh, PA 15203, USA" type="ARREST" description="*********************************************** &lt;br/&gt;Carrying and Exhibiting Drivers License on Demand.&lt;br/&gt;Careless Driving&lt;br/&gt;DUI - General Impairment&lt;br/&gt;DUI - Highest Rate of Alcohol - BAC &gt;= .16%&lt;br/&gt;General Lighting Requirements.&lt;br/&gt;Littering and Dumping; Any waste, dangerous or detrimental substance upon public property&lt;br/&gt;Carrying and Exhibiting Drivers License on Demand.&lt;br/&gt;Careless Driving&lt;br/&gt;DUI - General Impairment&lt;br/&gt;DUI - Highest Rate of Alcohol - BAC &gt;= .16%&lt;br/&gt;General Lighting Requirements.&lt;br/&gt;Littering and Dumping; Any waste, dangerous or detrimental substance upon public property&lt;br/&gt;"/></markers>
