<?xml version="1.0"?>
<markers><marker lat="40.455584861651879" lng="-79.941557723254078" zone="Zone 5" incidentdate="2016-10-08" incidenttime="03:20:00" incidentnumber="16190229" address="5200 block Baum Blvd" type="OFFENSE" age="" gender="" description="*********************************************** &lt;br/&gt;3745, Accidents Involving Damage to Unattended Veh.or Prop.&lt;br/&gt;"/><marker lat="40.454100381964004" lng="-79.890743749001061" zone="Zone 5" incidentdate="2016-10-08" incidenttime="01:15:00" incidentnumber="16190149" address="Kelly St &amp; N Braddock Ave" type="OFFENSE" age="" gender="" description="*********************************************** &lt;br/&gt;13(a)(31), Marijuana: Possession Small Amount&lt;br/&gt;1786, Required Financial Responsibility.&lt;br/&gt;1543, Driving While Operating Privilege is Suspended or Revoked.&lt;br/&gt;3802(a)(1), DUI - General Impairment&lt;br/&gt;"/><marker lat="40.5197250" lng="-79.9345380" zone="Zone OSC" incidentdate="2016-10-08" incidenttime="00:05:00" incidentnumber="16190140" address="300 block Country Place Dr" type="OFFENSE" age="" gender="" description="*********************************************** &lt;br/&gt;2709(a), Harassment.&lt;br/&gt;"/><marker lat="40.427398683784752" lng="-79.97001248597644" zone="Zone 3" incidentdate="2016-10-08" incidenttime="02:00:00" incidentnumber="16190186" address="S 25th St &amp; Carey Way" type="OFFENSE" age="" gender="" description="*********************************************** &lt;br/&gt;3745, Accidents Involving Damage to Unattended Veh.or Prop.&lt;br/&gt;"/><marker lat="40.456564641128566" lng="-79.871361460228911" zone="Zone 5" incidentdate="2016-10-08" incidenttime="10:30:00" incidentnumber="16190396" address="2300 block East Hills Dr" type="OFFENSE" age="" gender="" description="*********************************************** &lt;br/&gt;2709(a), Harassment.&lt;br/&gt;"/><marker lat="40.450892721440539" lng="-80.000843891836467" zone="Zone 1" incidentdate="2016-10-08" incidenttime="08:39:00" incidentnumber="16190303" address="300 block Cedar Ave" type="OFFENSE" age="" gender="" description="*********************************************** &lt;br/&gt;9501, Bench Warrant&lt;br/&gt;"/><marker lat="40.459222643627882" lng="-79.970686196226211" zone="Zone 2" incidentdate="2016-10-08" incidenttime="01:15:00" incidentnumber="16190167" address="Liberty Ave &amp; 31st St" type="OFFENSE" age="" gender="" description="*********************************************** &lt;br/&gt;2709(a)(1), Harassment by Physical Contact, or Attempts or Threats&lt;br/&gt;"/><marker lat="40.458778859290838" lng="-79.970703399584181" zone="Zone 2" incidentdate="2016-10-08" incidenttime="02:12:00" incidentnumber="16190172" address="3100 block Liberty Ave" type="OFFENSE" age="" gender="" description="*********************************************** &lt;br/&gt;2701, Simple Assault.&lt;br/&gt;"/><marker lat="40.42812884585404" lng="-79.979451152464478" zone="Zone 3" incidentdate="2016-10-08" incidenttime="19:10:00" incidentnumber="16190633" address="100 block S 19th St" type="OFFENSE" age="" gender="" description="*********************************************** &lt;br/&gt;9489, Found Property&lt;br/&gt;"/><marker lat="40.393167838197392" lng="-79.986585064520185" zone="Zone 3" incidentdate="2016-10-08" incidenttime="11:40:00" incidentnumber="16190412" address="2100 block Brownsville Rd" type="OFFENSE" age="" gender="" description="*********************************************** &lt;br/&gt;3701, Robbery.&lt;br/&gt;"/><marker lat="40.482317851154129" lng="-79.926517952516562" zone="Zone 5" incidentdate="2016-10-08" incidenttime="12:40:00" incidentnumber="16190446" address="1600 block Villanova Rd" type="OFFENSE" age="" gender="" description="*********************************************** &lt;br/&gt;3934, Theft from Vehicle&lt;br/&gt;"/><marker lat="40.47063294595285" lng="-79.960338626348303" zone="Zone 2" incidentdate="2016-10-08" incidenttime="01:17:00" incidentnumber="16190162" address="43rd St &amp; Butler St" type="OFFENSE" age="" gender="" description="*********************************************** &lt;br/&gt;9999, 9999 - (Misc. Incident):&lt;br/&gt;"/><marker lat="40.400959773280839" lng="-79.988489951478272" zone="Zone 3" incidentdate="2016-10-08" incidenttime="10:27:00" incidentnumber="16190364" address="1500 block Amanda St" type="OFFENSE" age="" gender="" description="*********************************************** &lt;br/&gt;3934, Theft from Vehicle&lt;br/&gt;"/><marker lat="40.441563849225801" lng="-79.956971080352545" zone="Zone 4" incidentdate="2016-10-08" incidenttime="02:22:00" incidentnumber="16190188" address="Forbes Ave &amp; Oakland Ave" type="OFFENSE" age="" gender="" description="*********************************************** &lt;br/&gt;3736, Reckless Driving&lt;br/&gt;3334, Turning Movements and Required Signals.&lt;br/&gt;3743, Accidents Involving Damage to Attended Veh. or Property&lt;br/&gt;3111, Obedience to Traffic-Control Devices.&lt;br/&gt;3324, Vehicle Entering or Crossing Roadway.&lt;br/&gt;"/><marker lat="40.397397945890184" lng="-80.024583795174252" zone="Zone 6" incidentdate="2016-10-08" incidenttime="08:30:00" incidentnumber="16190310" address="300 block Winterhill St" type="OFFENSE" age="" gender="" description="*********************************************** &lt;br/&gt;3745, Accidents Involving Damage to Unattended Veh.or Prop.&lt;br/&gt;"/><marker lat="40.424053079380293" lng="-79.968456153588619" zone="Zone 3" incidentdate="2016-10-08" incidenttime="10:00:00" incidentnumber="16190371" address="2800 block Edwards Way" type="OFFENSE" age="" gender="" description="*********************************************** &lt;br/&gt;3745, Accidents Involving Damage to Unattended Veh.or Prop.&lt;br/&gt;"/><marker lat="40.451157723858437" lng="-79.933848831107525" zone="Zone 4" incidentdate="2016-10-08" incidenttime="01:27:00" incidentnumber="16190176" address="Walnut St &amp; Bellefonte St" type="OFFENSE" age="" gender="" description="*********************************************** &lt;br/&gt;5503, Disorderly Conduct.&lt;br/&gt;5503(a)(4), DISORDERLY CONDUCT - HAZARDOUS/PHYS. OFF&lt;br/&gt;5505, Public Drunkenness&lt;br/&gt;"/><marker lat="40.45535854303678" lng="-79.922872234952976" zone="Zone 4" incidentdate="2016-10-08" incidenttime="00:10:00" incidentnumber="16190131" address="400 block Shady Ave" type="OFFENSE" age="" gender="" description="*********************************************** &lt;br/&gt;3743, Accidents Involving Damage to Attended Veh. or Property&lt;br/&gt;"/><marker lat="40.426666138172813" lng="-79.966892407610601" zone="Zone 3" incidentdate="2016-10-08" incidenttime="19:17:00" incidentnumber="16190648" address="2700 block E Carson St" type="OFFENSE" age="" gender="" description="*********************************************** &lt;br/&gt;9998, Overdose&lt;br/&gt;"/><marker lat="40.463244507649506" lng="-79.912095482430715" zone="Zone 5" incidentdate="2016-10-08" incidenttime="00:40:00" incidentnumber="16190139" address="500 block Paulson Ave" type="OFFENSE" age="" gender="" description="*********************************************** &lt;br/&gt;5104, Resisting Arrest or Other Law Enforcement.&lt;br/&gt;1501, Drivers Required to be Licensed.&lt;br/&gt;3925, Receiving Stolen Property.&lt;br/&gt;5121, Escape.&lt;br/&gt;3702, Robbery of Motor Vehicle.&lt;br/&gt;"/><marker lat="40.479933763133744" lng="-80.027247977482332" zone="Zone 1" incidentdate="2016-10-08" incidenttime="21:20:00" incidentnumber="16190706" address="Rodney St" type="OFFENSE" age="" gender="" description="*********************************************** &lt;br/&gt;2701, Simple Assault.&lt;br/&gt;"/><marker lat="40.478447322011057" lng="-79.934135625494164" zone="Zone 5" incidentdate="2016-10-08" incidenttime="10:00:00" incidentnumber="16190356" address="5000 block Somerville St" type="OFFENSE" age="" gender="" description="*********************************************** &lt;br/&gt;3934, Theft from Vehicle&lt;br/&gt;"/><marker lat="40.406394419760503" lng="-79.947159880906995" zone="Zone 4" incidentdate="2016-10-08" incidenttime="18:02:00" incidentnumber="16190603" address="5100 block Ladora Way" type="OFFENSE" age="" gender="" description="*********************************************** &lt;br/&gt;13(a)(32), Paraphernalia - Use or Possession&lt;br/&gt;3503, Criminal Trespass&lt;br/&gt;"/><marker lat="40.461900836225738" lng="-79.890769376006375" zone="Zone 5" incidentdate="2016-10-08" incidenttime="13:00:00" incidentnumber="16190467" address="1300 block Oakdene St" type="OFFENSE" age="" gender="" description="*********************************************** &lt;br/&gt;3745, Accidents Involving Damage to Unattended Veh.or Prop.&lt;br/&gt;"/><marker lat="40.443698485607818" lng="-79.949098768212707" zone="Zone 4" incidentdate="2016-10-08" incidenttime="21:55:00" incidentnumber="16190718" address="4400 block Forbes Ave" type="OFFENSE" age="" gender="" description="*********************************************** &lt;br/&gt;5503(a)(4), DISORDERLY CONDUCT - HAZARDOUS/PHYS. OFF&lt;br/&gt;5505, Public Drunkenness&lt;br/&gt;"/><marker lat="40.443315554772433" lng="-79.959560343748407" zone="Zone 4" incidentdate="2016-10-08" incidenttime="00:29:00" incidentnumber="16190129" address="3800 block O Hara St" type="OFFENSE" age="" gender="" description="*********************************************** &lt;br/&gt;9999, 9999 - (Misc. Incident):&lt;br/&gt;"/><marker lat="40.464985367934204" lng="-79.939963392814477" zone="Zone 5" incidentdate="2016-10-08" incidenttime="18:16:00" incidentnumber="16190610" address="Gem Way &amp; N Pacific Ave" type="OFFENSE" age="" gender="" description="*********************************************** &lt;br/&gt;13(a)(16), Possession of Controlled Substance&lt;br/&gt;13(a)(30), Possession w/ Intent to Del. Controlled Substance&lt;br/&gt;13(a)(32), Paraphernalia - Use or Possession&lt;br/&gt;4910, Tampering with or Fabricating Physical Evidence.&lt;br/&gt;1543, Driving While Operating Privilege is Suspended or Revoked.&lt;br/&gt;3353, Prohibitions in Specified Places.&lt;br/&gt;"/><marker lat="40.470071982498879" lng="-79.897110271835317" zone="Zone 5" incidentdate="2016-10-08" incidenttime="12:54:00" incidentnumber="16190450" address="Lemington Ave &amp; Paulson Ave" type="OFFENSE" age="" gender="" description="*********************************************** &lt;br/&gt;3701, Robbery.&lt;br/&gt;"/><marker lat="40.490302907804811" lng="-80.018466307619562" zone="Zone 1" incidentdate="2016-10-08" incidenttime="21:05:00" incidentnumber="16190724" address="Bonvue St" type="OFFENSE" age="" gender="" description="*********************************************** &lt;br/&gt;029, Missing Juvenile&lt;br/&gt;"/><marker lat="40.468707151284001" lng="-79.962290675901343" zone="Zone 2" incidentdate="2016-10-08" incidenttime="13:15:00" incidentnumber="16190462" address="40th St &amp; Butler St" type="OFFENSE" age="" gender="" description="*********************************************** &lt;br/&gt;13(a)(16), Possession of Controlled Substance&lt;br/&gt;13(a)(32), Paraphernalia - Use or Possession&lt;br/&gt;"/><marker lat="40.423307201998043" lng="-79.961250980900815" zone="Zone 3" incidentdate="2016-10-08" incidenttime="17:42:00" incidentnumber="16190581" address="3200 block E Carson St" type="OFFENSE" age="" gender="" description="*********************************************** &lt;br/&gt;13(a)(32), Paraphernalia - Use or Possession&lt;br/&gt;9501, Bench Warrant&lt;br/&gt;1786, Required Financial Responsibility.&lt;br/&gt;1543, Driving While Operating Privilege is Suspended or Revoked.&lt;br/&gt;"/><marker lat="40.482879021356389" lng="-80.04453300763744" zone="Zone 1" incidentdate="2016-10-08" incidenttime="00:39:00" incidentnumber="16190138" address="2000 block Termon Ave" type="OFFENSE" age="" gender="" description="*********************************************** &lt;br/&gt;029, Missing Juvenile&lt;br/&gt;"/><marker lat="40.428648587693665" lng="-79.984030978724903" zone="Zone 3" incidentdate="2016-10-08" incidenttime="00:20:00" incidentnumber="16190121" address="1400 block E Carson St" type="OFFENSE" age="" gender="" description="*********************************************** &lt;br/&gt;5503, Disorderly Conduct.&lt;br/&gt;5505, Public Drunkenness&lt;br/&gt;"/><marker lat="40.463699079448368" lng="-80.053303262820464" zone="Zone 6" incidentdate="2016-10-08" incidenttime="07:10:00" incidentnumber="16190281" address="200 block Sagamore St" type="OFFENSE" age="" gender="" description="*********************************************** &lt;br/&gt;9497, Aided Case&lt;br/&gt;"/><marker lat="40.447792126681051" lng="-79.937291810906075" zone="Zone 4" incidentdate="2016-10-08" incidenttime="03:15:00" incidentnumber="16190625" address="5th Ave &amp; Wilkins Ave" type="OFFENSE" age="" gender="" description="*********************************************** &lt;br/&gt;3743, Accidents Involving Damage to Attended Veh. or Property&lt;br/&gt;"/><marker lat="40.425415706425149" lng="-79.964528084513944" zone="Zone 3" incidentdate="2016-10-08" incidenttime="16:55:00" incidentnumber="16190570" address="Hot Metal St &amp; East Carson St" type="OFFENSE" age="" gender="" description="*********************************************** &lt;br/&gt;3802(a)(1), DUI - General Impairment&lt;br/&gt;"/><marker lat="40.444418204286812" lng="-79.954775079625293" zone="Zone 4" incidentdate="2016-10-08" incidenttime="03:01:00" incidentnumber="16190219" address="5th Ave &amp; Bigelow Blvd" type="OFFENSE" age="" gender="" description="*********************************************** &lt;br/&gt;3743, Accidents Involving Damage to Attended Veh. or Property&lt;br/&gt;"/><marker lat="40.438801706740989" lng="-79.990846918992844" zone="Zone 2" incidentdate="2016-10-08" incidenttime="10:30:00" incidentnumber="16190368" address="5th Ave &amp; Washington Pl" type="OFFENSE" age="" gender="" description="*********************************************** &lt;br/&gt;2709(a)(1), Harassment by Physical Contact, or Attempts or Threats&lt;br/&gt;"/><marker lat="40.436763672817577" lng="-79.977663340171318" zone="Zone 2" incidentdate="2016-10-08" incidenttime="15:00:00" incidentnumber="16190567" address="2000 block Tustin St" type="OFFENSE" age="" gender="" description="*********************************************** &lt;br/&gt;3921(a), Theft by Unlawful Taking or Disposition - Movable item&lt;br/&gt;"/><marker lat="40.399765495251444" lng="-79.991111430667971" zone="Zone 3" incidentdate="2016-10-08" incidenttime="00:53:00" incidentnumber="16190146" address="1600 block Oakhurst St" type="OFFENSE" age="" gender="" description="*********************************************** &lt;br/&gt;9498, 302 (Mental)&lt;br/&gt;"/><marker lat="40.477035165447738" lng="-79.999511479450007" zone="Zone 1" incidentdate="2016-10-08" incidenttime="10:05:00" incidentnumber="16190351" address="Mt Pleasant Rd &amp; Penfort St" type="OFFENSE" age="" gender="" description="*********************************************** &lt;br/&gt;9999, 9999 - (Misc. Incident):&lt;br/&gt;1501, Drivers Required to be Licensed.&lt;br/&gt;"/><marker lat="40.448758875781451" lng="-79.910240642867635" zone="Zone 4" incidentdate="2016-10-08" incidenttime="16:00:00" incidentnumber="16190542" address="400 block S Dallas Ave" type="OFFENSE" age="" gender="" description="*********************************************** &lt;br/&gt;9999, 9999 - (Misc. Incident):&lt;br/&gt;"/><marker lat="40.428438567956732" lng="-79.983105958684874" zone="Zone 3" incidentdate="2016-10-08" incidenttime="09:00:00" incidentnumber="16190325" address="100 block S 16th St" type="OFFENSE" age="" gender="" description="*********************************************** &lt;br/&gt;3304, Criminal Mischief.&lt;br/&gt;"/><marker lat="40.4570928" lng="-79.8758533" zone="Zone 5" incidentdate="2016-10-08" incidenttime="11:36:00" incidentnumber="16190404" address="1800 block Bricelyn St" type="OFFENSE" age="" gender="" description="*********************************************** &lt;br/&gt;2701(a)(1), Simple Assault - Intent., Know., Reckless.Cause Bod. Injury&lt;br/&gt;"/><marker lat="40.465135387913563" lng="-79.95790763699263" zone="Zone 5" incidentdate="2016-10-08" incidenttime="07:04:00" incidentnumber="16190398" address="4000 block Penn Ave" type="OFFENSE" age="" gender="" description="*********************************************** &lt;br/&gt;2709(a)(5), Harassment Communicates Repeatedly in Anonymous Manner&lt;br/&gt;"/><marker lat="40.464774823811233" lng="-79.942733938845166" zone="Zone 5" incidentdate="2016-10-08" incidenttime="19:55:00" incidentnumber="16190667" address="5100 block Penn Ave" type="OFFENSE" age="" gender="" description="*********************************************** &lt;br/&gt;3929, Retail Theft.&lt;br/&gt;"/><marker lat="40.393167838197392" lng="-79.986585064520185" zone="Zone 3" incidentdate="2016-10-08" incidenttime="17:47:00" incidentnumber="16190605" address="2100 block Brownsville Rd" type="OFFENSE" age="" gender="" description="*********************************************** &lt;br/&gt;9999, 9999 - (Misc. Incident):&lt;br/&gt;"/><marker lat="40.428648587693665" lng="-79.984030978724903" zone="Zone 3" incidentdate="2016-10-08" incidenttime="01:40:00" incidentnumber="16190177" address="1400 block E Carson St" type="OFFENSE" age="" gender="" description="*********************************************** &lt;br/&gt;601.16, Public Urination And Defecation&lt;br/&gt;"/><marker lat="40.462068668078459" lng="-79.988400479973805" zone="Zone 1" incidentdate="2016-10-08" incidenttime="07:30:00" incidentnumber="16190408" address="300 block Homer St" type="OFFENSE" age="" gender="" description="*********************************************** &lt;br/&gt;3934, Theft from Vehicle&lt;br/&gt;"/><marker lat="40.452042212663898" lng="-80.008738896002342" zone="Zone 1" incidentdate="2016-10-08" incidenttime="15:10:00" incidentnumber="16190518" address="200 block Ridge Ave" type="OFFENSE" age="" gender="" description="*********************************************** &lt;br/&gt;029, Missing Juvenile&lt;br/&gt;"/><marker lat="40.438308590945255" lng="-79.957718574743282" zone="Zone 4" incidentdate="2016-10-08" incidenttime="07:00:00" incidentnumber="16190344" address="300 block Mc Kee Pl" type="OFFENSE" age="" gender="" description="*********************************************** &lt;br/&gt;3502, Burglary.&lt;br/&gt;"/><marker lat="40.484550069346753" lng="-80.035692783449747" zone="Zone 1" incidentdate="2016-10-08" incidenttime="00:30:00" incidentnumber="16190137" address="3800 block Brighton Rd" type="OFFENSE" age="" gender="" description="*********************************************** &lt;br/&gt;3304, Criminal Mischief.&lt;br/&gt;"/><marker lat="40.456633448414188" lng="-79.936435139782176" zone="Zone 4" incidentdate="2016-10-08" incidenttime="13:36:00" incidentnumber="16190473" address="5500 block Centre Ave" type="OFFENSE" age="" gender="" description="*********************************************** &lt;br/&gt;3929, Retail Theft.&lt;br/&gt;"/><marker lat="40.45611540255215" lng="-79.930790383022966" zone="Zone 4" incidentdate="2016-10-08" incidenttime="02:30:00" incidentnumber="16190201" address="Ellsworth Ave &amp; Maryland Ave" type="OFFENSE" age="" gender="" description="*********************************************** &lt;br/&gt;3745, Accidents Involving Damage to Unattended Veh.or Prop.&lt;br/&gt;"/><marker lat="40.46778020641316" lng="-79.978484123649537" zone="Zone 1" incidentdate="2016-10-08" incidenttime="01:19:00" incidentnumber="16190161" address="2000 block Eggers St" type="OFFENSE" age="" gender="" description="*********************************************** &lt;br/&gt;9999, 9999 - (Misc. Incident):&lt;br/&gt;"/><marker lat="40.471381539048473" lng="-79.959465559397245" zone="Zone 2" incidentdate="2016-10-08" incidenttime="00:30:00" incidentnumber="16190133" address="4400 block Butler St" type="OFFENSE" age="" gender="" description="*********************************************** &lt;br/&gt;9999, 9999 - (Misc. Incident):&lt;br/&gt;"/><marker lat="40.456498143014684" lng="-79.97014620696288" zone="Zone 2" incidentdate="2016-10-08" incidenttime="02:40:00" incidentnumber="16190209" address="400 block 30th St" type="OFFENSE" age="" gender="" description="*********************************************** &lt;br/&gt;3745, Accidents Involving Damage to Unattended Veh.or Prop.&lt;br/&gt;"/><marker lat="40.460341693312827" lng="-79.986977783015149" zone="Zone 1" incidentdate="2016-10-08" incidenttime="00:18:00" incidentnumber="16190112" address="1300 block Herman St" type="OFFENSE" age="" gender="" description="*********************************************** &lt;br/&gt;3304(a)(5), CRIMINAL MISCHIEF - Intentionally Damages Real Or Personal Property Of Another&lt;br/&gt;"/><marker lat="40.443580942147605" lng="-79.979979097296493" zone="Zone 2" incidentdate="2016-10-08" incidenttime="14:20:00" incidentnumber="16190504" address="2000 block Centre Ave" type="OFFENSE" age="" gender="" description="*********************************************** &lt;br/&gt;3921, Theft by Unlawful Taking or Disposition.&lt;br/&gt;"/><marker lat="40.422432158699223" lng="-80.013788906187088" zone="Zone 3" incidentdate="2016-10-08" incidenttime="13:00:00" incidentnumber="16190500" address="600 block Chess St" type="OFFENSE" age="" gender="" description="*********************************************** &lt;br/&gt;3745, Accidents Involving Damage to Unattended Veh.or Prop.&lt;br/&gt;"/><marker lat="40.398065559794084" lng="-79.999811581004295" zone="Zone 3" incidentdate="2016-10-08" incidenttime="18:25:00" incidentnumber="16190623" address="1500 block Saw Mill Run Blvd" type="OFFENSE" age="" gender="" description="*********************************************** &lt;br/&gt;13(a)(16), Possession of Controlled Substance&lt;br/&gt;3736, Reckless Driving&lt;br/&gt;3745, Accidents Involving Damage to Unattended Veh.or Prop.&lt;br/&gt;3802(a)(1), DUI - General Impairment&lt;br/&gt;"/><marker lat="40.417229345133869" lng="-80.073273651083653" zone="Zone 6" incidentdate="2016-10-08" incidenttime="12:04:00" incidentnumber="16190418" address="200 block Pringle St" type="OFFENSE" age="" gender="" description="*********************************************** &lt;br/&gt;9123, Miscellaneous Fire Other Investigation to Continue&lt;br/&gt;"/><marker lat="40.386740915625779" lng="-79.989950465239076" zone="Zone 3" incidentdate="2016-10-08" incidenttime="04:34:00" incidentnumber="16190254" address="400 block Overbrook Blvd" type="OFFENSE" age="" gender="" description="*********************************************** &lt;br/&gt;2709(a)(5), Harassment Communicates Repeatedly in Anonymous Manner&lt;br/&gt;"/><marker lat="40.463244507649506" lng="-79.912095482430715" zone="Zone 5" incidentdate="2016-10-08" incidenttime="20:20:00" incidentnumber="16190139" address="500 block Paulson Ave" type="ARREST" age="18" gender="M" description="*********************************************** &lt;br/&gt;5104, Resisting Arrest or Other Law Enforcement.&lt;br/&gt;1501, Drivers Required to be Licensed.&lt;br/&gt;3925, Receiving Stolen Property.&lt;br/&gt;5121, Escape.&lt;br/&gt;3702, Robbery of Motor Vehicle.&lt;br/&gt;"/><marker lat="40.479933763133744" lng="-80.027247977482332" zone="Zone 1" incidentdate="2016-10-08" incidenttime="21:53:00" incidentnumber="16190706" address="Rodney St" type="ARREST" age="22" gender="F" description="*********************************************** &lt;br/&gt;2701, Simple Assault.&lt;br/&gt;"/><marker lat="40.456633448414188" lng="-79.936435139782176" zone="Zone 4" incidentdate="2016-10-08" incidenttime="13:40:00" incidentnumber="16190473" address="5500 block Centre Ave" type="ARREST" age="39" gender="M" description="*********************************************** &lt;br/&gt;3929, Retail Theft.&lt;br/&gt;"/><marker lat="40.469810079226548" lng="-80.030238034535643" zone="Zone 1" incidentdate="2016-10-08" incidenttime="09:50:00" incidentnumber="16144954" address="2800 block Shadeland Ave" type="ARREST" age="20" gender="M" description="*********************************************** &lt;br/&gt;4915, Failure to Comply with Megans Law&lt;br/&gt;"/><marker lat="40.406394419760503" lng="-79.947159880906995" zone="Zone 4" incidentdate="2016-10-08" incidenttime="18:30:00" incidentnumber="16190603" address="5100 block Ladora Way" type="ARREST" age="28" gender="M" description="*********************************************** &lt;br/&gt;13(a)(32), Paraphernalia - Use or Possession&lt;br/&gt;3503, Criminal Trespass&lt;br/&gt;"/><marker lat="40.487823540011732" lng="-79.897614208935366" zone="Zone 5" incidentdate="2016-10-08" incidenttime="09:30:00" incidentnumber="16120970" address="800 block Freeport Rd" type="ARREST" age="25" gender="M" description="*********************************************** &lt;br/&gt;3701, Robbery.&lt;br/&gt;"/><marker lat="40.398065559794084" lng="-79.999811581004295" zone="Zone 3" incidentdate="2016-10-08" incidenttime="19:07:00" incidentnumber="16190623" address="1500 block Saw Mill Run Blvd" type="ARREST" age="43" gender="F" description="*********************************************** &lt;br/&gt;13(a)(16), Possession of Controlled Substance&lt;br/&gt;3736, Reckless Driving&lt;br/&gt;3745, Accidents Involving Damage to Unattended Veh.or Prop.&lt;br/&gt;3802(a)(1), DUI - General Impairment&lt;br/&gt;"/><marker lat="40.438369941847732" lng="-79.986310041229473" zone="Zone 2" incidentdate="2016-10-08" incidenttime="03:49:00" incidentnumber="15209766" address="1400 block Fifth Ave" type="ARREST" age="35" gender="M" description="*********************************************** &lt;br/&gt;9501, Bench Warrant&lt;br/&gt;2705, Recklessly Endangering Another Person.&lt;br/&gt;2701, Simple Assault.&lt;br/&gt;2706, Terroristic Threats.&lt;br/&gt;"/><marker lat="40.420802057856356" lng="-79.986283411817084" zone="Zone 3" incidentdate="2016-10-08" incidenttime="19:40:00" incidentnumber="16188987" address="200 block Wachter St" type="ARREST" age="22" gender="M" description="*********************************************** &lt;br/&gt;2702, Aggravated Assault.&lt;br/&gt;"/><marker lat="40.451157723858437" lng="-79.933848831107525" zone="Zone 4" incidentdate="2016-10-08" incidenttime="01:27:00" incidentnumber="16190176" address="Walnut St &amp; Bellefonte St" type="ARREST" age="26" gender="M" description="*********************************************** &lt;br/&gt;5503, Disorderly Conduct.&lt;br/&gt;5503(a)(4), DISORDERLY CONDUCT - HAZARDOUS/PHYS. OFF&lt;br/&gt;5505, Public Drunkenness&lt;br/&gt;"/><marker lat="40.464985367934204" lng="-79.939963392814477" zone="Zone 5" incidentdate="2016-10-08" incidenttime="18:30:00" incidentnumber="16190610" address="Gem Way &amp; N Pacific Ave" type="ARREST" age="52" gender="M" description="*********************************************** &lt;br/&gt;13(a)(16), Possession of Controlled Substance&lt;br/&gt;13(a)(30), Possession w/ Intent to Del. Controlled Substance&lt;br/&gt;13(a)(32), Paraphernalia - Use or Possession&lt;br/&gt;4910, Tampering with or Fabricating Physical Evidence.&lt;br/&gt;1543, Driving While Operating Privilege is Suspended or Revoked.&lt;br/&gt;3353, Prohibitions in Specified Places.&lt;br/&gt;"/><marker lat="40.406394419760503" lng="-79.947159880906995" zone="Zone 4" incidentdate="2016-10-08" incidenttime="18:30:00" incidentnumber="16190603" address="5100 block Ladora Way" type="ARREST" age="22" gender="F" description="*********************************************** &lt;br/&gt;13(a)(32), Paraphernalia - Use or Possession&lt;br/&gt;3503, Criminal Trespass&lt;br/&gt;"/><marker lat="40.395979031984503" lng="-80.029184474958257" zone="Zone 6" incidentdate="2016-10-08" incidenttime="10:20:00" incidentnumber="16181131" address="2700 block Waddington Ave" type="ARREST" age="24" gender="M" description="*********************************************** &lt;br/&gt;3502, Burglary.&lt;br/&gt;3921, Theft by Unlawful Taking or Disposition.&lt;br/&gt;3925, Receiving Stolen Property.&lt;br/&gt;"/><marker lat="40.4533101" lng="-80.0016797" zone="Zone 1" incidentdate="2016-10-08" incidenttime="10:54:00" incidentnumber="16175359" address="East Ohio St &amp; Cedar Ave" type="ARREST" age="34" gender="F" description="*********************************************** &lt;br/&gt;2705, Recklessly Endangering Another Person.&lt;br/&gt;2701(a)(3), Simple Assault - Attempts by Physical Menace&lt;br/&gt;"/><marker lat="40.425415706425149" lng="-79.964528084513944" zone="Zone 3" incidentdate="2016-10-08" incidenttime="16:55:00" incidentnumber="16190570" address="Hot Metal St &amp; East Carson St" type="ARREST" age="29" gender="M" description="*********************************************** &lt;br/&gt;3802(a)(1), DUI - General Impairment&lt;br/&gt;"/><marker lat="40.423307201998043" lng="-79.961250980900815" zone="Zone 3" incidentdate="2016-10-08" incidenttime="17:42:00" incidentnumber="16190581" address="3200 block E Carson St" type="ARREST" age="38" gender="M" description="*********************************************** &lt;br/&gt;13(a)(32), Paraphernalia - Use or Possession&lt;br/&gt;9501, Bench Warrant&lt;br/&gt;1786, Required Financial Responsibility.&lt;br/&gt;1543, Driving While Operating Privilege is Suspended or Revoked.&lt;br/&gt;"/><marker lat="40.443698485607818" lng="-79.949098768212707" zone="Zone 4" incidentdate="2016-10-08" incidenttime="22:13:00" incidentnumber="16190718" address="4400 block Forbes Ave" type="ARREST" age="21" gender="M" description="*********************************************** &lt;br/&gt;5503(a)(4), DISORDERLY CONDUCT - HAZARDOUS/PHYS. OFF&lt;br/&gt;5505, Public Drunkenness&lt;br/&gt;"/><marker lat="40.435095503606554" lng="-79.993077686753679" zone="Zone 2" incidentdate="2016-10-08" incidenttime="10:04:00" incidentnumber="16179307" address="900 block 2nd Ave" type="ARREST" age="46" gender="M" description="*********************************************** &lt;br/&gt;3929(a)(1), Retail Theft; takes possession of, carries away, or transfers displayed merchandise&lt;br/&gt;"/><marker lat="40.479933763133744" lng="-80.027247977482332" zone="Zone 1" incidentdate="2016-10-08" incidenttime="21:53:00" incidentnumber="16190706" address="Rodney St" type="ARREST" age="24" gender="F" description="*********************************************** &lt;br/&gt;2701, Simple Assault.&lt;br/&gt;"/><marker lat="40.464985367934204" lng="-79.939963392814477" zone="Zone 5" incidentdate="2016-10-08" incidenttime="18:30:00" incidentnumber="16190610" address="Gem Way &amp; N Pacific Ave" type="ARREST" age="36" gender="F" description="*********************************************** &lt;br/&gt;13(a)(16), Possession of Controlled Substance&lt;br/&gt;13(a)(30), Possession w/ Intent to Del. Controlled Substance&lt;br/&gt;13(a)(32), Paraphernalia - Use or Possession&lt;br/&gt;4910, Tampering with or Fabricating Physical Evidence.&lt;br/&gt;1543, Driving While Operating Privilege is Suspended or Revoked.&lt;br/&gt;3353, Prohibitions in Specified Places.&lt;br/&gt;"/><marker lat="40.454100381964004" lng="-79.890743749001061" zone="Zone 5" incidentdate="2016-10-08" incidenttime="01:15:00" incidentnumber="16190149" address="Kelly St &amp; N Braddock Ave" type="ARREST" age="29" gender="M" description="*********************************************** &lt;br/&gt;13(a)(31), Marijuana: Possession Small Amount&lt;br/&gt;1786, Required Financial Responsibility.&lt;br/&gt;1543, Driving While Operating Privilege is Suspended or Revoked.&lt;br/&gt;3802(a)(1), DUI - General Impairment&lt;br/&gt;"/><marker lat="40.423307201998043" lng="-79.961250980900815" zone="Zone 3" incidentdate="2016-10-08" incidenttime="17:42:00" incidentnumber="16190581" address="3200 block E Carson St" type="ARREST" age="33" gender="F" description="*********************************************** &lt;br/&gt;13(a)(32), Paraphernalia - Use or Possession&lt;br/&gt;9501, Bench Warrant&lt;br/&gt;1786, Required Financial Responsibility.&lt;br/&gt;1543, Driving While Operating Privilege is Suspended or Revoked.&lt;br/&gt;"/><marker lat="40.450892721440539" lng="-80.000843891836467" zone="Zone 1" incidentdate="2016-10-08" incidenttime="09:00:00" incidentnumber="16190303" address="300 block Cedar Ave" type="ARREST" age="25" gender="F" description="*********************************************** &lt;br/&gt;9501, Bench Warrant&lt;br/&gt;"/><marker lat="40.428648587693665" lng="-79.984030978724903" zone="Zone 3" incidentdate="2016-10-08" incidenttime="00:23:00" incidentnumber="16190121" address="1400 block E Carson St" type="ARREST" age="22" gender="M" description="*********************************************** &lt;br/&gt;5503, Disorderly Conduct.&lt;br/&gt;5505, Public Drunkenness&lt;br/&gt;"/><marker lat="40.468707151284001" lng="-79.962290675901343" zone="Zone 2" incidentdate="2016-10-08" incidenttime="13:15:00" incidentnumber="16190462" address="40th St &amp; Butler St" type="ARREST" age="30" gender="M" description="*********************************************** &lt;br/&gt;13(a)(16), Possession of Controlled Substance&lt;br/&gt;13(a)(32), Paraphernalia - Use or Possession&lt;br/&gt;"/></markers>
