<?xml version="1.0"?>
<markers><marker lat="40.438724717539678" lng="-79.999543937630378" zone="Zone 2" incidentdate="2016-09-03" incidenttime="06:30:00" incidentnumber="16165968" address="4th Ave &amp; Smithfield St" type="OFFENSE" age="" gender="" description="*********************************************** &lt;br/&gt;3934, Theft from Vehicle&lt;br/&gt;"/><marker lat="40.44490518577846" lng="-79.99377796067661" zone="Zone 2" incidentdate="2016-09-03" incidenttime="17:25:00" incidentnumber="16166263" address="1100 block Penn Ave" type="OFFENSE" age="" gender="" description="*********************************************** &lt;br/&gt;3921(a), Theft by Unlawful Taking or Disposition - Movable item&lt;br/&gt;"/><marker lat="40.428276333917673" lng="-79.97636113605644" zone="Zone 3" incidentdate="2016-09-03" incidenttime="03:21:00" incidentnumber="16165911" address="100 block S 21st St" type="OFFENSE" age="" gender="" description="*********************************************** &lt;br/&gt;3502, Burglary.&lt;br/&gt;3701, Robbery.&lt;br/&gt;6106, Firearms not to be Carried without a License.&lt;br/&gt;2706, Terroristic Threats.&lt;br/&gt;2701(a)(3), Simple Assault - Attempts by Physical Menace&lt;br/&gt;907, Possessing Instruments of Crime.&lt;br/&gt;4952, Intimidation of Witnesses or Victims&lt;br/&gt;2903, False Imprisonment.&lt;br/&gt;"/><marker lat="40.446314652723053" lng="-80.016316228653437" zone="Zone 1" incidentdate="2016-09-03" incidenttime="11:06:00" incidentnumber="16166066" address="100 block Art Rooney Ave" type="OFFENSE" age="" gender="" description="*********************************************** &lt;br/&gt;9489, Found Property&lt;br/&gt;"/><marker lat="40.437762302878838" lng="-79.934004700131851" zone="Zone 4" incidentdate="2016-09-03" incidenttime="12:00:00" incidentnumber="16166190" address="Schenley Dr" type="OFFENSE" age="" gender="" description="*********************************************** &lt;br/&gt;3921(a), Theft by Unlawful Taking or Disposition - Movable item&lt;br/&gt;"/><marker lat="40.441732921543291" lng="-80.006405498352649" zone="Zone 2" incidentdate="2016-09-03" incidenttime="10:30:00" incidentnumber="16166063" address="600 block Commonwealth Pl" type="OFFENSE" age="" gender="" description="*********************************************** &lt;br/&gt;9504, Lost Property&lt;br/&gt;"/><marker lat="40.453470511792048" lng="-80.001533243378148" zone="Zone 1" incidentdate="2016-09-03" incidenttime="02:00:00" incidentnumber="16165891" address="400 block East Ohio St" type="OFFENSE" age="" gender="" description="*********************************************** &lt;br/&gt;9501, Bench Warrant&lt;br/&gt;"/><marker lat="40.485331998975155" lng="-80.009535962286023" zone="Zone 1" incidentdate="2016-09-03" incidenttime="22:00:00" incidentnumber="16166426" address="East St &amp; Venture St" type="OFFENSE" age="" gender="" description="*********************************************** &lt;br/&gt;3802(a)(1), DUI - General Impairment&lt;br/&gt;"/><marker lat="40.438943794278437" lng="-79.956702987700893" zone="Zone 4" incidentdate="2016-09-03" incidenttime="02:00:00" incidentnumber="16166288" address="300 block Meyran Ave" type="OFFENSE" age="" gender="" description="*********************************************** &lt;br/&gt;3502, Burglary.&lt;br/&gt;"/><marker lat="40.427625356005251" lng="-79.983469085110642" zone="Zone 3" incidentdate="2016-09-03" incidenttime="18:15:00" incidentnumber="16166286" address="S 15th St &amp; Sarah St" type="OFFENSE" age="" gender="" description="*********************************************** &lt;br/&gt;9999, 9999 - (Misc. Incident):&lt;br/&gt;"/><marker lat="40.456796136884499" lng="-80.00609148219155" zone="Zone 1" incidentdate="2016-09-03" incidenttime="02:22:00" incidentnumber="16165889" address="Boyle St &amp; Parkhurst St" type="OFFENSE" age="" gender="" description="*********************************************** &lt;br/&gt;9998, Overdose&lt;br/&gt;"/><marker lat="40.455106996864117" lng="-79.899642494381283" zone="Zone 5" incidentdate="2016-09-03" incidenttime="18:30:00" incidentnumber="16166361" address="Hamilton Ave &amp; N Lang Ave" type="OFFENSE" age="" gender="" description="*********************************************** &lt;br/&gt;3304, Criminal Mischief.&lt;br/&gt;"/><marker lat="40.473481220987026" lng="-79.962813878468651" zone="Zone 2" incidentdate="2016-09-03" incidenttime="01:30:00" incidentnumber="16165870" address="100 block 44th St" type="OFFENSE" age="" gender="" description="*********************************************** &lt;br/&gt;3304, Criminal Mischief.&lt;br/&gt;"/><marker lat="40.387259115818594" lng="-79.99308088474578" zone="Zone 3" incidentdate="2016-09-03" incidenttime="02:34:00" incidentnumber="16165901" address="Sinton Way &amp; Walton Ave" type="OFFENSE" age="" gender="" description="*********************************************** &lt;br/&gt;3701, Robbery.&lt;br/&gt;"/><marker lat="40.44109003470308" lng="-79.957625831394992" zone="Zone 4" incidentdate="2016-09-03" incidenttime="02:29:00" incidentnumber="16165898" address="Forbes Ave &amp; Atwood St" type="OFFENSE" age="" gender="" description="*********************************************** &lt;br/&gt;2702, Aggravated Assault.&lt;br/&gt;2706, Terroristic Threats.&lt;br/&gt;"/><marker lat="40.467765994268291" lng="-79.94576492862997" zone="Zone 5" incidentdate="2016-09-03" incidenttime="05:20:00" incidentnumber="16165945" address="400 block N Mathilda St" type="OFFENSE" age="" gender="" description="*********************************************** &lt;br/&gt;2701, Simple Assault.&lt;br/&gt;"/><marker lat="40.451617038816323" lng="-80.001145711453432" zone="Zone 1" incidentdate="2016-09-03" incidenttime="03:55:00" incidentnumber="16165926" address="Cedar Ave &amp; Pressley St" type="OFFENSE" age="" gender="" description="*********************************************** &lt;br/&gt;13(a)(16), Possession of Controlled Substance&lt;br/&gt;13(a)(30), Possession w/ Intent to Del. Controlled Substance&lt;br/&gt;4910, Tampering with or Fabricating Physical Evidence.&lt;br/&gt;5104, Resisting Arrest or Other Law Enforcement.&lt;br/&gt;2702, Aggravated Assault.&lt;br/&gt;"/><marker lat="40.476980021029973" lng="-80.038157174592882" zone="Zone 1" incidentdate="2016-09-03" incidenttime="14:19:00" incidentnumber="16166162" address="3400 block Fleming Ave" type="OFFENSE" age="" gender="" description="*********************************************** &lt;br/&gt;13(a)(31)(i), Marijuana - Possess Small Amt for Personal Use&lt;br/&gt;6110.2, Possesion of Firearm with Altered Mfg. Number&lt;br/&gt;"/><marker lat="40.450966080336222" lng="-79.93359390037547" zone="Zone 4" incidentdate="2016-09-03" incidenttime="10:56:00" incidentnumber="16166058" address="5500 block Walnut St" type="OFFENSE" age="" gender="" description="*********************************************** &lt;br/&gt;3929, Retail Theft.&lt;br/&gt;"/><marker lat="40.435871654423465" lng="-79.923064652845284" zone="Zone 4" incidentdate="2016-09-03" incidenttime="12:33:00" incidentnumber="16166272" address="1900 block Murray Ave" type="OFFENSE" age="" gender="" description="*********************************************** &lt;br/&gt;3745, Accidents Involving Damage to Unattended Veh.or Prop.&lt;br/&gt;"/><marker lat="40.441371364794612" lng="-80.00389725761795" zone="Zone 2" incidentdate="2016-09-03" incidenttime="00:25:00" incidentnumber="16165815" address="Liberty Ave &amp; Stanwix St" type="OFFENSE" age="" gender="" description="*********************************************** &lt;br/&gt;13(a)(16), Possession of Controlled Substance&lt;br/&gt;3802(a)(1), DUI - General Impairment&lt;br/&gt;3111, Obedience to Traffic-Control Devices.&lt;br/&gt;"/><marker lat="40.457378136500722" lng="-79.925198352891869" zone="Zone 4" incidentdate="2016-09-03" incidenttime="15:37:00" incidentnumber="16166203" address="Alder St &amp; S Highland Ave" type="OFFENSE" age="" gender="" description="*********************************************** &lt;br/&gt;5505, Public Drunkenness&lt;br/&gt;3353, Prohibitions in Specified Places.&lt;br/&gt;"/><marker lat="40.427048463852685" lng="-79.985455849849913" zone="Zone 3" incidentdate="2016-09-03" incidenttime="07:54:00" incidentnumber="16165979" address="100 block S 13th St" type="OFFENSE" age="" gender="" description="*********************************************** &lt;br/&gt;13(a)(16), Possession of Controlled Substance&lt;br/&gt;13(a)(32), Paraphernalia - Use or Possession&lt;br/&gt;9501, Bench Warrant&lt;br/&gt;"/><marker lat="40.4496328" lng="-79.8895775" zone="Zone 5" incidentdate="2016-09-03" incidenttime="17:51:00" incidentnumber="16166267" address="500 block El Ct" type="OFFENSE" age="" gender="" description="*********************************************** &lt;br/&gt;2701, Simple Assault.&lt;br/&gt;2709(a)(1), Harassment by Physical Contact, or Attempts or Threats&lt;br/&gt;2706, Terroristic Threats.&lt;br/&gt;4952, Intimidation of Witnesses or Victims&lt;br/&gt;"/><marker lat="40.463215232308606" lng="-80.01986764251906" zone="Zone 1" incidentdate="2016-09-03" incidenttime="09:20:00" incidentnumber="16166002" address="Strauss St" type="OFFENSE" age="" gender="" description="*********************************************** &lt;br/&gt;2701, Simple Assault.&lt;br/&gt;"/><marker lat="40.445099987229362" lng="-79.999050002208406" zone="Zone 2" incidentdate="2016-09-03" incidenttime="02:09:00" incidentnumber="16165887" address="100 block 9th St" type="OFFENSE" age="" gender="" description="*********************************************** &lt;br/&gt;3743, Accidents Involving Damage to Attended Veh. or Property&lt;br/&gt;"/><marker lat="40.430020824945359" lng="-79.976813326700821" zone="Zone 3" incidentdate="2016-09-03" incidenttime="15:45:00" incidentnumber="16166214" address="2000 block Wharton St" type="OFFENSE" age="" gender="" description="*********************************************** &lt;br/&gt;9501, Bench Warrant&lt;br/&gt;"/><marker lat="40.42959549760031" lng="-79.923356946569484" zone="Zone 4" incidentdate="2016-09-03" incidenttime="03:01:00" incidentnumber="16165908" address="5800 block Forward Ave" type="OFFENSE" age="" gender="" description="*********************************************** &lt;br/&gt;9488, False  Burglar Alarm&lt;br/&gt;"/><marker lat="40.442092052039932" lng="-79.999423512399062" zone="Zone 2" incidentdate="2016-09-03" incidenttime="17:15:00" incidentnumber="16166257" address="600 block Wood St" type="OFFENSE" age="" gender="" description="*********************************************** &lt;br/&gt;3921, Theft by Unlawful Taking or Disposition.&lt;br/&gt;2701(a)(1), Simple Assault - Intent., Know., Reckless.Cause Bod. Injury&lt;br/&gt;2706, Terroristic Threats.&lt;br/&gt;"/><marker lat="40.434348049519336" lng="-80.006335021862654" zone="Zone 3" incidentdate="2016-09-03" incidenttime="00:06:00" incidentnumber="16165814" address="300 block Station Square Dr W" type="OFFENSE" age="" gender="" description="*********************************************** &lt;br/&gt;2701, Simple Assault.&lt;br/&gt;2902, Unlawful Restraint.&lt;br/&gt;"/><marker lat="40.440786175962813" lng="-79.994403812629301" zone="Zone 2" incidentdate="2016-09-03" incidenttime="04:17:00" incidentnumber="16165929" address="Bigelow Sq" type="OFFENSE" age="" gender="" description="*********************************************** &lt;br/&gt;2701, Simple Assault.&lt;br/&gt;"/><marker lat="40.45639294627604" lng="-79.891902082738156" zone="Zone 5" incidentdate="2016-09-03" incidenttime="03:00:00" incidentnumber="16165906" address="Collier St &amp; Frankstown Ave" type="OFFENSE" age="" gender="" description="*********************************************** &lt;br/&gt;13(a)(16), Possession of Controlled Substance&lt;br/&gt;"/><marker lat="40.450934256715165" lng="-79.973807393033383" zone="Zone 2" incidentdate="2016-09-03" incidenttime="12:50:00" incidentnumber="16166150" address="2500 block Chauncey Dr" type="OFFENSE" age="" gender="" description="*********************************************** &lt;br/&gt;13(a)(31), Marijuana: Possession Small Amount&lt;br/&gt;6106, Firearms not to be Carried without a License.&lt;br/&gt;"/><marker lat="40.463264580130151" lng="-79.896709329983793" zone="Zone 5" incidentdate="2016-09-03" incidenttime="12:35:00" incidentnumber="16166111" address="7100 block Chaucer St" type="OFFENSE" age="" gender="" description="*********************************************** &lt;br/&gt;9489, Found Property&lt;br/&gt;"/><marker lat="40.42195708086561" lng="-79.986432941657682" zone="Zone 3" incidentdate="2016-09-03" incidenttime="01:30:00" incidentnumber="16165861" address="1100 block E Warrington Ave" type="OFFENSE" age="" gender="" description="*********************************************** &lt;br/&gt;3503(b)(1)(iii), Defiant Trespass - Fencing or Other Enclosure&lt;br/&gt;"/><marker lat="40.455524933974921" lng="-79.999557274116029" zone="Zone 1" incidentdate="2016-09-03" incidenttime="11:30:00" incidentnumber="16166092" address="900 block Middle St" type="OFFENSE" age="" gender="" description="*********************************************** &lt;br/&gt;3745, Accidents Involving Damage to Unattended Veh.or Prop.&lt;br/&gt;"/><marker lat="40.473683378789787" lng="-80.033644409230092" zone="Zone 1" incidentdate="2016-09-03" incidenttime="07:32:00" incidentnumber="16165973" address="1400 block Geyer Ave" type="OFFENSE" age="" gender="" description="*********************************************** &lt;br/&gt;3304, Criminal Mischief.&lt;br/&gt;"/><marker lat="40.466614441649668" lng="-79.89627857922963" zone="Zone 5" incidentdate="2016-09-03" incidenttime="18:18:00" incidentnumber="16166285" address="7100 block Gladefield St" type="OFFENSE" age="" gender="" description="*********************************************** &lt;br/&gt;3934, Theft from Vehicle&lt;br/&gt;"/><marker lat="40.444495777378592" lng="-79.978538653915834" zone="Zone 2" incidentdate="2016-09-03" incidenttime="16:08:00" incidentnumber="16166217" address="Centre Ave &amp; Addison St" type="OFFENSE" age="" gender="" description="*********************************************** &lt;br/&gt;9998, Overdose&lt;br/&gt;"/><marker lat="40.409531471501424" lng="-79.939614353460925" zone="Zone 4" incidentdate="2016-09-03" incidenttime="03:26:00" incidentnumber="16165912" address="Steele Ct &amp; Nordica St" type="OFFENSE" age="" gender="" description="*********************************************** &lt;br/&gt;9125, Possible  Stolen Car Recovered&lt;br/&gt;"/><marker lat="40.450349551044347" lng="-79.870079209367304" zone="Zone 5" incidentdate="2016-09-03" incidenttime="11:00:00" incidentnumber="16166223" address="2000 block Fairlawn St" type="OFFENSE" age="" gender="" description="*********************************************** &lt;br/&gt;3934, Theft from Vehicle&lt;br/&gt;"/><marker lat="40.459965258105022" lng="-79.943518312467759" zone="Zone OSC" incidentdate="2016-09-03" incidenttime="10:23:00" incidentnumber="16166040" address="100 block Harriet St" type="OFFENSE" age="" gender="" description="*********************************************** &lt;br/&gt;3925, Receiving Stolen Property.&lt;br/&gt;"/><marker lat="40.440264464999863" lng="-79.957440502627435" zone="Zone 4" incidentdate="2016-09-03" incidenttime="07:45:00" incidentnumber="16165981" address="3600 block Forbes Ave" type="OFFENSE" age="" gender="" description="*********************************************** &lt;br/&gt;3921(a), Theft by Unlawful Taking or Disposition - Movable item&lt;br/&gt;"/><marker lat="40.475991792684219" lng="-79.998237934488159" zone="Zone 1" incidentdate="2016-09-03" incidenttime="08:44:00" incidentnumber="16166025" address="700 block Mt Pleasant Rd" type="OFFENSE" age="" gender="" description="*********************************************** &lt;br/&gt;9999, 9999 - (Misc. Incident):&lt;br/&gt;"/><marker lat="40.471641034407213" lng="-79.986295875369706" zone="Zone 1" incidentdate="2016-09-03" incidenttime="14:00:00" incidentnumber="16166237" address="Mauch St" type="OFFENSE" age="" gender="" description="*********************************************** &lt;br/&gt;9129, Miscellaneous Investigation&lt;br/&gt;"/><marker lat="40.424053079380293" lng="-79.968456153588619" zone="Zone 3" incidentdate="2016-09-03" incidenttime="01:58:00" incidentnumber="16165878" address="2800 block Edwards Way" type="OFFENSE" age="" gender="" description="*********************************************** &lt;br/&gt;3304(a)(5), CRIMINAL MISCHIEF - Intentionally Damages Real Or Personal Property Of Another&lt;br/&gt;907, Possessing Instruments of Crime.&lt;br/&gt;"/><marker lat="40.434299677403494" lng="-79.961173018071435" zone="Zone 4" incidentdate="2016-09-03" incidenttime="09:31:00" incidentnumber="16166050" address="3200 block Kennett Sq" type="OFFENSE" age="" gender="" description="*********************************************** &lt;br/&gt;9489, Found Property&lt;br/&gt;"/><marker lat="40.466614441649668" lng="-79.89627857922963" zone="Zone 5" incidentdate="2016-09-03" incidenttime="19:51:00" incidentnumber="16166338" address="7100 block Gladefield St" type="OFFENSE" age="" gender="" description="*********************************************** &lt;br/&gt;3921(a), Theft by Unlawful Taking or Disposition - Movable item&lt;br/&gt;2702, Aggravated Assault.&lt;br/&gt;"/><marker lat="40.435397451419718" lng="-79.933202843712522" zone="Zone 4" incidentdate="2016-09-03" incidenttime="12:00:00" incidentnumber="16166238" address="5400 block Darlington Rd" type="OFFENSE" age="" gender="" description="*********************************************** &lt;br/&gt;3304, Criminal Mischief.&lt;br/&gt;"/><marker lat="40.391992306024456" lng="-79.990410931645073" zone="Zone 3" incidentdate="2016-09-03" incidenttime="11:39:00" incidentnumber="16166053" address="200 block Parkfield St" type="OFFENSE" age="" gender="" description="*********************************************** &lt;br/&gt;3921(a), Theft by Unlawful Taking or Disposition - Movable item&lt;br/&gt;"/><marker lat="40.434915946354856" lng="-79.959789947884843" zone="Zone 4" incidentdate="2016-09-03" incidenttime="04:18:00" incidentnumber="16165930" address="3300 block Niagara St" type="OFFENSE" age="" gender="" description="*********************************************** &lt;br/&gt;3502, Burglary.&lt;br/&gt;"/><marker lat="40.450757007580592" lng="-79.886399530604336" zone="Zone 5" incidentdate="2016-09-03" incidenttime="09:30:00" incidentnumber="16166012" address="7900 block Tacoma St" type="OFFENSE" age="" gender="" description="*********************************************** &lt;br/&gt;9498, 302 (Mental)&lt;br/&gt;"/><marker lat="40.455827122003001" lng="-79.873802880338005" zone="Zone 5" incidentdate="2016-09-03" incidenttime="14:18:00" incidentnumber="16166160" address="2400 block Park Hill Dr" type="OFFENSE" age="" gender="" description="*********************************************** &lt;br/&gt;9498, 302 (Mental)&lt;br/&gt;"/><marker lat="40.442888113190847" lng="-79.997936520552642" zone="Zone 2" incidentdate="2016-09-03" incidenttime="09:46:00" incidentnumber="16166023" address="900 block Liberty Ave" type="OFFENSE" age="" gender="" description="*********************************************** &lt;br/&gt;9999, 9999 - (Misc. Incident):&lt;br/&gt;"/><marker lat="40.4597609" lng="-79.9208177" zone="Zone 5" incidentdate="2016-09-03" incidenttime="10:55:00" incidentnumber="16166059" address="6300 block Penn Ave" type="OFFENSE" age="" gender="" description="*********************************************** &lt;br/&gt;5104, Resisting Arrest or Other Law Enforcement.&lt;br/&gt;6106, Firearms not to be Carried without a License.&lt;br/&gt;"/><marker lat="40.460996774826974" lng="-80.078800757674898" zone="Zone 6" incidentdate="2016-09-03" incidenttime="10:30:00" incidentnumber="16166039" address="3900 block Mayfair St" type="OFFENSE" age="" gender="" description="*********************************************** &lt;br/&gt;4106, Access Device Fraud&lt;br/&gt;"/><marker lat="40.447791383449896" lng="-80.003763673123132" zone="Zone 1" incidentdate="2016-09-03" incidenttime="10:00:00" incidentnumber="16166049" address="100 block Federal St S" type="OFFENSE" age="" gender="" description="*********************************************** &lt;br/&gt;9489, Found Property&lt;br/&gt;"/><marker lat="40.482217314560486" lng="-80.021057438123449" zone="Zone 1" incidentdate="2016-09-03" incidenttime="16:56:00" incidentnumber="16166266" address="Riverview Ave" type="OFFENSE" age="" gender="" description="*********************************************** &lt;br/&gt;3745, Accidents Involving Damage to Unattended Veh.or Prop.&lt;br/&gt;"/><marker lat="40.432634993637109" lng="-80.043165603497357" zone="Zone 6" incidentdate="2016-09-03" incidenttime="11:20:00" incidentnumber="16166076" address="1000 block Jerome St" type="OFFENSE" age="" gender="" description="*********************************************** &lt;br/&gt;9999, 9999 - (Misc. Incident):&lt;br/&gt;"/><marker lat="40.421694937869319" lng="-79.983004674521865" zone="Zone 3" incidentdate="2016-09-03" incidenttime="17:00:00" incidentnumber="16166242" address="2400 block S 18th St" type="OFFENSE" age="" gender="" description="*********************************************** &lt;br/&gt;2709(a)(1), Harassment by Physical Contact, or Attempts or Threats&lt;br/&gt;8104, CLASS 1 - Suspicious Package or Device&lt;br/&gt;"/><marker lat="40.442452018573462" lng="-79.957449520185975" zone="Zone 4" incidentdate="2016-09-03" incidenttime="02:40:00" incidentnumber="16165907" address="100 block S Bouquet St" type="OFFENSE" age="" gender="" description="*********************************************** &lt;br/&gt;3921, Theft by Unlawful Taking or Disposition.&lt;br/&gt;"/><marker lat="40.46706575374759" lng="-79.905807732882394" zone="Zone 5" incidentdate="2016-09-03" incidenttime="00:14:00" incidentnumber="16165808" address="1100 block Paulson Ave" type="OFFENSE" age="" gender="" description="*********************************************** &lt;br/&gt;029, Missing Juvenile&lt;br/&gt;"/><marker lat="40.472160202718989" lng="-79.963279968738931" zone="Zone 2" incidentdate="2016-09-03" incidenttime="01:40:00" incidentnumber="16165888" address="100 block 42nd St" type="OFFENSE" age="" gender="" description="*********************************************** &lt;br/&gt;3304, Criminal Mischief.&lt;br/&gt;"/><marker lat="40.4442043" lng="-80.0281834" zone="Zone 3" incidentdate="2016-09-03" incidenttime="01:39:00" incidentnumber="16165864" address="Saw Mill Run Blvd &amp; West End Cir" type="OFFENSE" age="" gender="" description="*********************************************** &lt;br/&gt;9999, 9999 - (Misc. Incident):&lt;br/&gt;3714, Careless Driving&lt;br/&gt;"/><marker lat="40.428438567956732" lng="-79.983105958684874" zone="Zone 3" incidentdate="2016-09-03" incidenttime="02:05:00" incidentnumber="16165884" address="100 block S 16th St" type="OFFENSE" age="" gender="" description="*********************************************** &lt;br/&gt;3502, Burglary.&lt;br/&gt;"/><marker lat="40.462039648985133" lng="-79.949904112059144" zone="Zone 5" incidentdate="2016-09-03" incidenttime="15:16:00" incidentnumber="16166192" address="4700 block Liberty Ave" type="OFFENSE" age="" gender="" description="*********************************************** &lt;br/&gt;3921, Theft by Unlawful Taking or Disposition.&lt;br/&gt;"/><marker lat="40.450892721440539" lng="-80.000843891836467" zone="Zone 1" incidentdate="2016-09-03" incidenttime="18:18:00" incidentnumber="16166287" address="300 block Cedar Ave" type="OFFENSE" age="" gender="" description="*********************************************** &lt;br/&gt;3922, Theft by Deception.&lt;br/&gt;4119, Trademark Counterfeiting&lt;br/&gt;"/><marker lat="40.4271863" lng="-79.9624950" zone="Zone 3" incidentdate="2016-09-03" incidenttime="01:05:00" incidentnumber="16165847" address="Hotmetal Street &amp; S. Water Street" type="OFFENSE" age="" gender="" description="*********************************************** &lt;br/&gt;3112, Traffic-Control Signals.&lt;br/&gt;908, Prohibited Offensive Weapons.&lt;br/&gt;13(a)(31)(i), Marijuana - Possess Small Amt for Personal Use&lt;br/&gt;"/><marker lat="40.456035398171082" lng="-79.899256008940981" zone="Zone 5" incidentdate="2016-09-03" incidenttime="10:24:00" incidentnumber="16166041" address="Kelly St &amp; N Lang Ave" type="OFFENSE" age="" gender="" description="*********************************************** &lt;br/&gt;2705, Recklessly Endangering Another Person.&lt;br/&gt;2702, Aggravated Assault.&lt;br/&gt;2701, Simple Assault.&lt;br/&gt;"/><marker lat="40.41585770010623" lng="-79.988118814925556" zone="Zone 3" incidentdate="2016-09-03" incidenttime="13:20:00" incidentnumber="16166139" address="100 block Zara St" type="OFFENSE" age="" gender="" description="*********************************************** &lt;br/&gt;3304, Criminal Mischief.&lt;br/&gt;"/><marker lat="40.4582100888612" lng="-79.904907963631274" zone="Zone 5" incidentdate="2016-09-03" incidenttime="13:37:00" incidentnumber="16166144" address="800 block Inwood St" type="OFFENSE" age="" gender="" description="*********************************************** &lt;br/&gt;9093, Indirect Criminal Contempt&lt;br/&gt;"/><marker lat="40.425174595795802" lng="-80.004005135762398" zone="Zone 3" incidentdate="2016-09-03" incidenttime="10:00:00" incidentnumber="16166112" address="Harwood St" type="OFFENSE" age="" gender="" description="*********************************************** &lt;br/&gt;3934, Theft from Vehicle&lt;br/&gt;"/><marker lat="40.453380897758855" lng="-79.927159206084994" zone="Zone 4" incidentdate="2016-09-03" incidenttime="21:04:00" incidentnumber="16166390" address="800 block College Ave" type="OFFENSE" age="" gender="" description="*********************************************** &lt;br/&gt;9504, Lost Property&lt;br/&gt;"/><marker lat="40.394406234780405" lng="-79.996371798501173" zone="Zone 3" incidentdate="2016-09-03" incidenttime="03:40:00" incidentnumber="16165992" address="1900 block Dartmore St" type="OFFENSE" age="" gender="" description="*********************************************** &lt;br/&gt;3304, Criminal Mischief.&lt;br/&gt;"/><marker lat="40.4271863" lng="-79.9624950" zone="Zone 3" incidentdate="2016-09-03" incidenttime="01:05:00" incidentnumber="16165847" address="Hotmetal Street &amp; S. Water Street" type="ARREST" age="20" gender="M" description="*********************************************** &lt;br/&gt;3112, Traffic-Control Signals.&lt;br/&gt;908, Prohibited Offensive Weapons.&lt;br/&gt;13(a)(31)(i), Marijuana - Possess Small Amt for Personal Use&lt;br/&gt;"/><marker lat="40.443290707195686" lng="-79.999092773277866" zone="Zone 2" incidentdate="2016-09-03" incidenttime="14:30:00" incidentnumber="16062618" address="800 block Penn Ave" type="ARREST" age="19" gender="M" description="*********************************************** &lt;br/&gt;2706, Terroristic Threats.&lt;br/&gt;2701(a)(3), Simple Assault - Attempts by Physical Menace&lt;br/&gt;"/><marker lat="40.427048463852685" lng="-79.985455849849913" zone="Zone 3" incidentdate="2016-09-03" incidenttime="08:00:00" incidentnumber="16165979" address="100 block S 13th St" type="ARREST" age="31" gender="M" description="*********************************************** &lt;br/&gt;13(a)(16), Possession of Controlled Substance&lt;br/&gt;13(a)(32), Paraphernalia - Use or Possession&lt;br/&gt;9501, Bench Warrant&lt;br/&gt;"/><marker lat="40.485331998975155" lng="-80.009535962286023" zone="Zone 1" incidentdate="2016-09-03" incidenttime="22:21:00" incidentnumber="16166426" address="East St &amp; Venture St" type="ARREST" age="25" gender="M" description="*********************************************** &lt;br/&gt;3802(a)(1), DUI - General Impairment&lt;br/&gt;"/><marker lat="40.427048463852685" lng="-79.985455849849913" zone="Zone 3" incidentdate="2016-09-03" incidenttime="08:00:00" incidentnumber="16165979" address="100 block S 13th St" type="ARREST" age="24" gender="M" description="*********************************************** &lt;br/&gt;13(a)(16), Possession of Controlled Substance&lt;br/&gt;13(a)(32), Paraphernalia - Use or Possession&lt;br/&gt;9501, Bench Warrant&lt;br/&gt;"/><marker lat="40.463215232308606" lng="-80.01986764251906" zone="Zone 1" incidentdate="2016-09-03" incidenttime="09:15:00" incidentnumber="16166002" address="Strauss St" type="ARREST" age="36" gender="M" description="*********************************************** &lt;br/&gt;2701, Simple Assault.&lt;br/&gt;"/><marker lat="40.45639294627604" lng="-79.891902082738156" zone="Zone 5" incidentdate="2016-09-03" incidenttime="03:15:00" incidentnumber="16165906" address="Collier St &amp; Frankstown Ave" type="ARREST" age="55" gender="M" description="*********************************************** &lt;br/&gt;13(a)(16), Possession of Controlled Substance&lt;br/&gt;"/><marker lat="40.434348049519336" lng="-80.006335021862654" zone="Zone 3" incidentdate="2016-09-03" incidenttime="00:10:00" incidentnumber="16165814" address="300 block Station Square Dr W" type="ARREST" age="28" gender="M" description="*********************************************** &lt;br/&gt;2701, Simple Assault.&lt;br/&gt;2902, Unlawful Restraint.&lt;br/&gt;"/><marker lat="40.451336106686199" lng="-79.960869228661196" zone="Zone 2" incidentdate="2016-09-03" incidenttime="02:30:00" incidentnumber="16083572" address="800 block Cherokee St" type="ARREST" age="29" gender="M" description="*********************************************** &lt;br/&gt;2701, Simple Assault.&lt;br/&gt;"/><marker lat="40.476980021029973" lng="-80.038157174592882" zone="Zone 1" incidentdate="2016-09-03" incidenttime="15:25:00" incidentnumber="16166162" address="3400 block Fleming Ave" type="ARREST" age="26" gender="F" description="*********************************************** &lt;br/&gt;13(a)(31)(i), Marijuana - Possess Small Amt for Personal Use&lt;br/&gt;6110.2, Possesion of Firearm with Altered Mfg. Number&lt;br/&gt;"/><marker lat="40.4597609" lng="-79.9208177" zone="Zone 5" incidentdate="2016-09-03" incidenttime="11:00:00" incidentnumber="16166059" address="6300 block Penn Ave" type="ARREST" age="26" gender="M" description="*********************************************** &lt;br/&gt;5104, Resisting Arrest or Other Law Enforcement.&lt;br/&gt;6106, Firearms not to be Carried without a License.&lt;br/&gt;"/><marker lat="40.420726146964086" lng="-79.99577696678854" zone="Zone 3" incidentdate="2016-09-03" incidenttime="14:30:00" incidentnumber="16165518" address="700 block Industry St" type="ARREST" age="19" gender="M" description="*********************************************** &lt;br/&gt;2701, Simple Assault.&lt;br/&gt;"/><marker lat="40.441371364794612" lng="-80.00389725761795" zone="Zone 2" incidentdate="2016-09-03" incidenttime="00:25:00" incidentnumber="16165815" address="Liberty Ave &amp; Stanwix St" type="ARREST" age="42" gender="F" description="*********************************************** &lt;br/&gt;13(a)(16), Possession of Controlled Substance&lt;br/&gt;3802(a)(1), DUI - General Impairment&lt;br/&gt;3111, Obedience to Traffic-Control Devices.&lt;br/&gt;"/><marker lat="40.428276333917673" lng="-79.97636113605644" zone="Zone 3" incidentdate="2016-09-03" incidenttime="03:58:00" incidentnumber="16165911" address="100 block S 21st St" type="ARREST" age="23" gender="M" description="*********************************************** &lt;br/&gt;3502, Burglary.&lt;br/&gt;3701, Robbery.&lt;br/&gt;6106, Firearms not to be Carried without a License.&lt;br/&gt;2706, Terroristic Threats.&lt;br/&gt;2701(a)(3), Simple Assault - Attempts by Physical Menace&lt;br/&gt;907, Possessing Instruments of Crime.&lt;br/&gt;4952, Intimidation of Witnesses or Victims&lt;br/&gt;2903, False Imprisonment.&lt;br/&gt;"/><marker lat="40.456035398171082" lng="-79.899256008940981" zone="Zone 5" incidentdate="2016-09-03" incidenttime="10:30:00" incidentnumber="16166041" address="Kelly St &amp; N Lang Ave" type="ARREST" age="33" gender="F" description="*********************************************** &lt;br/&gt;2705, Recklessly Endangering Another Person.&lt;br/&gt;2702, Aggravated Assault.&lt;br/&gt;2701, Simple Assault.&lt;br/&gt;"/><marker lat="40.440786175962813" lng="-79.994403812629301" zone="Zone 2" incidentdate="2016-09-03" incidenttime="04:40:00" incidentnumber="16165929" address="Bigelow Sq" type="ARREST" age="25" gender="F" description="*********************************************** &lt;br/&gt;2701, Simple Assault.&lt;br/&gt;"/><marker lat="40.4911192" lng="-80.2656912" zone="Zone OSC" incidentdate="2016-09-03" incidenttime="08:30:00" incidentnumber="16150943" address="100 block Airport Blvd" type="ARREST" age="38" gender="M" description="*********************************************** &lt;br/&gt;1543, Driving While Operating Privilege is Suspended or Revoked.&lt;br/&gt;3742.1, Accident Involv. Death/Inj. While not Licensed&lt;br/&gt;3308, One-Way Roadways and Rotary Traffic Islands.&lt;br/&gt;"/><marker lat="40.44109003470308" lng="-79.957625831394992" zone="Zone 4" incidentdate="2016-09-03" incidenttime="02:32:00" incidentnumber="16165898" address="Forbes Ave &amp; Atwood St" type="ARREST" age="42" gender="M" description="*********************************************** &lt;br/&gt;2702, Aggravated Assault.&lt;br/&gt;2706, Terroristic Threats.&lt;br/&gt;"/><marker lat="40.450934256715165" lng="-79.973807393033383" zone="Zone 2" incidentdate="2016-09-03" incidenttime="12:50:00" incidentnumber="16166150" address="2500 block Chauncey Dr" type="ARREST" age="25" gender="M" description="*********************************************** &lt;br/&gt;13(a)(31), Marijuana: Possession Small Amount&lt;br/&gt;6106, Firearms not to be Carried without a License.&lt;br/&gt;"/><marker lat="40.466614441649668" lng="-79.89627857922963" zone="Zone 5" incidentdate="2016-09-03" incidenttime="20:50:00" incidentnumber="16166338" address="7100 block Gladefield St" type="ARREST" age="32" gender="F" description="*********************************************** &lt;br/&gt;3921(a), Theft by Unlawful Taking or Disposition - Movable item&lt;br/&gt;2702, Aggravated Assault.&lt;br/&gt;"/><marker lat="40.427048463852685" lng="-79.985455849849913" zone="Zone 3" incidentdate="2016-09-03" incidenttime="08:00:00" incidentnumber="16165979" address="100 block S 13th St" type="ARREST" age="25" gender="F" description="*********************************************** &lt;br/&gt;13(a)(16), Possession of Controlled Substance&lt;br/&gt;13(a)(32), Paraphernalia - Use or Possession&lt;br/&gt;9501, Bench Warrant&lt;br/&gt;"/><marker lat="40.427048463852685" lng="-79.985455849849913" zone="Zone 3" incidentdate="2016-09-03" incidenttime="08:00:00" incidentnumber="16165979" address="100 block S 13th St" type="ARREST" age="32" gender="M" description="*********************************************** &lt;br/&gt;13(a)(16), Possession of Controlled Substance&lt;br/&gt;13(a)(32), Paraphernalia - Use or Possession&lt;br/&gt;9501, Bench Warrant&lt;br/&gt;"/><marker lat="40.459965258105022" lng="-79.943518312467759" zone="Zone OSC" incidentdate="2016-09-03" incidenttime="10:25:00" incidentnumber="16166040" address="100 block Harriet St" type="ARREST" age="15" gender="M" description="*********************************************** &lt;br/&gt;3925, Receiving Stolen Property.&lt;br/&gt;"/><marker lat="40.451617038816323" lng="-80.001145711453432" zone="Zone 1" incidentdate="2016-09-03" incidenttime="03:55:00" incidentnumber="16165926" address="Cedar Ave &amp; Pressley St" type="ARREST" age="39" gender="M" description="*********************************************** &lt;br/&gt;13(a)(16), Possession of Controlled Substance&lt;br/&gt;13(a)(30), Possession w/ Intent to Del. Controlled Substance&lt;br/&gt;4910, Tampering with or Fabricating Physical Evidence.&lt;br/&gt;5104, Resisting Arrest or Other Law Enforcement.&lt;br/&gt;2702, Aggravated Assault.&lt;br/&gt;"/><marker lat="40.453470511792048" lng="-80.001533243378148" zone="Zone 1" incidentdate="2016-09-03" incidenttime="02:05:00" incidentnumber="16165891" address="400 block East Ohio St" type="ARREST" age="27" gender="F" description="*********************************************** &lt;br/&gt;9501, Bench Warrant&lt;br/&gt;"/><marker lat="40.4582100888612" lng="-79.904907963631274" zone="Zone 5" incidentdate="2016-09-03" incidenttime="15:30:00" incidentnumber="16166144" address="800 block Inwood St" type="ARREST" age="53" gender="F" description="*********************************************** &lt;br/&gt;9093, Indirect Criminal Contempt&lt;br/&gt;"/><marker lat="40.430020824945359" lng="-79.976813326700821" zone="Zone 3" incidentdate="2016-09-03" incidenttime="16:00:00" incidentnumber="16166214" address="2000 block Wharton St" type="ARREST" age="44" gender="M" description="*********************************************** &lt;br/&gt;9501, Bench Warrant&lt;br/&gt;"/><marker lat="40.427048463852685" lng="-79.985455849849913" zone="Zone 3" incidentdate="2016-09-03" incidenttime="08:00:00" incidentnumber="16165979" address="100 block S 13th St" type="ARREST" age="25" gender="M" description="*********************************************** &lt;br/&gt;13(a)(16), Possession of Controlled Substance&lt;br/&gt;13(a)(32), Paraphernalia - Use or Possession&lt;br/&gt;9501, Bench Warrant&lt;br/&gt;"/></markers>
