<?xml version="1.0"?>
<markers><marker lat="40.437040683825188" lng="-79.996719730893858" zone="Zone 2" incidentdate="2016-08-06" incidenttime="23:30:00" incidentnumber="16146605" address="300 block Ross St" type="OFFENSE" age="" gender="" description="*********************************************** &lt;br/&gt;3745, Accidents Involving Damage to Unattended Veh.or Prop.&lt;br/&gt;"/><marker lat="40.476996794478275" lng="-79.926413063149141" zone="Zone 5" incidentdate="2016-08-06" incidenttime="12:00:00" incidentnumber="16146215" address="5500 block Beverly Pl" type="OFFENSE" age="" gender="" description="*********************************************** &lt;br/&gt;3934, Theft from Vehicle&lt;br/&gt;4106, Access Device Fraud&lt;br/&gt;"/><marker lat="40.475425601332056" lng="-80.03227986796233" zone="Zone 1" incidentdate="2016-08-06" incidenttime="09:30:00" incidentnumber="16146194" address="Courtright St" type="OFFENSE" age="" gender="" description="*********************************************** &lt;br/&gt;3502, Burglary.&lt;br/&gt;"/><marker lat="40.422862130388722" lng="-79.966721638213045" zone="Zone 3" incidentdate="2016-08-06" incidenttime="16:30:00" incidentnumber="16146352" address="2900 block Josephine St" type="OFFENSE" age="" gender="" description="*********************************************** &lt;br/&gt;3304, Criminal Mischief.&lt;br/&gt;"/><marker lat="40.450813726288715" lng="-79.972243374536816" zone="Zone 2" incidentdate="2016-08-06" incidenttime="00:38:00" incidentnumber="16145929" address="Bedford Ave &amp; Chauncey Dr" type="OFFENSE" age="" gender="" description="*********************************************** &lt;br/&gt;2702, Aggravated Assault.&lt;br/&gt;2701, Simple Assault.&lt;br/&gt;"/><marker lat="40.460908099038463" lng="-79.919321703275926" zone="Zone 5" incidentdate="2016-08-06" incidenttime="01:50:00" incidentnumber="16145908" address="Dudley Ct" type="OFFENSE" age="" gender="" description="*********************************************** &lt;br/&gt;5101, Obstructing Admin. of Law&lt;br/&gt;4304(a)(1) Enhanced, Welfare of Children - Course of Conduct&lt;br/&gt;"/><marker lat="40.428684832699354" lng="-79.983306706238423" zone="Zone 3" incidentdate="2016-08-06" incidenttime="02:00:00" incidentnumber="16146168" address="1500 block E Carson St" type="OFFENSE" age="" gender="" description="*********************************************** &lt;br/&gt;9999, 9999 - (Misc. Incident):&lt;br/&gt;"/><marker lat="40.456759418825953" lng="-80.050419399677125" zone="Zone 6" incidentdate="2016-08-06" incidenttime="10:30:00" incidentnumber="16146538" address="2900 block Stafford St" type="OFFENSE" age="" gender="" description="*********************************************** &lt;br/&gt;3934, Theft from Vehicle&lt;br/&gt;"/><marker lat="40.411478024996121" lng="-79.97732179218626" zone="Zone 3" incidentdate="2016-08-06" incidenttime="15:00:00" incidentnumber="16146324" address="500 block Mountain Ave" type="OFFENSE" age="" gender="" description="*********************************************** &lt;br/&gt;3745, Accidents Involving Damage to Unattended Veh.or Prop.&lt;br/&gt;"/><marker lat="40.486294337154291" lng="-80.015778680353037" zone="Zone 1" incidentdate="2016-08-06" incidenttime="07:15:00" incidentnumber="16146100" address="3700 block Perrysville Ave" type="OFFENSE" age="" gender="" description="*********************************************** &lt;br/&gt;3304(a)(4), CRIMINAL MISCHIEF- Intentionally Damage Property (By Graffiti, Aerosol Spray Paint, Broad Tip Marker, or Similar)&lt;br/&gt;"/><marker lat="40.479404139578051" lng="-79.952653932272639" zone="Zone 2" incidentdate="2016-08-06" incidenttime="18:35:00" incidentnumber="16146433" address="5200 block Keystone St" type="OFFENSE" age="" gender="" description="*********************************************** &lt;br/&gt;3745, Accidents Involving Damage to Unattended Veh.or Prop.&lt;br/&gt;"/><marker lat="40.487823540011732" lng="-79.897614208935366" zone="Zone 5" incidentdate="2016-08-06" incidenttime="15:29:00" incidentnumber="16146310" address="800 block Freeport Rd" type="OFFENSE" age="" gender="" description="*********************************************** &lt;br/&gt;9999, 9999 - (Misc. Incident):&lt;br/&gt;"/><marker lat="40.473359809023023" lng="-80.031376434798332" zone="Zone 1" incidentdate="2016-08-06" incidenttime="09:00:00" incidentnumber="16146158" address="3100 block Shadeland Ave" type="OFFENSE" age="" gender="" description="*********************************************** &lt;br/&gt;3304, Criminal Mischief.&lt;br/&gt;"/><marker lat="40.4158724" lng="-79.9849140" zone="Zone 3" incidentdate="2016-08-06" incidenttime="20:30:00" incidentnumber="16146446" address="200 block Moye Pl" type="OFFENSE" age="" gender="" description="*********************************************** &lt;br/&gt;9094, Recovered Stolen Vehicle (OUTSIDE CITY)&lt;br/&gt;"/><marker lat="40.417725573262203" lng="-79.937795806219157" zone="Zone 4" incidentdate="2016-08-06" incidenttime="03:38:00" incidentnumber="16146051" address="500 block Emahlea St" type="OFFENSE" age="" gender="" description="*********************************************** &lt;br/&gt;3921(a), Theft by Unlawful Taking or Disposition - Movable item&lt;br/&gt;"/><marker lat="40.410552176761328" lng="-79.99322262414627" zone="Zone 3" incidentdate="2016-08-06" incidenttime="00:43:00" incidentnumber="16145920" address="300 block Suncrest St" type="OFFENSE" age="" gender="" description="*********************************************** &lt;br/&gt;3502, Burglary.&lt;br/&gt;2709(a)(1), Harassment by Physical Contact, or Attempts or Threats&lt;br/&gt;2701(a)(1), Simple Assault - Intent., Know., Reckless.Cause Bod. Injury&lt;br/&gt;2706, Terroristic Threats.&lt;br/&gt;"/><marker lat="40.416585712012768" lng="-79.990620263533174" zone="Zone 3" incidentdate="2016-08-06" incidenttime="12:15:00" incidentnumber="16146216" address="Knox Ave &amp; Charles St" type="OFFENSE" age="" gender="" description="*********************************************** &lt;br/&gt;9489, Found Property&lt;br/&gt;"/><marker lat="40.466616756829907" lng="-79.993676874083434" zone="Zone 1" incidentdate="2016-08-06" incidenttime="03:00:00" incidentnumber="16146033" address="2100 block Rhine St" type="OFFENSE" age="" gender="" description="*********************************************** &lt;br/&gt;2701, Simple Assault.&lt;br/&gt;2902, Unlawful Restraint.&lt;br/&gt;2901, Kidnapping.&lt;br/&gt;"/><marker lat="40.395889448511802" lng="-80.020126553761571" zone="Zone 6" incidentdate="2016-08-06" incidenttime="14:37:00" incidentnumber="16146284" address="700 block Rossmore Ave" type="OFFENSE" age="" gender="" description="*********************************************** &lt;br/&gt;2705, Recklessly Endangering Another Person.&lt;br/&gt;5503(a)(4), DISORDERLY CONDUCT - HAZARDOUS/PHYS. OFF&lt;br/&gt;2701(a)(3), Simple Assault - Attempts by Physical Menace&lt;br/&gt;"/><marker lat="40.489029390686724" lng="-80.034534888868379" zone="Zone 1" incidentdate="2016-08-06" incidenttime="15:14:00" incidentnumber="16146302" address="900 block Benton Ave" type="OFFENSE" age="" gender="" description="*********************************************** &lt;br/&gt;3304, Criminal Mischief.&lt;br/&gt;3503, Criminal Trespass&lt;br/&gt;"/><marker lat="40.450629963158747" lng="-80.018534435550123" zone="Zone 1" incidentdate="2016-08-06" incidenttime="10:00:00" incidentnumber="16146165" address="800 block Allegheny Ave" type="OFFENSE" age="" gender="" description="*********************************************** &lt;br/&gt;3922, Theft by Deception.&lt;br/&gt;"/><marker lat="40.453568034702528" lng="-79.983862198174137" zone="Zone 2" incidentdate="2016-08-06" incidenttime="08:00:00" incidentnumber="16146456" address="2200 block Railroad St" type="OFFENSE" age="" gender="" description="*********************************************** &lt;br/&gt;3934, Theft from Vehicle&lt;br/&gt;"/><marker lat="40.410378043737097" lng="-80.003386559106261" zone="Zone 3" incidentdate="2016-08-06" incidenttime="15:30:00" incidentnumber="16146308" address="200 block Bon Air Ave" type="OFFENSE" age="" gender="" description="*********************************************** &lt;br/&gt;13(a)(16), Possession of Controlled Substance&lt;br/&gt;3802(d)(2), DUI - Drug - Impaired Ability&lt;br/&gt;3802(d)(1)(ii), DUI - Controlled Substance - Schedule II or III&lt;br/&gt;"/><marker lat="40.40835502299683" lng="-79.994179856703028" zone="Zone 3" incidentdate="2016-08-06" incidenttime="07:00:00" incidentnumber="16146099" address="300 block Reifert St" type="OFFENSE" age="" gender="" description="*********************************************** &lt;br/&gt;3745, Accidents Involving Damage to Unattended Veh.or Prop.&lt;br/&gt;"/><marker lat="40.42749877927298" lng="-79.985129780195464" zone="Zone 3" incidentdate="2016-08-06" incidenttime="05:53:00" incidentnumber="16146079" address="1300 block Sarah St" type="OFFENSE" age="" gender="" description="*********************************************** &lt;br/&gt;5505, Public Drunkenness&lt;br/&gt;"/><marker lat="40.428815176198341" lng="-79.983424931589681" zone="Zone 3" incidentdate="2016-08-06" incidenttime="01:45:00" incidentnumber="16145992" address="S 15th St &amp; E Carson St" type="OFFENSE" age="" gender="" description="*********************************************** &lt;br/&gt;5104, Resisting Arrest or Other Law Enforcement.&lt;br/&gt;5503(a)(4), DISORDERLY CONDUCT - HAZARDOUS/PHYS. OFF&lt;br/&gt;5505, Public Drunkenness&lt;br/&gt;5121, Escape.&lt;br/&gt;"/><marker lat="40.485057697476357" lng="-80.015625996967131" zone="Zone 1" incidentdate="2016-08-06" incidenttime="13:34:00" incidentnumber="16146256" address="Perrysville Ave &amp; Cherryfield St" type="OFFENSE" age="" gender="" description="*********************************************** &lt;br/&gt;9999, 9999 - (Misc. Incident):&lt;br/&gt;"/><marker lat="40.450892721440539" lng="-80.000843891836467" zone="Zone 1" incidentdate="2016-08-06" incidenttime="13:01:00" incidentnumber="16146240" address="300 block Cedar Ave" type="OFFENSE" age="" gender="" description="*********************************************** &lt;br/&gt;3745, Accidents Involving Damage to Unattended Veh.or Prop.&lt;br/&gt;"/><marker lat="40.444983770185388" lng="-79.985358303330813" zone="Zone 2" incidentdate="2016-08-06" incidenttime="22:15:00" incidentnumber="16146547" address="Roberts St" type="OFFENSE" age="" gender="" description="*********************************************** &lt;br/&gt;2701, Simple Assault.&lt;br/&gt;"/><marker lat="40.447294167474908" lng="-79.977861397044506" zone="Zone 2" incidentdate="2016-08-06" incidenttime="00:38:00" incidentnumber="16145925" address="2200 block Webster Ave" type="OFFENSE" age="" gender="" description="*********************************************** &lt;br/&gt;9490, Missing Persons (18 and Over)&lt;br/&gt;"/><marker lat="40.445926173410676" lng="-80.052351688864789" zone="Zone 6" incidentdate="2016-08-06" incidenttime="23:17:00" incidentnumber="16146567" address="1000 block Woodlow St" type="OFFENSE" age="" gender="" description="*********************************************** &lt;br/&gt;3921(a), Theft by Unlawful Taking or Disposition - Movable item&lt;br/&gt;"/><marker lat="40.407973324765294" lng="-79.991464068279882" zone="Zone 3" incidentdate="2016-08-06" incidenttime="01:06:00" incidentnumber="16145966" address="Brownsville Rd &amp; Reifert St" type="OFFENSE" age="" gender="" description="*********************************************** &lt;br/&gt;3701, Robbery.&lt;br/&gt;"/><marker lat="40.428587820570804" lng="-79.977635946496946" zone="Zone 3" incidentdate="2016-08-06" incidenttime="03:00:00" incidentnumber="16146020" address="S 20th St &amp; E Carson St" type="OFFENSE" age="" gender="" description="*********************************************** &lt;br/&gt;5503, Disorderly Conduct.&lt;br/&gt;5505, Public Drunkenness&lt;br/&gt;"/><marker lat="40.398956844246733" lng="-79.834462292848286" zone="Zone 4" incidentdate="2016-08-06" incidenttime="03:15:00" incidentnumber="16146037" address="700 block S Braddock Ave" type="OFFENSE" age="" gender="" description="*********************************************** &lt;br/&gt;2701, Simple Assault.&lt;br/&gt;5505, Public Drunkenness&lt;br/&gt;3304(a)(5), CRIMINAL MISCHIEF - Intentionally Damages Real Or Personal Property Of Another&lt;br/&gt;5503(a)(1), DISORDERLY CONDUCT - ENGAGE IN FIGHTING&lt;br/&gt;"/><marker lat="40.441374477166953" lng="-80.002034043128006" zone="Zone 2" incidentdate="2016-08-06" incidenttime="03:30:00" incidentnumber="16146054" address="500 block Market St" type="OFFENSE" age="" gender="" description="*********************************************** &lt;br/&gt;5503, Disorderly Conduct.&lt;br/&gt;"/><marker lat="40.469729728274849" lng="-79.979470414088539" zone="Zone 1" incidentdate="2016-08-06" incidenttime="02:56:00" incidentnumber="16146024" address="2100 block Straubs Ln" type="OFFENSE" age="" gender="" description="*********************************************** &lt;br/&gt;3304, Criminal Mischief.&lt;br/&gt;"/><marker lat="40.452233331522159" lng="-79.950861895684511" zone="Zone 4" incidentdate="2016-08-06" incidenttime="17:52:00" incidentnumber="16146374" address="Melwood Ave &amp; Centre Ave" type="OFFENSE" age="" gender="" description="*********************************************** &lt;br/&gt;9501, Bench Warrant&lt;br/&gt;"/><marker lat="40.451985778424614" lng="-79.958747688457379" zone="Zone 2" incidentdate="2016-08-06" incidenttime="02:15:00" incidentnumber="16146031" address="3300 block Camp St" type="OFFENSE" age="" gender="" description="*********************************************** &lt;br/&gt;3304(a)(5), CRIMINAL MISCHIEF - Intentionally Damages Real Or Personal Property Of Another&lt;br/&gt;"/><marker lat="40.456759418825953" lng="-80.050419399677125" zone="Zone 6" incidentdate="2016-08-06" incidenttime="07:20:00" incidentnumber="16146092" address="2900 block Stafford St" type="OFFENSE" age="" gender="" description="*********************************************** &lt;br/&gt;9489, Found Property&lt;br/&gt;"/><marker lat="40.452834057144791" lng="-80.087434525125232" zone="Zone 5" incidentdate="2016-08-06" incidenttime="02:17:00" incidentnumber="16146002" address="700 block Beechnut Dr" type="OFFENSE" age="" gender="" description="*********************************************** &lt;br/&gt;9488, False  Burglar Alarm&lt;br/&gt;"/><marker lat="40.438234205527927" lng="-79.977664280434027" zone="Zone 2" incidentdate="2016-08-06" incidenttime="06:46:00" incidentnumber="16146087" address="5th Ave &amp; Jumonville St" type="OFFENSE" age="" gender="" description="*********************************************** &lt;br/&gt;2702, Aggravated Assault.&lt;br/&gt;2706, Terroristic Threats.&lt;br/&gt;"/><marker lat="40.456686952050369" lng="-80.000071164913123" zone="Zone 1" incidentdate="2016-08-06" incidenttime="20:23:00" incidentnumber="16146490" address="E North Ave &amp; Middle St" type="OFFENSE" age="" gender="" description="*********************************************** &lt;br/&gt;9501, Bench Warrant&lt;br/&gt;"/><marker lat="40.468658499714834" lng="-79.962329683782556" zone="Zone 2" incidentdate="2016-08-06" incidenttime="04:50:00" incidentnumber="16146242" address="200 block 40th St" type="OFFENSE" age="" gender="" description="*********************************************** &lt;br/&gt;3304, Criminal Mischief.&lt;br/&gt;"/><marker lat="40.436170666693911" lng="-80.021354773295542" zone="Zone 3" incidentdate="2016-08-06" incidenttime="06:30:00" incidentnumber="16146313" address="200 block Plymouth St" type="OFFENSE" age="" gender="" description="*********************************************** &lt;br/&gt;3934, Theft from Vehicle&lt;br/&gt;"/><marker lat="40.437850264562179" lng="-80.004567110517371" zone="Zone 2" incidentdate="2016-08-06" incidenttime="09:40:00" incidentnumber="16146140" address="Market St" type="OFFENSE" age="" gender="" description="*********************************************** &lt;br/&gt;9489, Found Property&lt;br/&gt;"/><marker lat="40.455957570495052" lng="-79.890020876241238" zone="Zone 5" incidentdate="2016-08-06" incidenttime="03:39:00" incidentnumber="16146050" address="Frankstown Ave &amp; N Braddock Ave" type="OFFENSE" age="" gender="" description="*********************************************** &lt;br/&gt;9501, Bench Warrant&lt;br/&gt;"/><marker lat="40.460302578526942" lng="-80.006980071080037" zone="Zone 1" incidentdate="2016-08-06" incidenttime="17:58:00" incidentnumber="16146403" address="1700 block Belleau Dr" type="OFFENSE" age="" gender="" description="*********************************************** &lt;br/&gt;2701, Simple Assault.&lt;br/&gt;"/><marker lat="40.458344653488631" lng="-80.007049172980956" zone="Zone 1" incidentdate="2016-08-06" incidenttime="01:45:00" incidentnumber="16145989" address="Hazlip Way &amp; Mace Way" type="OFFENSE" age="" gender="" description="*********************************************** &lt;br/&gt;9501, Bench Warrant&lt;br/&gt;5104, Resisting Arrest or Other Law Enforcement.&lt;br/&gt;4914, False Identification to Law Enforcement Authorities&lt;br/&gt;2706, Terroristic Threats.&lt;br/&gt;5503(a)(2), DISORDERLY CONDUCT - UNREASONABLE NOISE&lt;br/&gt;"/><marker lat="40.452256855851552" lng="-79.950792650653668" zone="Zone 4" incidentdate="2016-08-06" incidenttime="09:45:00" incidentnumber="16146171" address="300 block Melwood Ave" type="OFFENSE" age="" gender="" description="*********************************************** &lt;br/&gt;3745, Accidents Involving Damage to Unattended Veh.or Prop.&lt;br/&gt;"/><marker lat="40.445899823505272" lng="-80.052204137456769" zone="Zone 5" incidentdate="2016-08-06" incidenttime="00:55:00" incidentnumber="16145962" address="900 block Woodlow St" type="OFFENSE" age="" gender="" description="*********************************************** &lt;br/&gt;2705, Recklessly Endangering Another Person.&lt;br/&gt;2702, Aggravated Assault.&lt;br/&gt;4304(a)(1), Endangering Welfare of Children - Course of Conduct Enhanced&lt;br/&gt;3925, Receiving Stolen Property.&lt;br/&gt;"/><marker lat="40.475970803438344" lng="-80.003076972725822" zone="Zone 1" incidentdate="2016-08-06" incidenttime="00:12:00" incidentnumber="16145923" address="100 block Hazlett St" type="OFFENSE" age="" gender="" description="*********************************************** &lt;br/&gt;3701, Robbery.&lt;br/&gt;"/><marker lat="40.412835652334763" lng="-79.995116983944627" zone="Zone 3" incidentdate="2016-08-06" incidenttime="18:10:00" incidentnumber="16146388" address="400 block Arabella St" type="OFFENSE" age="" gender="" description="*********************************************** &lt;br/&gt;9999, 9999 - (Misc. Incident):&lt;br/&gt;"/><marker lat="40.424744519877997" lng="-79.932837833677311" zone="Zone 4" incidentdate="2016-08-06" incidenttime="20:20:00" incidentnumber="16146491" address="900 block Lilac St" type="OFFENSE" age="" gender="" description="*********************************************** &lt;br/&gt;9489, Found Property&lt;br/&gt;"/><marker lat="40.448385372363624" lng="-79.919372575771774" zone="Zone 4" incidentdate="2016-08-06" incidenttime="08:30:00" incidentnumber="16146113" address="1200 block Beechwood Blvd" type="OFFENSE" age="" gender="" description="*********************************************** &lt;br/&gt;3934, Theft from Vehicle&lt;br/&gt;"/><marker lat="40.454181952199754" lng="-79.884402994636773" zone="Zone 5" incidentdate="2016-08-06" incidenttime="03:03:00" incidentnumber="16146029" address="Bennett St &amp; Wheeler St" type="OFFENSE" age="" gender="" description="*********************************************** &lt;br/&gt;5503, Disorderly Conduct.&lt;br/&gt;5505, Public Drunkenness&lt;br/&gt;5123, Contraband.&lt;br/&gt;"/><marker lat="40.440916658244909" lng="-80.020392211329721" zone="Zone 3" incidentdate="2016-08-06" incidenttime="04:38:00" incidentnumber="16146068" address="1000 block E Carson St" type="OFFENSE" age="" gender="" description="*********************************************** &lt;br/&gt;5503(a)(4), DISORDERLY CONDUCT - HAZARDOUS/PHYS. OFF&lt;br/&gt;5505, Public Drunkenness&lt;br/&gt;3503.B1I, DEF. TRESPASS ACTUAL COMMUNICATION&lt;br/&gt;2706, Terroristic Threats.&lt;br/&gt;"/><marker lat="40.399826355853008" lng="-80.024283639128058" zone="Zone 6" incidentdate="2016-08-06" incidenttime="03:10:00" incidentnumber="16146027" address="2400 block West Liberty Ave" type="OFFENSE" age="" gender="" description="*********************************************** &lt;br/&gt;9488, False  Burglar Alarm&lt;br/&gt;"/><marker lat="40.44854553476528" lng="-79.97006313469177" zone="Zone 2" incidentdate="2016-08-06" incidenttime="00:33:00" incidentnumber="16145940" address="2600 block Wylie Ave" type="OFFENSE" age="" gender="" description="*********************************************** &lt;br/&gt;3304, Criminal Mischief.&lt;br/&gt;"/><marker lat="40.403794999919768" lng="-79.990169155250072" zone="Zone 3" incidentdate="2016-08-06" incidenttime="16:25:00" incidentnumber="16146335" address="1200 block Brownsville Rd" type="OFFENSE" age="" gender="" description="*********************************************** &lt;br/&gt;2709(a)(1), Harassment by Physical Contact, or Attempts or Threats&lt;br/&gt;"/><marker lat="40.445723184301478" lng="-79.981786949615085" zone="Zone 2" incidentdate="2016-08-06" incidenttime="13:59:00" incidentnumber="16146268" address="200 block Devilliers St" type="OFFENSE" age="" gender="" description="*********************************************** &lt;br/&gt;9489, Found Property&lt;br/&gt;"/><marker lat="40.468765965019472" lng="-79.986037442288932" zone="Zone 1" incidentdate="2016-08-06" incidenttime="03:21:00" incidentnumber="16146035" address="1900 block Gebhart St" type="OFFENSE" age="" gender="" description="*********************************************** &lt;br/&gt;3921, Theft by Unlawful Taking or Disposition.&lt;br/&gt;3701, Robbery.&lt;br/&gt;3733, Fleeing or Attempting to Elude Police Officer&lt;br/&gt;2701(a)(3), Simple Assault - Attempts by Physical Menace&lt;br/&gt;"/><marker lat="40.445178208983343" lng="-79.985401111375893" zone="Zone 2" incidentdate="2016-08-06" incidenttime="17:20:00" incidentnumber="16146376" address="1800 block Bedford Ave" type="OFFENSE" age="" gender="" description="*********************************************** &lt;br/&gt;13(a)(32), Paraphernalia - Use or Possession&lt;br/&gt;2701, Simple Assault.&lt;br/&gt;"/><marker lat="40.434209319626923" lng="-80.005743364413775" zone="Zone 3" incidentdate="2016-08-06" incidenttime="00:56:00" incidentnumber="16145958" address="200 block Station Square Dr W" type="OFFENSE" age="" gender="" description="*********************************************** &lt;br/&gt;5503, Disorderly Conduct.&lt;br/&gt;5505, Public Drunkenness&lt;br/&gt;3503.B1I, DEF. TRESPASS ACTUAL COMMUNICATION&lt;br/&gt;"/><marker lat="40.44854553476528" lng="-79.97006313469177" zone="Zone 2" incidentdate="2016-08-06" incidenttime="02:00:00" incidentnumber="16146177" address="2600 block Wylie Ave" type="OFFENSE" age="" gender="" description="*********************************************** &lt;br/&gt;3304, Criminal Mischief.&lt;br/&gt;"/><marker lat="40.442888113190847" lng="-79.997936520552642" zone="Zone 2" incidentdate="2016-08-06" incidenttime="00:25:00" incidentnumber="16145931" address="900 block Liberty Ave" type="OFFENSE" age="" gender="" description="*********************************************** &lt;br/&gt;2701, Simple Assault.&lt;br/&gt;2706, Terroristic Threats.&lt;br/&gt;"/><marker lat="40.441732921543291" lng="-80.006405498352649" zone="Zone 2" incidentdate="2016-08-06" incidenttime="18:44:00" incidentnumber="16146428" address="600 block Commonwealth Pl" type="OFFENSE" age="" gender="" description="*********************************************** &lt;br/&gt;3926(a)(1), Theft of Services; Cable, Gas, Taxi, Bill, Tab, etc.&lt;br/&gt;"/><marker lat="40.458904437349908" lng="-80.02617650237157" zone="Zone 1" incidentdate="2016-08-06" incidenttime="07:15:00" incidentnumber="16146098" address="1900 block Fulton St" type="OFFENSE" age="" gender="" description="*********************************************** &lt;br/&gt;3304(a)(4), CRIMINAL MISCHIEF- Intentionally Damage Property (By Graffiti, Aerosol Spray Paint, Broad Tip Marker, or Similar)&lt;br/&gt;"/><marker lat="40.459084625365982" lng="-80.02205532489748" zone="Zone 1" incidentdate="2016-08-06" incidenttime="23:35:00" incidentnumber="16146597" address="1000 block California Ave" type="OFFENSE" age="" gender="" description="*********************************************** &lt;br/&gt;3304(a)(5), CRIMINAL MISCHIEF - Intentionally Damages Real Or Personal Property Of Another&lt;br/&gt;"/><marker lat="40.444136782158047" lng="-80.000993475333104" zone="Zone 2" incidentdate="2016-08-06" incidenttime="23:30:00" incidentnumber="16146581" address="100 block 7th St" type="OFFENSE" age="" gender="" description="*********************************************** &lt;br/&gt;3304, Criminal Mischief.&lt;br/&gt;"/><marker lat="40.394957985423687" lng="-79.986864420495252" zone="Zone 3" incidentdate="2016-08-06" incidenttime="17:30:00" incidentnumber="16146409" address="2000 block Brownsville Rd" type="OFFENSE" age="" gender="" description="*********************************************** &lt;br/&gt;3304, Criminal Mischief.&lt;br/&gt;"/><marker lat="40.4600940" lng="-79.9238524" zone="Zone 4" incidentdate="2016-08-06" incidenttime="15:20:00" incidentnumber="16146305" address="6300 block Shakespeare St" type="OFFENSE" age="" gender="" description="*********************************************** &lt;br/&gt;3745, Accidents Involving Damage to Unattended Veh.or Prop.&lt;br/&gt;"/><marker lat="40.453881093138619" lng="-79.873029877694393" zone="Zone 5" incidentdate="2016-08-06" incidenttime="03:24:00" incidentnumber="16146066" address="2200 block East Hills Dr" type="OFFENSE" age="" gender="" description="*********************************************** &lt;br/&gt;13(a)(31), Marijuana: Possession Small Amount&lt;br/&gt;"/><marker lat="40.459235241163007" lng="-79.965915984484539" zone="Zone 2" incidentdate="2016-08-06" incidenttime="17:46:00" incidentnumber="16146395" address="3300 block Ruthven St" type="OFFENSE" age="" gender="" description="*********************************************** &lt;br/&gt;3502, Burglary.&lt;br/&gt;"/><marker lat="40.440377434247601" lng="-79.982921527714382" zone="Zone 2" incidentdate="2016-08-06" incidenttime="09:30:00" incidentnumber="16146127" address="1700 block Reed St" type="OFFENSE" age="" gender="" description="*********************************************** &lt;br/&gt;3304, Criminal Mischief.&lt;br/&gt;"/><marker lat="40.465992433287418" lng="-79.945009213672833" zone="Zone 5" incidentdate="2016-08-06" incidenttime="20:57:00" incidentnumber="16146505" address="4900 block Dearborn St" type="OFFENSE" age="" gender="" description="*********************************************** &lt;br/&gt;2701, Simple Assault.&lt;br/&gt;"/><marker lat="40.441029637489684" lng="-79.986009900690092" zone="Zone 2" incidentdate="2016-08-06" incidenttime="04:16:00" incidentnumber="16146062" address="Centre Ave &amp; Crawford St" type="OFFENSE" age="" gender="" description="*********************************************** &lt;br/&gt;2702, Aggravated Assault.&lt;br/&gt;"/><marker lat="40.443650156019139" lng="-79.995237231499431" zone="Zone 2" incidentdate="2016-08-06" incidenttime="09:08:00" incidentnumber="16146123" address="Liberty Ave &amp; 10th St" type="OFFENSE" age="" gender="" description="*********************************************** &lt;br/&gt;9999, 9999 - (Misc. Incident):&lt;br/&gt;"/><marker lat="40.428585203983602" lng="-79.981869007680203" zone="Zone 3" incidentdate="2016-08-06" incidenttime="01:42:00" incidentnumber="16145985" address="1700 block E Carson St" type="OFFENSE" age="" gender="" description="*********************************************** &lt;br/&gt;5104, Resisting Arrest or Other Law Enforcement.&lt;br/&gt;5503(a)(4), DISORDERLY CONDUCT - HAZARDOUS/PHYS. OFF&lt;br/&gt;5505, Public Drunkenness&lt;br/&gt;5507(a), Obstructing highway, railroad or public passage&lt;br/&gt;"/><marker lat="40.418082391679732" lng="-79.988232290693446" zone="Zone 3" incidentdate="2016-08-06" incidenttime="12:47:00" incidentnumber="16146234" address="100 block Orchard Pl" type="OFFENSE" age="" gender="" description="*********************************************** &lt;br/&gt;2701, Simple Assault.&lt;br/&gt;"/><marker lat="40.455504998738647" lng="-80.007850467221047" zone="Zone 5" incidentdate="2016-08-06" incidenttime="21:05:00" incidentnumber="16146530" address="100 block N Euclid Ave" type="OFFENSE" age="" gender="" description="*********************************************** &lt;br/&gt;3921(a), Theft by Unlawful Taking or Disposition - Movable item&lt;br/&gt;"/><marker lat="40.5128749" lng="-79.8433372" zone="Zone 1" incidentdate="2016-08-06" incidenttime="14:40:00" incidentnumber="16146443" address="North Shore River Walk (Allegheny River)" type="OFFENSE" age="" gender="" description="*********************************************** &lt;br/&gt;3921, Theft by Unlawful Taking or Disposition.&lt;br/&gt;"/><marker lat="40.4423388" lng="-80.0073736" zone="Zone 2" incidentdate="2016-08-06" incidenttime="22:17:00" incidentnumber="16146583" address="100 block Commonwealth Pl" type="OFFENSE" age="" gender="" description="*********************************************** &lt;br/&gt;9489, Found Property&lt;br/&gt;"/><marker lat="40.451336106686199" lng="-79.960869228661196" zone="Zone 2" incidentdate="2016-08-06" incidenttime="15:57:00" incidentnumber="16146321" address="800 block Cherokee St" type="OFFENSE" age="" gender="" description="*********************************************** &lt;br/&gt;3921(a), Theft by Unlawful Taking or Disposition - Movable item&lt;br/&gt;"/><marker lat="40.428096152469237" lng="-79.972924883274374" zone="Zone 3" incidentdate="2016-08-06" incidenttime="10:30:00" incidentnumber="16146277" address="2300 block E Carson St" type="OFFENSE" age="" gender="" description="*********************************************** &lt;br/&gt;9999, 9999 - (Misc. Incident):&lt;br/&gt;"/><marker lat="40.477344972420795" lng="-80.033323368138554" zone="Zone 1" incidentdate="2016-08-06" incidenttime="19:11:00" incidentnumber="16146447" address="3400 block Shadeland Ave" type="OFFENSE" age="" gender="" description="*********************************************** &lt;br/&gt;9999, 9999 - (Misc. Incident):&lt;br/&gt;"/><marker lat="40.444983770185388" lng="-79.985358303330813" zone="Zone 2" incidentdate="2016-08-06" incidenttime="23:19:00" incidentnumber="16146574" address="Roberts St" type="OFFENSE" age="" gender="" description="*********************************************** &lt;br/&gt;3304, Criminal Mischief.&lt;br/&gt;"/><marker lat="40.420302479651625" lng="-79.995769708065154" zone="Zone 3" incidentdate="2016-08-06" incidenttime="00:24:00" incidentnumber="16145933" address="700 block Proctor Way" type="OFFENSE" age="" gender="" description="*********************************************** &lt;br/&gt;2702, Aggravated Assault.&lt;br/&gt;"/><marker lat="40.48759959774938" lng="-80.040772917283931" zone="Zone 1" incidentdate="2016-08-06" incidenttime="20:00:00" incidentnumber="16146485" address="1800 block Perrott St" type="OFFENSE" age="" gender="" description="*********************************************** &lt;br/&gt;3304, Criminal Mischief.&lt;br/&gt;"/><marker lat="40.482879021356389" lng="-80.04453300763744" zone="Zone 1" incidentdate="2016-08-06" incidenttime="07:49:00" incidentnumber="16146103" address="2000 block Termon Ave" type="OFFENSE" age="" gender="" description="*********************************************** &lt;br/&gt;9490, Missing Persons (18 and Over)&lt;br/&gt;"/><marker lat="40.428684832699354" lng="-79.983306706238423" zone="Zone 3" incidentdate="2016-08-06" incidenttime="00:45:00" incidentnumber="16145936" address="1500 block E Carson St" type="OFFENSE" age="" gender="" description="*********************************************** &lt;br/&gt;5505, Public Drunkenness&lt;br/&gt;3503.B1I, DEF. TRESPASS ACTUAL COMMUNICATION&lt;br/&gt;"/><marker lat="40.419107541785827" lng="-79.997313679378507" zone="Zone 3" incidentdate="2016-08-06" incidenttime="16:15:00" incidentnumber="16146330" address="Beltzhoover Ave &amp; Freeland St" type="OFFENSE" age="" gender="" description="*********************************************** &lt;br/&gt;3742.1, Accident Involv. Death/Inj. While not Licensed&lt;br/&gt;"/><marker lat="40.4323088" lng="-79.9770565" zone="Zone 3" incidentdate="2016-08-06" incidenttime="22:30:00" incidentnumber="16146576" address="Southside Dog Park" type="OFFENSE" age="" gender="" description="*********************************************** &lt;br/&gt;9999, 9999 - (Misc. Incident):&lt;br/&gt;"/><marker lat="40.423017532543199" lng="-79.97373053179183" zone="Zone 3" incidentdate="2016-08-06" incidenttime="12:50:00" incidentnumber="16146230" address="2300 block Mission St" type="OFFENSE" age="" gender="" description="*********************************************** &lt;br/&gt;5104, Resisting Arrest or Other Law Enforcement.&lt;br/&gt;3503.B1I, DEF. TRESPASS ACTUAL COMMUNICATION&lt;br/&gt;"/><marker lat="40.474216187473878" lng="-79.90827518828867" zone="Zone 5" incidentdate="2016-08-06" incidenttime="10:35:00" incidentnumber="16146162" address="Washington Blvd &amp; Highland Dr" type="OFFENSE" age="" gender="" description="*********************************************** &lt;br/&gt;3743, Accidents Involving Damage to Attended Veh. or Property&lt;br/&gt;"/><marker lat="40.453881093138619" lng="-79.873029877694393" zone="Zone 5" incidentdate="2016-08-06" incidenttime="03:24:00" incidentnumber="16146066" address="2200 block East Hills Dr" type="ARREST" age="32" gender="M" description="*********************************************** &lt;br/&gt;13(a)(31), Marijuana: Possession Small Amount&lt;br/&gt;"/><marker lat="40.460908099038463" lng="-79.919321703275926" zone="Zone 5" incidentdate="2016-08-06" incidenttime="02:12:00" incidentnumber="16145908" address="Dudley Ct" type="ARREST" age="28" gender="F" description="*********************************************** &lt;br/&gt;5101, Obstructing Admin. of Law&lt;br/&gt;4304(a)(1) Enhanced, Welfare of Children - Course of Conduct&lt;br/&gt;"/><marker lat="40.423017532543199" lng="-79.97373053179183" zone="Zone 3" incidentdate="2016-08-06" incidenttime="12:50:00" incidentnumber="16146230" address="2300 block Mission St" type="ARREST" age="" gender="F" description="*********************************************** &lt;br/&gt;5104, Resisting Arrest or Other Law Enforcement.&lt;br/&gt;3503.B1I, DEF. TRESPASS ACTUAL COMMUNICATION&lt;br/&gt;"/><marker lat="40.424824263872196" lng="-80.012675444932853" zone="Zone 3" incidentdate="2016-08-06" incidenttime="11:45:00" incidentnumber="16143661" address="500 block Norton St" type="ARREST" age="31" gender="M" description="*********************************************** &lt;br/&gt;3921, Theft by Unlawful Taking or Disposition.&lt;br/&gt;3925, Receiving Stolen Property.&lt;br/&gt;"/><marker lat="40.452233331522159" lng="-79.950861895684511" zone="Zone 4" incidentdate="2016-08-06" incidenttime="17:52:00" incidentnumber="16146374" address="Melwood Ave &amp; Centre Ave" type="ARREST" age="51" gender="M" description="*********************************************** &lt;br/&gt;9501, Bench Warrant&lt;br/&gt;"/><marker lat="40.450813726288715" lng="-79.972243374536816" zone="Zone 2" incidentdate="2016-08-06" incidenttime="00:38:00" incidentnumber="16145929" address="Bedford Ave &amp; Chauncey Dr" type="ARREST" age="27" gender="F" description="*********************************************** &lt;br/&gt;2702, Aggravated Assault.&lt;br/&gt;2701, Simple Assault.&lt;br/&gt;"/><marker lat="40.428585203983602" lng="-79.981869007680203" zone="Zone 3" incidentdate="2016-08-06" incidenttime="01:42:00" incidentnumber="16145985" address="1700 block E Carson St" type="ARREST" age="37" gender="M" description="*********************************************** &lt;br/&gt;5104, Resisting Arrest or Other Law Enforcement.&lt;br/&gt;5503(a)(4), DISORDERLY CONDUCT - HAZARDOUS/PHYS. OFF&lt;br/&gt;5505, Public Drunkenness&lt;br/&gt;5507(a), Obstructing highway, railroad or public passage&lt;br/&gt;"/><marker lat="40.428815176198341" lng="-79.983424931589681" zone="Zone 3" incidentdate="2016-08-06" incidenttime="01:45:00" incidentnumber="16145992" address="S 15th St &amp; E Carson St" type="ARREST" age="23" gender="M" description="*********************************************** &lt;br/&gt;5104, Resisting Arrest or Other Law Enforcement.&lt;br/&gt;5503(a)(4), DISORDERLY CONDUCT - HAZARDOUS/PHYS. OFF&lt;br/&gt;5505, Public Drunkenness&lt;br/&gt;5121, Escape.&lt;br/&gt;"/><marker lat="40.420302479651625" lng="-79.995769708065154" zone="Zone 3" incidentdate="2016-08-06" incidenttime="01:30:00" incidentnumber="16145933" address="700 block Proctor Way" type="ARREST" age="40" gender="M" description="*********************************************** &lt;br/&gt;2702, Aggravated Assault.&lt;br/&gt;"/><marker lat="40.456686952050369" lng="-80.000071164913123" zone="Zone 1" incidentdate="2016-08-06" incidenttime="20:27:00" incidentnumber="16146490" address="E North Ave &amp; Middle St" type="ARREST" age="54" gender="M" description="*********************************************** &lt;br/&gt;9501, Bench Warrant&lt;br/&gt;"/><marker lat="40.455957570495052" lng="-79.890020876241238" zone="Zone 5" incidentdate="2016-08-06" incidenttime="03:39:00" incidentnumber="16146050" address="Frankstown Ave &amp; N Braddock Ave" type="ARREST" age="37" gender="F" description="*********************************************** &lt;br/&gt;9501, Bench Warrant&lt;br/&gt;"/><marker lat="40.454181952199754" lng="-79.884402994636773" zone="Zone 5" incidentdate="2016-08-06" incidenttime="03:48:00" incidentnumber="16146029" address="Bennett St &amp; Wheeler St" type="ARREST" age="" gender="F" description="*********************************************** &lt;br/&gt;5503, Disorderly Conduct.&lt;br/&gt;5505, Public Drunkenness&lt;br/&gt;5123, Contraband.&lt;br/&gt;"/><marker lat="40.465992433287418" lng="-79.945009213672833" zone="Zone 5" incidentdate="2016-08-06" incidenttime="20:57:00" incidentnumber="16146505" address="4900 block Dearborn St" type="ARREST" age="49" gender="M" description="*********************************************** &lt;br/&gt;2701, Simple Assault.&lt;br/&gt;"/><marker lat="40.440916658244909" lng="-80.020392211329721" zone="Zone 3" incidentdate="2016-08-06" incidenttime="04:45:00" incidentnumber="16146068" address="1000 block E Carson St" type="ARREST" age="24" gender="M" description="*********************************************** &lt;br/&gt;5503(a)(4), DISORDERLY CONDUCT - HAZARDOUS/PHYS. OFF&lt;br/&gt;5505, Public Drunkenness&lt;br/&gt;3503.B1I, DEF. TRESPASS ACTUAL COMMUNICATION&lt;br/&gt;2706, Terroristic Threats.&lt;br/&gt;"/><marker lat="40.428684832699354" lng="-79.983306706238423" zone="Zone 3" incidentdate="2016-08-06" incidenttime="01:40:00" incidentnumber="16145936" address="1500 block E Carson St" type="ARREST" age="22" gender="M" description="*********************************************** &lt;br/&gt;5505, Public Drunkenness&lt;br/&gt;3503.B1I, DEF. TRESPASS ACTUAL COMMUNICATION&lt;br/&gt;"/><marker lat="40.441371364794612" lng="-80.00389725761795" zone="Zone 2" incidentdate="2016-08-06" incidenttime="02:45:00" incidentnumber="16040492" address="Liberty Ave &amp; Stanwix St" type="ARREST" age="35" gender="F" description="*********************************************** &lt;br/&gt;13(a)(16), Possession of Controlled Substance&lt;br/&gt;13(a)(32), Paraphernalia - Use or Possession&lt;br/&gt;9015, Failure To Appear/Arrest on Attachment Order&lt;br/&gt;"/><marker lat="40.458344653488631" lng="-80.007049172980956" zone="Zone 1" incidentdate="2016-08-06" incidenttime="01:45:00" incidentnumber="16145989" address="Hazlip Way &amp; Mace Way" type="ARREST" age="35" gender="M" description="*********************************************** &lt;br/&gt;9501, Bench Warrant&lt;br/&gt;5104, Resisting Arrest or Other Law Enforcement.&lt;br/&gt;4914, False Identification to Law Enforcement Authorities&lt;br/&gt;2706, Terroristic Threats.&lt;br/&gt;5503(a)(2), DISORDERLY CONDUCT - UNREASONABLE NOISE&lt;br/&gt;"/><marker lat="40.445899823505272" lng="-80.052204137456769" zone="Zone 5" incidentdate="2016-08-06" incidenttime="02:00:00" incidentnumber="16145962" address="900 block Woodlow St" type="ARREST" age="25" gender="M" description="*********************************************** &lt;br/&gt;2705, Recklessly Endangering Another Person.&lt;br/&gt;2702, Aggravated Assault.&lt;br/&gt;4304(a)(1), Endangering Welfare of Children - Course of Conduct Enhanced&lt;br/&gt;3925, Receiving Stolen Property.&lt;br/&gt;"/><marker lat="40.410378043737097" lng="-80.003386559106261" zone="Zone 3" incidentdate="2016-08-06" incidenttime="15:58:00" incidentnumber="16146308" address="200 block Bon Air Ave" type="ARREST" age="32" gender="M" description="*********************************************** &lt;br/&gt;13(a)(16), Possession of Controlled Substance&lt;br/&gt;3802(d)(2), DUI - Drug - Impaired Ability&lt;br/&gt;3802(d)(1)(ii), DUI - Controlled Substance - Schedule II or III&lt;br/&gt;"/><marker lat="40.418082391679732" lng="-79.988232290693446" zone="Zone 3" incidentdate="2016-08-06" incidenttime="12:55:00" incidentnumber="16146234" address="100 block Orchard Pl" type="ARREST" age="23" gender="M" description="*********************************************** &lt;br/&gt;2701, Simple Assault.&lt;br/&gt;"/><marker lat="40.387167963125073" lng="-79.983326314937173" zone="Zone 3" incidentdate="2016-08-06" incidenttime="01:30:00" incidentnumber="16087802" address="Carrick Ave" type="ARREST" age="19" gender="M" description="*********************************************** &lt;br/&gt;2705, Recklessly Endangering Another Person.&lt;br/&gt;2702, Aggravated Assault.&lt;br/&gt;3701, Robbery.&lt;br/&gt;903, Criminal Conspiracy.&lt;br/&gt;2701(a)(1), Simple Assault - Intent., Know., Reckless.Cause Bod. Injury&lt;br/&gt;"/><marker lat="40.420302479651625" lng="-79.995769708065154" zone="Zone 3" incidentdate="2016-08-06" incidenttime="00:45:00" incidentnumber="16145933" address="700 block Proctor Way" type="ARREST" age="31" gender="M" description="*********************************************** &lt;br/&gt;2702, Aggravated Assault.&lt;br/&gt;"/><marker lat="40.410552176761328" lng="-79.99322262414627" zone="Zone 3" incidentdate="2016-08-06" incidenttime="00:43:00" incidentnumber="16145920" address="300 block Suncrest St" type="ARREST" age="35" gender="M" description="*********************************************** &lt;br/&gt;3502, Burglary.&lt;br/&gt;2709(a)(1), Harassment by Physical Contact, or Attempts or Threats&lt;br/&gt;2701(a)(1), Simple Assault - Intent., Know., Reckless.Cause Bod. Injury&lt;br/&gt;2706, Terroristic Threats.&lt;br/&gt;"/><marker lat="40.445178208983343" lng="-79.985401111375893" zone="Zone 2" incidentdate="2016-08-06" incidenttime="17:23:00" incidentnumber="16146376" address="1800 block Bedford Ave" type="ARREST" age="25" gender="M" description="*********************************************** &lt;br/&gt;13(a)(32), Paraphernalia - Use or Possession&lt;br/&gt;2701, Simple Assault.&lt;br/&gt;"/><marker lat="40.434209319626923" lng="-80.005743364413775" zone="Zone 3" incidentdate="2016-08-06" incidenttime="00:56:00" incidentnumber="16145958" address="200 block Station Square Dr W" type="ARREST" age="30" gender="M" description="*********************************************** &lt;br/&gt;5503, Disorderly Conduct.&lt;br/&gt;5505, Public Drunkenness&lt;br/&gt;3503.B1I, DEF. TRESPASS ACTUAL COMMUNICATION&lt;br/&gt;"/><marker lat="40.395889448511802" lng="-80.020126553761571" zone="Zone 6" incidentdate="2016-08-06" incidenttime="15:15:00" incidentnumber="16146284" address="700 block Rossmore Ave" type="ARREST" age="40" gender="M" description="*********************************************** &lt;br/&gt;2705, Recklessly Endangering Another Person.&lt;br/&gt;5503(a)(4), DISORDERLY CONDUCT - HAZARDOUS/PHYS. OFF&lt;br/&gt;2701(a)(3), Simple Assault - Attempts by Physical Menace&lt;br/&gt;"/><marker lat="40.419107541785827" lng="-79.997313679378507" zone="Zone 3" incidentdate="2016-08-06" incidenttime="16:30:00" incidentnumber="16146330" address="Beltzhoover Ave &amp; Freeland St" type="ARREST" age="26" gender="M" description="*********************************************** &lt;br/&gt;3742.1, Accident Involv. Death/Inj. While not Licensed&lt;br/&gt;"/></markers>
