<?xml version="1.0"?>
<markers><marker lat="40.428799178836528" lng="-79.984145739682731" zone="Zone 3" incidentdate="2016-05-21" incidenttime="02:30:00" incidentnumber="16092937" address="E Carson St &amp; S 14th St" type="OFFENSE" age="" gender="" description="*********************************************** &lt;br/&gt;2702, Aggravated Assault.&lt;br/&gt;"/><marker lat="40.385442305756953" lng="-79.978801061800922" zone="Zone 3" incidentdate="2016-05-21" incidenttime="18:44:00" incidentnumber="16093313" address="2600 block Brownsville Rd" type="OFFENSE" age="" gender="" description="*********************************************** &lt;br/&gt;4304(a)(1), Endangering Welfare of Children - Course of Conduct Enhanced&lt;br/&gt;2701, Simple Assault.&lt;br/&gt;"/><marker lat="40.456715562324803" lng="-80.000505640273929" zone="Zone 1" incidentdate="2016-05-21" incidenttime="08:20:00" incidentnumber="16093039" address="1100 block Linden Pl" type="OFFENSE" age="" gender="" description="*********************************************** &lt;br/&gt;3502, Burglary.&lt;br/&gt;"/><marker lat="40.455250694326665" lng="-79.934269019075572" zone="Zone 4" incidentdate="2016-05-21" incidenttime="03:07:00" incidentnumber="16092959" address="500 block Ivy St" type="OFFENSE" age="" gender="" description="*********************************************** &lt;br/&gt;2701, Simple Assault.&lt;br/&gt;"/><marker lat="40.427214666666025" lng="-79.936985368296916" zone="Zone 4" incidentdate="2016-05-21" incidenttime="04:30:00" incidentnumber="16092989" address="4000 block Beechwood Blvd" type="OFFENSE" age="" gender="" description="*********************************************** &lt;br/&gt;3701, Robbery.&lt;br/&gt;"/><marker lat="40.439357443553178" lng="-79.999121070597084" zone="Zone 2" incidentdate="2016-05-21" incidenttime="14:00:00" incidentnumber="16093212" address="400 block Forbes Ave" type="OFFENSE" age="" gender="" description="*********************************************** &lt;br/&gt;3921, Theft by Unlawful Taking or Disposition.&lt;br/&gt;"/><marker lat="40.4111044" lng="-80.0060107" zone="Zone 3" incidentdate="2016-05-21" incidenttime="12:22:00" incidentnumber="16093131" address="Saw Mill Run Blvd &amp; Bausman St" type="OFFENSE" age="" gender="" description="*********************************************** &lt;br/&gt;9501, Bench Warrant&lt;br/&gt;"/><marker lat="40.406816058417306" lng="-80.03436582726296" zone="Zone 6" incidentdate="2016-05-21" incidenttime="14:22:00" incidentnumber="16093206" address="2500 block Banksville Rd" type="OFFENSE" age="" gender="" description="*********************************************** &lt;br/&gt;3929(a)(1), Retail Theft; takes possession of, carries away, or transfers displayed merchandise&lt;br/&gt;"/><marker lat="40.456635391828108" lng="-79.995062016496206" zone="Zone 1" incidentdate="2016-05-21" incidenttime="02:12:00" incidentnumber="16092923" address="Chestnut St &amp; Lovitt Way" type="OFFENSE" age="" gender="" description="*********************************************** &lt;br/&gt;3743, Accidents Involving Damage to Attended Veh. or Property&lt;br/&gt;"/><marker lat="40.425586511852678" lng="-80.010454954852008" zone="Zone 3" incidentdate="2016-05-21" incidenttime="09:30:00" incidentnumber="16093052" address="400 block Norton St" type="OFFENSE" age="" gender="" description="*********************************************** &lt;br/&gt;3934, Theft from Vehicle&lt;br/&gt;"/><marker lat="40.460788773667765" lng="-79.924122774445735" zone="Zone 5" incidentdate="2016-05-21" incidenttime="10:45:00" incidentnumber="16093088" address="100 block N Sheridan Ave" type="OFFENSE" age="" gender="" description="*********************************************** &lt;br/&gt;3304, Criminal Mischief.&lt;br/&gt;2701, Simple Assault.&lt;br/&gt;"/><marker lat="40.45413941041307" lng="-79.983034069268967" zone="Zone 2" incidentdate="2016-05-21" incidenttime="17:48:00" incidentnumber="16093282" address="2300 block Railroad St" type="OFFENSE" age="" gender="" description="*********************************************** &lt;br/&gt;2709(a), Harassment.&lt;br/&gt;"/><marker lat="40.450892721440539" lng="-80.000843891836467" zone="Zone 1" incidentdate="2016-05-21" incidenttime="01:55:00" incidentnumber="16092906" address="300 block Cedar Ave" type="OFFENSE" age="" gender="" description="*********************************************** &lt;br/&gt;9489, Found Property&lt;br/&gt;"/><marker lat="40.456581713944651" lng="-80.000332843470076" zone="Zone 1" incidentdate="2016-05-21" incidenttime="04:15:00" incidentnumber="16092982" address="E North Ave" type="OFFENSE" age="" gender="" description="*********************************************** &lt;br/&gt;5503(a)(4), DISORDERLY CONDUCT - HAZARDOUS/PHYS. OFF&lt;br/&gt;5505, Public Drunkenness&lt;br/&gt;"/><marker lat="40.455236857362699" lng="-79.88335604597026" zone="Zone 5" incidentdate="2016-05-21" incidenttime="11:06:00" incidentnumber="16093099" address="8100 block Frankstown Ave" type="OFFENSE" age="" gender="" description="*********************************************** &lt;br/&gt;2702, Aggravated Assault.&lt;br/&gt;"/><marker lat="40.403265084499751" lng="-80.017530448582932" zone="Zone 6" incidentdate="2016-05-21" incidenttime="02:10:00" incidentnumber="16092946" address="2000 block Woodward Ave" type="OFFENSE" age="" gender="" description="*********************************************** &lt;br/&gt;3304(a)(5), CRIMINAL MISCHIEF - Intentionally Damages Real Or Personal Property Of Another&lt;br/&gt;"/><marker lat="40.471293589516883" lng="-79.944235083469096" zone="Zone 5" incidentdate="2016-05-21" incidenttime="01:54:00" incidentnumber="16092907" address="4800 block Sullivan St" type="OFFENSE" age="" gender="" description="*********************************************** &lt;br/&gt;2707.1, Discharge of a Firearm into Occupied Structure&lt;br/&gt;"/><marker lat="40.455036812870759" lng="-80.001981652122481" zone="Zone 1" incidentdate="2016-05-21" incidenttime="01:00:00" incidentnumber="16092881" address="900 block Cedar Ave" type="OFFENSE" age="" gender="" description="*********************************************** &lt;br/&gt;3502, Burglary.&lt;br/&gt;"/><marker lat="40.422941561831593" lng="-80.018021477434431" zone="Zone 3" incidentdate="2016-05-21" incidenttime="20:00:00" incidentnumber="16093360" address="1200 block Saw Mill Run Blvd" type="OFFENSE" age="" gender="" description="*********************************************** &lt;br/&gt;3928, Unauthorized Use of Automobile and Other Vehicles.&lt;br/&gt;"/><marker lat="40.419119165871031" lng="-79.988020009516745" zone="Zone 3" incidentdate="2016-05-21" incidenttime="10:00:00" incidentnumber="16093070" address="E Amanda Ave" type="OFFENSE" age="" gender="" description="*********************************************** &lt;br/&gt;4120, Identity Theft&lt;br/&gt;"/><marker lat="40.441919441965581" lng="-79.982892744621594" zone="Zone 2" incidentdate="2016-05-21" incidenttime="01:38:00" incidentnumber="16092898" address="1800 block Centre Ave" type="OFFENSE" age="" gender="" description="*********************************************** &lt;br/&gt;3502, Burglary.&lt;br/&gt;3304(a)(5), CRIMINAL MISCHIEF - Intentionally Damages Real Or Personal Property Of Another&lt;br/&gt;903, Criminal Conspiracy.&lt;br/&gt;"/><marker lat="40.449819881472727" lng="-80.077873423496044" zone="Zone 6" incidentdate="2016-05-21" incidenttime="07:26:00" incidentnumber="16093012" address="1000 block Village Rd" type="OFFENSE" age="" gender="" description="*********************************************** &lt;br/&gt;9999, 9999 - (Misc. Incident):&lt;br/&gt;"/><marker lat="40.4344028" lng="-79.9963600" zone="Zone 2" incidentdate="2016-05-21" incidenttime="15:12:00" incidentnumber="16093222" address="I-376" type="OFFENSE" age="" gender="" description="*********************************************** &lt;br/&gt;9999, 9999 - (Misc. Incident):&lt;br/&gt;"/><marker lat="40.456313482740313" lng="-79.887606547758622" zone="Zone 5" incidentdate="2016-05-21" incidenttime="03:00:00" incidentnumber="16093323" address="7700 block Baxter St" type="OFFENSE" age="" gender="" description="*********************************************** &lt;br/&gt;3921(a), Theft by Unlawful Taking or Disposition - Movable item&lt;br/&gt;"/><marker lat="40.458079657542726" lng="-80.026101218065349" zone="Zone 1" incidentdate="2016-05-21" incidenttime="10:45:00" incidentnumber="16093118" address="1300 block Columbus Ave" type="OFFENSE" age="" gender="" description="*********************************************** &lt;br/&gt;9489, Found Property&lt;br/&gt;"/><marker lat="40.425585095640862" lng="-80.00125036943345" zone="Zone 3" incidentdate="2016-05-21" incidenttime="10:20:00" incidentnumber="16093112" address="Estella Ave" type="OFFENSE" age="" gender="" description="*********************************************** &lt;br/&gt;3934, Theft from Vehicle&lt;br/&gt;"/><marker lat="40.456249975527761" lng="-80.00093692366552" zone="Zone 1" incidentdate="2016-05-21" incidenttime="08:45:00" incidentnumber="16093043" address="500 block Tripoli St" type="OFFENSE" age="" gender="" description="*********************************************** &lt;br/&gt;3934, Theft from Vehicle&lt;br/&gt;"/><marker lat="40.443305796383591" lng="-79.996531290884505" zone="Zone 2" incidentdate="2016-05-21" incidenttime="02:00:00" incidentnumber="16093069" address="Liberty Ave &amp; Smithfield St" type="OFFENSE" age="" gender="" description="*********************************************** &lt;br/&gt;3921, Theft by Unlawful Taking or Disposition.&lt;br/&gt;"/><marker lat="40.3967108" lng="-80.0249029" zone="Zone 6" incidentdate="2016-05-21" incidenttime="15:15:00" incidentnumber="16093211" address="2600 block Plainview Ave" type="OFFENSE" age="" gender="" description="*********************************************** &lt;br/&gt;3745, Accidents Involving Damage to Unattended Veh.or Prop.&lt;br/&gt;1543, Driving While Operating Privilege is Suspended or Revoked.&lt;br/&gt;1574, Permitting Unauthorized Person to Drive.&lt;br/&gt;"/><marker lat="40.450718131773378" lng="-79.985267609736766" zone="Zone 6" incidentdate="2016-05-21" incidenttime="00:20:00" incidentnumber="16093086" address="18th St" type="OFFENSE" age="" gender="" description="*********************************************** &lt;br/&gt;3921(a), Theft by Unlawful Taking or Disposition - Movable item&lt;br/&gt;"/><marker lat="40.438780945196221" lng="-79.948030696226866" zone="Zone 4" incidentdate="2016-05-21" incidenttime="12:15:00" incidentnumber="16093136" address="700 block Frank Curto Dr" type="OFFENSE" age="" gender="" description="*********************************************** &lt;br/&gt;3304, Criminal Mischief.&lt;br/&gt;3921(a), Theft by Unlawful Taking or Disposition - Movable item&lt;br/&gt;"/><marker lat="40.437818241066438" lng="-79.993649315309312" zone="Zone 2" incidentdate="2016-05-21" incidenttime="09:00:00" incidentnumber="16093047" address="600 block Forbes Ave" type="OFFENSE" age="" gender="" description="*********************************************** &lt;br/&gt;3745, Accidents Involving Damage to Unattended Veh.or Prop.&lt;br/&gt;"/><marker lat="40.465689624187746" lng="-79.91640314089949" zone="Zone 5" incidentdate="2016-05-21" incidenttime="13:30:00" incidentnumber="16093242" address="6100 block Carver St" type="OFFENSE" age="" gender="" description="*********************************************** &lt;br/&gt;3934, Theft from Vehicle&lt;br/&gt;"/><marker lat="40.430417751390969" lng="-79.978919924772214" zone="Zone 3" incidentdate="2016-05-21" incidenttime="12:02:00" incidentnumber="16093124" address="1900 block Wharton St" type="OFFENSE" age="" gender="" description="*********************************************** &lt;br/&gt;3929, Retail Theft.&lt;br/&gt;"/><marker lat="40.459968500652259" lng="-80.073925346989597" zone="Zone 6" incidentdate="2016-05-21" incidenttime="15:20:00" incidentnumber="16093205" address="1500 block Harlow St" type="OFFENSE" age="" gender="" description="*********************************************** &lt;br/&gt;3502, Burglary.&lt;br/&gt;"/><marker lat="40.428746746224945" lng="-79.982646526389246" zone="Zone 3" incidentdate="2016-05-21" incidenttime="02:10:00" incidentnumber="16092924" address="1600 block E Carson St" type="OFFENSE" age="" gender="" description="*********************************************** &lt;br/&gt;9504, Lost Property&lt;br/&gt;"/><marker lat="40.428096152469237" lng="-79.972924883274374" zone="Zone 3" incidentdate="2016-05-21" incidenttime="03:19:00" incidentnumber="16092965" address="2300 block E Carson St" type="OFFENSE" age="" gender="" description="*********************************************** &lt;br/&gt;3802(a)(1), DUI - General Impairment&lt;br/&gt;3802(c), DUI - Highest Rate of Alcohol - BAC &gt;= .16%&lt;br/&gt;"/><marker lat="40.466877756870879" lng="-79.994177935104844" zone="Zone 1" incidentdate="2016-05-21" incidenttime="03:40:00" incidentnumber="16092969" address="100 block Rhine Pl" type="OFFENSE" age="" gender="" description="*********************************************** &lt;br/&gt;3304(a)(5), CRIMINAL MISCHIEF - Intentionally Damages Real Or Personal Property Of Another&lt;br/&gt;"/><marker lat="40.44608960903679" lng="-79.893619929343828" zone="Zone 4" incidentdate="2016-05-21" incidenttime="18:19:00" incidentnumber="16093301" address="7700 block Penn Ave" type="OFFENSE" age="" gender="" description="*********************************************** &lt;br/&gt;3701, Robbery.&lt;br/&gt;"/><marker lat="40.448011981164164" lng="-79.894535528545987" zone="Zone 4" incidentdate="2016-05-21" incidenttime="10:57:00" incidentnumber="16093096" address="Meade St &amp; N Braddock Ave" type="OFFENSE" age="" gender="" description="*********************************************** &lt;br/&gt;13(a)(32), Paraphernalia - Use or Possession&lt;br/&gt;5902(a)(2), Prostitution - Loitering for purpose of&lt;br/&gt;5902(a)(1), Prostitution&lt;br/&gt;"/><marker lat="40.447397258227134" lng="-79.977766513041161" zone="Zone 2" incidentdate="2016-05-21" incidenttime="03:40:00" incidentnumber="16092955" address="Webster Ave &amp; Kirkpatrick St" type="OFFENSE" age="" gender="" description="*********************************************** &lt;br/&gt;3742, Accidents Involving Death or Personal Injury&lt;br/&gt;"/><marker lat="40.436555666578542" lng="-79.998722332601162" zone="Zone 2" incidentdate="2016-05-21" incidenttime="15:45:00" incidentnumber="16093225" address="Grant St &amp; 1st Ave" type="OFFENSE" age="" gender="" description="*********************************************** &lt;br/&gt;3743, Accidents Involving Damage to Attended Veh. or Property&lt;br/&gt;"/><marker lat="40.42238552069184" lng="-79.998550123651142" zone="Zone 3" incidentdate="2016-05-21" incidenttime="20:10:00" incidentnumber="16093357" address="100 block Craighead St" type="OFFENSE" age="" gender="" description="*********************************************** &lt;br/&gt;2701, Simple Assault.&lt;br/&gt;"/><marker lat="40.409907809469559" lng="-79.944055701424162" zone="Zone 4" incidentdate="2016-05-21" incidenttime="14:24:00" incidentnumber="16093218" address="4900 block 2nd Ave" type="OFFENSE" age="" gender="" description="*********************************************** &lt;br/&gt;2706, Terroristic Threats.&lt;br/&gt;2701(a)(3), Simple Assault - Attempts by Physical Menace&lt;br/&gt;"/><marker lat="40.465412122145814" lng="-79.935803863526644" zone="Zone 5" incidentdate="2016-05-21" incidenttime="16:55:00" incidentnumber="16093254" address="5400 block Broad St" type="OFFENSE" age="" gender="" description="*********************************************** &lt;br/&gt;3745, Accidents Involving Damage to Unattended Veh.or Prop.&lt;br/&gt;"/><marker lat="40.450892721440539" lng="-80.000843891836467" zone="Zone 1" incidentdate="2016-05-21" incidenttime="02:56:00" incidentnumber="16092954" address="300 block Cedar Ave" type="OFFENSE" age="" gender="" description="*********************************************** &lt;br/&gt;3503(b)(1)(i), Actual Communication&lt;br/&gt;5505, Public Drunkenness&lt;br/&gt;"/><marker lat="40.45861809399598" lng="-79.962331201512541" zone="Zone 2" incidentdate="2016-05-21" incidenttime="05:29:00" incidentnumber="16092999" address="3400 block Melwood Ave" type="OFFENSE" age="" gender="" description="*********************************************** &lt;br/&gt;9501, Bench Warrant&lt;br/&gt;"/><marker lat="40.475107898420873" lng="-79.960694545362998" zone="Zone 2" incidentdate="2016-05-21" incidenttime="06:49:00" incidentnumber="16093020" address="100 block Home St" type="OFFENSE" age="" gender="" description="*********************************************** &lt;br/&gt;9496, Dead on Arrival (DOA)&lt;br/&gt;"/><marker lat="40.441137684867279" lng="-79.957585934716349" zone="Zone 4" incidentdate="2016-05-21" incidenttime="02:05:00" incidentnumber="16092926" address="200 block Atwood St" type="OFFENSE" age="" gender="" description="*********************************************** &lt;br/&gt;5503(a)(1), DISORDERLY CONDUCT - ENGAGE IN FIGHTING&lt;br/&gt;"/><marker lat="40.425581875889741" lng="-79.948964103646048" zone="Zone 4" incidentdate="2016-05-21" incidenttime="19:14:00" incidentnumber="16093334" address="Tunstall St &amp; Greenfield Ave" type="OFFENSE" age="" gender="" description="*********************************************** &lt;br/&gt;3736, Reckless Driving&lt;br/&gt;3742, Accidents Involving Death or Personal Injury&lt;br/&gt;3743, Accidents Involving Damage to Attended Veh. or Property&lt;br/&gt;3714, Careless Driving&lt;br/&gt;"/><marker lat="40.455427910198594" lng="-80.025252177631543" zone="Zone 1" incidentdate="2016-05-21" incidenttime="08:16:00" incidentnumber="16093032" address="1300 block Liverpool St" type="OFFENSE" age="" gender="" description="*********************************************** &lt;br/&gt;9496, Dead on Arrival (DOA)&lt;br/&gt;"/><marker lat="40.458535177571832" lng="-79.966427336461976" zone="Zone 2" incidentdate="2016-05-21" incidenttime="11:20:00" incidentnumber="15175813" address="300 block Hancock St" type="OFFENSE" age="" gender="" description="*********************************************** &lt;br/&gt;4304(a)(1), Endangering Welfare of Children - Course of Conduct Enhanced&lt;br/&gt;9015, Failure To Appear/Arrest on Attachment Order&lt;br/&gt;"/><marker lat="40.446700481900621" lng="-79.97450983784141" zone="Zone 2" incidentdate="2016-05-21" incidenttime="23:27:00" incidentnumber="16093439" address="2300 block Wylie Ave" type="OFFENSE" age="" gender="" description="*********************************************** &lt;br/&gt;3921(a), Theft by Unlawful Taking or Disposition - Movable item&lt;br/&gt;"/><marker lat="40.461182116300265" lng="-79.894422111190181" zone="Zone 5" incidentdate="2016-05-21" incidenttime="10:25:00" incidentnumber="16093079" address="7200 block Mt Vernon St" type="OFFENSE" age="" gender="" description="*********************************************** &lt;br/&gt;3502, Burglary.&lt;br/&gt;3304, Criminal Mischief.&lt;br/&gt;"/><marker lat="40.421103596071127" lng="-79.985317176382438" zone="Zone 3" incidentdate="2016-05-21" incidenttime="13:30:00" incidentnumber="16093181" address="2600 block S 18th St" type="OFFENSE" age="" gender="" description="*********************************************** &lt;br/&gt;3921, Theft by Unlawful Taking or Disposition.&lt;br/&gt;"/><marker lat="40.452725352725054" lng="-79.889190459043618" zone="Zone 5" incidentdate="2016-05-21" incidenttime="11:20:00" incidentnumber="16093111" address="Brushton Ave &amp; Hamilton Ave" type="OFFENSE" age="" gender="" description="*********************************************** &lt;br/&gt;13(a)(32), Paraphernalia - Use or Possession&lt;br/&gt;5902(a)(2), Prostitution - Loitering for purpose of&lt;br/&gt;9015, Failure To Appear/Arrest on Attachment Order&lt;br/&gt;5902(a)(1), Prostitution&lt;br/&gt;"/><marker lat="40.441314641557348" lng="-80.05664542451548" zone="Zone 6" incidentdate="2016-05-21" incidenttime="09:00:00" incidentnumber="16093077" address="500 block Stratmore St" type="OFFENSE" age="" gender="" description="*********************************************** &lt;br/&gt;4106, Access Device Fraud&lt;br/&gt;4120, Identity Theft&lt;br/&gt;"/><marker lat="40.451881531185627" lng="-79.967185254288935" zone="Zone 2" incidentdate="2016-05-21" incidenttime="17:50:00" incidentnumber="16093267" address="Webster Ave &amp; Wandless St" type="OFFENSE" age="" gender="" description="*********************************************** &lt;br/&gt;13(a)(32), Paraphernalia - Use or Possession&lt;br/&gt;1786, Required Financial Responsibility.&lt;br/&gt;1301, Registration and Certificate of Title Required.&lt;br/&gt;7122, Altered, Forged or Counterfeit Documents and Plates&lt;br/&gt;4531, Emission Control Systems.&lt;br/&gt;"/><marker lat="40.4717317" lng="-79.9329204" zone="Zone 5" incidentdate="2016-05-21" incidenttime="17:00:00" incidentnumber="16093328" address="5300 block N Aiken Ct" type="OFFENSE" age="" gender="" description="*********************************************** &lt;br/&gt;3921(a), Theft by Unlawful Taking or Disposition - Movable item&lt;br/&gt;"/><marker lat="40.396052433870693" lng="-79.987505497219203" zone="Zone 3" incidentdate="2016-05-21" incidenttime="05:52:00" incidentnumber="16093002" address="1900 block Brownsville Rd" type="OFFENSE" age="" gender="" description="*********************************************** &lt;br/&gt;3701, Robbery.&lt;br/&gt;"/><marker lat="40.447502334719239" lng="-80.051783949854453" zone="Zone 6" incidentdate="2016-05-21" incidenttime="10:13:00" incidentnumber="16093074" address="1600 block Crucible St" type="OFFENSE" age="" gender="" description="*********************************************** &lt;br/&gt;9999, 9999 - (Misc. Incident):&lt;br/&gt;"/><marker lat="40.451397442230501" lng="-80.071715833431441" zone="Zone 6" incidentdate="2016-05-21" incidenttime="16:00:00" incidentnumber="16093262" address="3400 block Harrisburg St" type="OFFENSE" age="" gender="" description="*********************************************** &lt;br/&gt;3921, Theft by Unlawful Taking or Disposition.&lt;br/&gt;"/><marker lat="40.403865499750253" lng="-79.94121154762648" zone="Zone 4" incidentdate="2016-05-21" incidenttime="08:31:00" incidentnumber="16093050" address="200 block Mansion St" type="OFFENSE" age="" gender="" description="*********************************************** &lt;br/&gt;9999, 9999 - (Misc. Incident):&lt;br/&gt;"/><marker lat="40.463684521405213" lng="-80.05606954409491" zone="Zone 6" incidentdate="2016-05-21" incidenttime="21:35:00" incidentnumber="16093382" address="300 block Stanhope St" type="OFFENSE" age="" gender="" description="*********************************************** &lt;br/&gt;3921(a), Theft by Unlawful Taking or Disposition - Movable item&lt;br/&gt;"/><marker lat="40.473385482509244" lng="-80.030779355600146" zone="Zone 1" incidentdate="2016-05-21" incidenttime="04:00:00" incidentnumber="16092977" address="3100 block Frederick St" type="OFFENSE" age="" gender="" description="*********************************************** &lt;br/&gt;3304, Criminal Mischief.&lt;br/&gt;"/><marker lat="40.4134558" lng="-79.9817451" zone="Zone 3" incidentdate="2016-05-21" incidenttime="19:50:00" incidentnumber="16093351" address="400 block Mt Joseph St" type="OFFENSE" age="" gender="" description="*********************************************** &lt;br/&gt;2709(a)(3), Harassment No Legitimate Purpose&lt;br/&gt;"/><marker lat="40.46884428698143" lng="-79.897534071498342" zone="Zone 5" incidentdate="2016-05-21" incidenttime="08:30:00" incidentnumber="16093090" address="Montezuma St &amp; Manning St" type="OFFENSE" age="" gender="" description="*********************************************** &lt;br/&gt;3745, Accidents Involving Damage to Unattended Veh.or Prop.&lt;br/&gt;"/><marker lat="40.4530676" lng="-80.0030662" zone="Zone 1" incidentdate="2016-05-21" incidenttime="00:14:00" incidentnumber="16092852" address="200 block East Ohio St" type="OFFENSE" age="" gender="" description="*********************************************** &lt;br/&gt;2701, Simple Assault.&lt;br/&gt;"/><marker lat="40.451840335370044" lng="-80.028530459735663" zone="Zone 1" incidentdate="2016-05-21" incidenttime="11:30:00" incidentnumber="16093108" address="Beaver Ave &amp; W North Ave" type="OFFENSE" age="" gender="" description="*********************************************** &lt;br/&gt;3743, Accidents Involving Damage to Attended Veh. or Property&lt;br/&gt;"/><marker lat="40.463817891191532" lng="-79.932359921762369" zone="Zone 5" incidentdate="2016-05-21" incidenttime="05:10:00" incidentnumber="16092998" address="5500 block Penn Ave" type="OFFENSE" age="" gender="" description="*********************************************** &lt;br/&gt;3921(a), Theft by Unlawful Taking or Disposition - Movable item&lt;br/&gt;"/><marker lat="40.44913448740612" lng="-79.901669963426414" zone="Zone 4" incidentdate="2016-05-21" incidenttime="08:00:00" incidentnumber="16093102" address="100 block S Homewood Ave" type="OFFENSE" age="" gender="" description="*********************************************** &lt;br/&gt;3921(a), Theft by Unlawful Taking or Disposition - Movable item&lt;br/&gt;"/><marker lat="40.429211323605841" lng="-79.899374224826758" zone="Zone 4" incidentdate="2016-05-21" incidenttime="10:30:00" incidentnumber="16093107" address="1200 block Trevanion St" type="OFFENSE" age="" gender="" description="*********************************************** &lt;br/&gt;3934, Theft from Vehicle&lt;br/&gt;"/><marker lat="40.4582100888612" lng="-79.904907963631274" zone="Zone 5" incidentdate="2016-05-21" incidenttime="12:45:00" incidentnumber="16093130" address="800 block Inwood St" type="OFFENSE" age="" gender="" description="*********************************************** &lt;br/&gt;029, Missing Juvenile&lt;br/&gt;"/><marker lat="40.420157940775823" lng="-79.990700255314323" zone="Zone 3" incidentdate="2016-05-21" incidenttime="02:44:00" incidentnumber="16092945" address="Arlington Ave &amp; Knox Ave" type="OFFENSE" age="" gender="" description="*********************************************** &lt;br/&gt;3745, Accidents Involving Damage to Unattended Veh.or Prop.&lt;br/&gt;"/><marker lat="40.458521090086435" lng="-80.015890258192599" zone="Zone 1" incidentdate="2016-05-21" incidenttime="12:10:00" incidentnumber="16093127" address="1700 block Brighton Rd" type="OFFENSE" age="" gender="" description="*********************************************** &lt;br/&gt;4106, Access Device Fraud&lt;br/&gt;"/><marker lat="40.427658783724418" lng="-79.985290120354563" zone="Zone 3" incidentdate="2016-05-21" incidenttime="01:16:00" incidentnumber="16092891" address="S 13th St &amp; Sarah St" type="OFFENSE" age="" gender="" description="*********************************************** &lt;br/&gt;2701(a)(1), Simple Assault - Intent., Know., Reckless.Cause Bod. Injury&lt;br/&gt;3702, Robbery of Motor Vehicle.&lt;br/&gt;"/><marker lat="40.428438567956732" lng="-79.983105958684874" zone="Zone 3" incidentdate="2016-05-21" incidenttime="02:09:00" incidentnumber="16092919" address="100 block S 16th St" type="OFFENSE" age="" gender="" description="*********************************************** &lt;br/&gt;3304, Criminal Mischief.&lt;br/&gt;3503, Criminal Trespass&lt;br/&gt;"/><marker lat="40.438808783984314" lng="-80.001618548213528" zone="Zone 2" incidentdate="2016-05-21" incidenttime="20:00:00" incidentnumber="16093356" address="300 block 3rd Ave" type="OFFENSE" age="" gender="" description="*********************************************** &lt;br/&gt;2706, Terroristic Threats.&lt;br/&gt;2701(a)(3), Simple Assault - Attempts by Physical Menace&lt;br/&gt;"/><marker lat="40.42836267901361" lng="-79.973607738371669" zone="Zone 2" incidentdate="2016-05-21" incidenttime="02:41:00" incidentnumber="16092941" address="Birmingham Brg &amp; E Carson St" type="OFFENSE" age="" gender="" description="*********************************************** &lt;br/&gt;3743, Accidents Involving Damage to Attended Veh. or Property&lt;br/&gt;"/><marker lat="40.448011981164164" lng="-79.894535528545987" zone="Zone 4" incidentdate="2016-05-21" incidenttime="10:57:00" incidentnumber="16093096" address="Meade St &amp; N Braddock Ave" type="ARREST" age="33" gender="F" description="*********************************************** &lt;br/&gt;13(a)(32), Paraphernalia - Use or Possession&lt;br/&gt;5902(a)(2), Prostitution - Loitering for purpose of&lt;br/&gt;5902(a)(1), Prostitution&lt;br/&gt;"/><marker lat="40.455236857362699" lng="-79.88335604597026" zone="Zone 5" incidentdate="2016-05-21" incidenttime="11:24:00" incidentnumber="16093099" address="8100 block Frankstown Ave" type="ARREST" age="46" gender="F" description="*********************************************** &lt;br/&gt;2702, Aggravated Assault.&lt;br/&gt;"/><marker lat="40.4530676" lng="-80.0030662" zone="Zone 1" incidentdate="2016-05-21" incidenttime="00:20:00" incidentnumber="16092852" address="200 block East Ohio St" type="ARREST" age="48" gender="M" description="*********************************************** &lt;br/&gt;2701, Simple Assault.&lt;br/&gt;"/><marker lat="40.441919441965581" lng="-79.982892744621594" zone="Zone 2" incidentdate="2016-05-21" incidenttime="02:42:00" incidentnumber="16092898" address="1800 block Centre Ave" type="ARREST" age="14" gender="M" description="*********************************************** &lt;br/&gt;3502, Burglary.&lt;br/&gt;3304(a)(5), CRIMINAL MISCHIEF - Intentionally Damages Real Or Personal Property Of Another&lt;br/&gt;903, Criminal Conspiracy.&lt;br/&gt;"/><marker lat="40.45861809399598" lng="-79.962331201512541" zone="Zone 2" incidentdate="2016-05-21" incidenttime="05:49:00" incidentnumber="16092999" address="3400 block Melwood Ave" type="ARREST" age="25" gender="F" description="*********************************************** &lt;br/&gt;9501, Bench Warrant&lt;br/&gt;"/><marker lat="40.458535177571832" lng="-79.966427336461976" zone="Zone 2" incidentdate="2016-05-21" incidenttime="11:20:00" incidentnumber="15175813" address="300 block Hancock St" type="ARREST" age="32" gender="F" description="*********************************************** &lt;br/&gt;4304(a)(1), Endangering Welfare of Children - Course of Conduct Enhanced&lt;br/&gt;9015, Failure To Appear/Arrest on Attachment Order&lt;br/&gt;"/><marker lat="40.451881531185627" lng="-79.967185254288935" zone="Zone 2" incidentdate="2016-05-21" incidenttime="16:50:00" incidentnumber="16093267" address="Webster Ave &amp; Wandless St" type="ARREST" age="27" gender="M" description="*********************************************** &lt;br/&gt;13(a)(32), Paraphernalia - Use or Possession&lt;br/&gt;1786, Required Financial Responsibility.&lt;br/&gt;1301, Registration and Certificate of Title Required.&lt;br/&gt;7122, Altered, Forged or Counterfeit Documents and Plates&lt;br/&gt;4531, Emission Control Systems.&lt;br/&gt;"/><marker lat="40.452725352725054" lng="-79.889190459043618" zone="Zone 5" incidentdate="2016-05-21" incidenttime="11:20:00" incidentnumber="16093111" address="Brushton Ave &amp; Hamilton Ave" type="ARREST" age="32" gender="F" description="*********************************************** &lt;br/&gt;13(a)(32), Paraphernalia - Use or Possession&lt;br/&gt;5902(a)(2), Prostitution - Loitering for purpose of&lt;br/&gt;9015, Failure To Appear/Arrest on Attachment Order&lt;br/&gt;5902(a)(1), Prostitution&lt;br/&gt;"/><marker lat="40.428799178836528" lng="-79.984145739682731" zone="Zone 3" incidentdate="2016-05-21" incidenttime="02:34:00" incidentnumber="16092937" address="E Carson St &amp; S 14th St" type="ARREST" age="21" gender="M" description="*********************************************** &lt;br/&gt;2702, Aggravated Assault.&lt;br/&gt;"/><marker lat="40.40243347010329" lng="-79.93705448220922" zone="Zone 4" incidentdate="2016-05-21" incidenttime="21:45:00" incidentnumber="16089966" address="300 block Renova St" type="ARREST" age="27" gender="F" description="*********************************************** &lt;br/&gt;2701(a)(1), Simple Assault - Intent., Know., Reckless.Cause Bod. Injury&lt;br/&gt;2701(a)(3), Simple Assault - Attempts by Physical Menace&lt;br/&gt;5503(a)(1), DISORDERLY CONDUCT - ENGAGE IN FIGHTING&lt;br/&gt;"/><marker lat="40.441919441965581" lng="-79.982892744621594" zone="Zone 2" incidentdate="2016-05-21" incidenttime="01:54:00" incidentnumber="16092898" address="1800 block Centre Ave" type="ARREST" age="15" gender="M" description="*********************************************** &lt;br/&gt;3502, Burglary.&lt;br/&gt;3304(a)(5), CRIMINAL MISCHIEF - Intentionally Damages Real Or Personal Property Of Another&lt;br/&gt;903, Criminal Conspiracy.&lt;br/&gt;"/><marker lat="40.385442305756953" lng="-79.978801061800922" zone="Zone 3" incidentdate="2016-05-21" incidenttime="19:05:00" incidentnumber="16093313" address="2600 block Brownsville Rd" type="ARREST" age="27" gender="M" description="*********************************************** &lt;br/&gt;4304(a)(1), Endangering Welfare of Children - Course of Conduct Enhanced&lt;br/&gt;2701, Simple Assault.&lt;br/&gt;"/><marker lat="40.434696587775576" lng="-79.996300985228572" zone="Zone 2" incidentdate="2016-05-21" incidenttime="10:21:00" incidentnumber="16092368" address="600 block First Ave" type="ARREST" age="52" gender="M" description="*********************************************** &lt;br/&gt;3802(a)(1), DUI - General Impairment&lt;br/&gt;"/><marker lat="40.450892721440539" lng="-80.000843891836467" zone="Zone 1" incidentdate="2016-05-21" incidenttime="03:00:00" incidentnumber="16092954" address="300 block Cedar Ave" type="ARREST" age="29" gender="M" description="*********************************************** &lt;br/&gt;3503(b)(1)(i), Actual Communication&lt;br/&gt;5505, Public Drunkenness&lt;br/&gt;"/><marker lat="40.428096152469237" lng="-79.972924883274374" zone="Zone 3" incidentdate="2016-05-21" incidenttime="03:35:00" incidentnumber="16092965" address="2300 block E Carson St" type="ARREST" age="23" gender="M" description="*********************************************** &lt;br/&gt;3802(a)(1), DUI - General Impairment&lt;br/&gt;3802(c), DUI - Highest Rate of Alcohol - BAC &gt;= .16%&lt;br/&gt;"/><marker lat="40.4111044" lng="-80.0060107" zone="Zone 3" incidentdate="2016-05-21" incidenttime="12:45:00" incidentnumber="16093131" address="Saw Mill Run Blvd &amp; Bausman St" type="ARREST" age="28" gender="F" description="*********************************************** &lt;br/&gt;9501, Bench Warrant&lt;br/&gt;"/><marker lat="40.456304780128008" lng="-80.004625944576162" zone="Zone 1" incidentdate="2016-05-21" incidenttime="09:35:00" incidentnumber="16022109" address="1200 block Sandusky St N" type="ARREST" age="29" gender="M" description="*********************************************** &lt;br/&gt;5104, Resisting Arrest or Other Law Enforcement.&lt;br/&gt;2702, Aggravated Assault.&lt;br/&gt;2706, Terroristic Threats.&lt;br/&gt;6105(a)(1), Persons not to possess, use, manufacture, control, sell or transfer firearms: Former convict enumerated in subsection (b)&lt;br/&gt;2703.1, Aggravated Harassment by Prisoner&lt;br/&gt;"/></markers>
