<?xml version="1.0"?>
<markers><marker lat="40.439465963515516" lng="-79.969654011671651" zone="Zone 2" incidentdate="2015-06-06" incidenttime="15:10:00" incidentnumber="15101734" address="100 block Jamal Pl" type="OFFENSE" age="" gender="" description="*********************************************** &lt;br/&gt;9999, 9999 - (Misc. Incident):&lt;br/&gt;"/><marker lat="40.45858179352976" lng="-79.992016742966769" zone="Zone 1" incidentdate="2015-06-06" incidenttime="01:40:00" incidentnumber="15101388" address="1100 block Brabec St" type="OFFENSE" age="" gender="" description="*********************************************** &lt;br/&gt;2701, Simple Assault.&lt;br/&gt;4304(a)(1) Enhanced, Welfare of Children - Course of Conduct&lt;br/&gt;"/><marker lat="40.429327630246611" lng="-79.974546834720641" zone="Zone 3" incidentdate="2015-06-06" incidenttime="03:22:00" incidentnumber="15101449" address="S 22nd St &amp; Sidney St" type="OFFENSE" age="" gender="" description="*********************************************** &lt;br/&gt;1301, Registration and Certificate of Title Required.&lt;br/&gt;1543, Driving While Operating Privilege is Suspended or Revoked.&lt;br/&gt;3802(a)(1), DUI - General Impairment&lt;br/&gt;"/><marker lat="40.452022648610722" lng="-79.935513005350259" zone="Zone 4" incidentdate="2015-06-06" incidenttime="04:25:00" incidentnumber="15101480" address="700 block Copeland St" type="OFFENSE" age="" gender="" description="*********************************************** &lt;br/&gt;5505, Public Drunkenness&lt;br/&gt;3502, Burglary.&lt;br/&gt;"/><marker lat="40.471174791499628" lng="-80.008447805705202" zone="Zone 1" incidentdate="2015-06-06" incidenttime="09:40:00" incidentnumber="15101569" address="2600 block Perrysville Ave" type="OFFENSE" age="" gender="" description="*********************************************** &lt;br/&gt;9496, Dead on Arrival (DOA)&lt;br/&gt;"/><marker lat="40.472607820161087" lng="-79.935817480313915" zone="Zone 5" incidentdate="2015-06-06" incidenttime="20:41:00" incidentnumber="15101941" address="5300 block Mossfield St" type="OFFENSE" age="" gender="" description="*********************************************** &lt;br/&gt;3926.C1, THEFT OF SERVICES&lt;br/&gt;"/><marker lat="40.443296773738375" lng="-80.041675053103745" zone="Zone 6" incidentdate="2015-06-06" incidenttime="00:01:00" incidentnumber="15101334" address="1000 block Crucible St" type="OFFENSE" age="" gender="" description="*********************************************** &lt;br/&gt;3502, Burglary.&lt;br/&gt;"/><marker lat="40.451601893913271" lng="-80.066357338902122" zone="Zone 6" incidentdate="2015-06-06" incidenttime="21:48:00" incidentnumber="15101976" address="3200 block Faronia St" type="OFFENSE" age="" gender="" description="*********************************************** &lt;br/&gt;9488, False  Burglar Alarm&lt;br/&gt;"/><marker lat="40.4067943" lng="-79.9326398" zone="Zone 4" incidentdate="2015-06-06" incidenttime="07:45:00" incidentnumber="15101519" address="900 block Rosselle Ct" type="OFFENSE" age="" gender="" description="*********************************************** &lt;br/&gt;9496, Dead on Arrival (DOA)&lt;br/&gt;"/><marker lat="40.457267579856016" lng="-80.051856353957618" zone="Zone 6" incidentdate="2015-06-06" incidenttime="19:05:00" incidentnumber="15101855" address="3000 block Merwyn Ave" type="OFFENSE" age="" gender="" description="*********************************************** &lt;br/&gt;9490, Missing Persons (18 and Over)&lt;br/&gt;"/><marker lat="40.451157723858437" lng="-79.933848831107525" zone="Zone 4" incidentdate="2015-06-06" incidenttime="02:03:00" incidentnumber="15101408" address="Walnut St &amp; Bellefonte St" type="OFFENSE" age="" gender="" description="*********************************************** &lt;br/&gt;425.26, Miscellaneous&lt;br/&gt;"/><marker lat="40.441024249715781" lng="-79.95736833680553" zone="Zone 4" incidentdate="2015-06-06" incidenttime="06:34:00" incidentnumber="15101507" address="3700 block Forbes Ave" type="OFFENSE" age="" gender="" description="*********************************************** &lt;br/&gt;3503.B1I, DEF. TRESPASS ACTUAL COMMUNICATION&lt;br/&gt;5503, Disorderly Conduct.&lt;br/&gt;"/><marker lat="40.451151142105047" lng="-79.930424097595122" zone="Zone 4" incidentdate="2015-06-06" incidenttime="02:40:00" incidentnumber="15101428" address="5700 block Howe St" type="OFFENSE" age="" gender="" description="*********************************************** &lt;br/&gt;3503, Criminal Trespass&lt;br/&gt;3921(a), Theft by Unlawful Taking or Disposition - Movable item&lt;br/&gt;3502, Burglary.&lt;br/&gt;5505, Public Drunkenness&lt;br/&gt;"/><marker lat="40.471352502441071" lng="-80.027481577018733" zone="Zone 1" incidentdate="2015-06-06" incidenttime="16:23:00" incidentnumber="15101759" address="2900 block Stayton St" type="OFFENSE" age="" gender="" description="*********************************************** &lt;br/&gt;3921, Theft by Unlawful Taking or Disposition.&lt;br/&gt;"/><marker lat="40.476585213994042" lng="-80.030086763205603" zone="Zone 1" incidentdate="2015-06-06" incidenttime="18:10:00" incidentnumber="15101840" address="Central Ave &amp; Woods Run Ave" type="OFFENSE" age="" gender="" description="*********************************************** &lt;br/&gt;5503(a)(1), DISORDERLY CONDUCT - ENGAGE IN FIGHTING&lt;br/&gt;2701, Simple Assault.&lt;br/&gt;5505, Public Drunkenness&lt;br/&gt;"/><marker lat="40.437846371119946" lng="-79.922805918036218" zone="Zone 4" incidentdate="2015-06-06" incidenttime="02:30:00" incidentnumber="15101466" address="5800 block Forbes Ave" type="OFFENSE" age="" gender="" description="*********************************************** &lt;br/&gt;3502, Burglary.&lt;br/&gt;"/><marker lat="40.418160953314725" lng="-79.924243213261647" zone="Zone 4" incidentdate="2015-06-06" incidenttime="10:10:00" incidentnumber="15101586" address="Shady Ave &amp; Beechwood Blvd" type="OFFENSE" age="" gender="" description="*********************************************** &lt;br/&gt;9129, Miscellaneous Investigation&lt;br/&gt;"/><marker lat="40.439871156744054" lng="-79.967428053378924" zone="Zone 4" incidentdate="2015-06-06" incidenttime="00:23:00" incidentnumber="15101338" address="3100 block Terrace St" type="OFFENSE" age="" gender="" description="*********************************************** &lt;br/&gt;029, Missing Juvenile&lt;br/&gt;"/><marker lat="40.486624054309644" lng="-80.004047151028246" zone="Zone 1" incidentdate="2015-06-06" incidenttime="11:27:00" incidentnumber="15101627" address="3600 block Manuel St" type="OFFENSE" age="" gender="" description="*********************************************** &lt;br/&gt;9488, False  Burglar Alarm&lt;br/&gt;"/><marker lat="40.461697469273695" lng="-80.07547856033473" zone="Zone 6" incidentdate="2015-06-06" incidenttime="00:55:00" incidentnumber="15101360" address="Wind Gap Ave &amp; Youghiogheny St" type="OFFENSE" age="" gender="" description="*********************************************** &lt;br/&gt;4581, Restraint Systems.&lt;br/&gt;1511, Carrying and Exhibiting Drivers License on Demand.&lt;br/&gt;3802(c), DUI - Highest Rate of Alcohol - BAC &gt;= .16%&lt;br/&gt;1311, Registration Card to be Signed and Exhibited on Demand.&lt;br/&gt;4107(b)(2), Vehicle Equipment Standards&lt;br/&gt;3802(a)(1), DUI - General Impairment&lt;br/&gt;1786, Required Financial Responsibility.&lt;br/&gt;"/><marker lat="40.428567965192009" lng="-79.987317884623508" zone="Zone 3" incidentdate="2015-06-06" incidenttime="07:35:00" incidentnumber="15101528" address="1100 block E Carson St" type="OFFENSE" age="" gender="" description="*********************************************** &lt;br/&gt;9489, Found Property&lt;br/&gt;"/><marker lat="40.438002713939021" lng="-79.977529599564193" zone="Zone 4" incidentdate="2015-06-06" incidenttime="20:50:00" incidentnumber="15101930" address="2000 block 5th Ave" type="OFFENSE" age="" gender="" description="*********************************************** &lt;br/&gt;3701, Robbery.&lt;br/&gt;"/><marker lat="40.458608795008487" lng="-79.902074938407978" zone="Zone 5" incidentdate="2015-06-06" incidenttime="00:15:00" incidentnumber="15101330" address="900 block Gerritt St" type="OFFENSE" age="" gender="" description="*********************************************** &lt;br/&gt;6106, Firearms not to be Carried without a License.&lt;br/&gt;"/><marker lat="40.438308590945255" lng="-79.957718574743282" zone="Zone 4" incidentdate="2015-06-06" incidenttime="02:43:00" incidentnumber="15101459" address="300 block Mc Kee Pl" type="OFFENSE" age="" gender="" description="*********************************************** &lt;br/&gt;3502, Burglary.&lt;br/&gt;"/><marker lat="40.4600940" lng="-79.9238524" zone="Zone 4" incidentdate="2015-06-06" incidenttime="12:00:00" incidentnumber="15100876" address="6300 block Shakespeare St" type="OFFENSE" age="" gender="" description="*********************************************** &lt;br/&gt;3924, Theft of Property Lost, Mislaid or Delivered by Mistake.&lt;br/&gt;"/><marker lat="40.479829245655225" lng="-80.001901444196207" zone="Zone 1" incidentdate="2015-06-06" incidenttime="23:50:00" incidentnumber="15102053" address="400 block Mt Pleasant Rd" type="OFFENSE" age="" gender="" description="*********************************************** &lt;br/&gt;9999, 9999 - (Misc. Incident):&lt;br/&gt;"/><marker lat="40.470345759004445" lng="-79.908617801882158" zone="Zone 5" incidentdate="2015-06-06" incidenttime="21:35:00" incidentnumber="15101971" address="Washington Blvd &amp; Negley Run Blvd" type="OFFENSE" age="" gender="" description="*********************************************** &lt;br/&gt;3802(d)(2), DUI - Drug - Impaired Ability&lt;br/&gt;3736, Reckless Driving&lt;br/&gt;"/><marker lat="40.412857823197776" lng="-80.024176573100917" zone="Zone 6" incidentdate="2015-06-06" incidenttime="11:48:00" incidentnumber="15101626" address="1500 block Fallowfield Ave" type="OFFENSE" age="" gender="" description="*********************************************** &lt;br/&gt;9999, 9999 - (Misc. Incident):&lt;br/&gt;"/><marker lat="40.467876401574117" lng="-79.907231654400434" zone="Zone 5" incidentdate="2015-06-06" incidenttime="20:47:00" incidentnumber="15101938" address="100 block Larimer Ave" type="OFFENSE" age="" gender="" description="*********************************************** &lt;br/&gt;9501, Bench Warrant&lt;br/&gt;"/><marker lat="40.441772984812665" lng="-80.001620450643472" zone="Zone 2" incidentdate="2015-06-06" incidenttime="14:20:00" incidentnumber="15101697" address="600 block Liberty Ave" type="OFFENSE" age="" gender="" description="*********************************************** &lt;br/&gt;9497, Aided Case&lt;br/&gt;"/><marker lat="40.464441156580989" lng="-79.936415907960978" zone="Zone 5" incidentdate="2015-06-06" incidenttime="17:32:00" incidentnumber="15101817" address="5400 block Penn Ave" type="OFFENSE" age="" gender="" description="*********************************************** &lt;br/&gt;3743, Accidents Involving Damage to Attended Veh. or Property&lt;br/&gt;"/><marker lat="40.442888113190847" lng="-79.997936520552642" zone="Zone 2" incidentdate="2015-06-06" incidenttime="23:50:00" incidentnumber="15102059" address="900 block Liberty Ave" type="OFFENSE" age="" gender="" description="*********************************************** &lt;br/&gt;3503(b)(1)(i), Actual Communication&lt;br/&gt;2710, Ethnic Intimidation.&lt;br/&gt;5503, Disorderly Conduct.&lt;br/&gt;5505, Public Drunkenness&lt;br/&gt;"/><marker lat="40.447978951773912" lng="-79.899166438752616" zone="Zone 4" incidentdate="2015-06-06" incidenttime="01:52:00" incidentnumber="15101400" address="7300 block Penn Ave" type="OFFENSE" age="" gender="" description="*********************************************** &lt;br/&gt;3714, Careless Driving&lt;br/&gt;3802(a)(1), DUI - General Impairment&lt;br/&gt;3802(c), DUI - Highest Rate of Alcohol - BAC &gt;= .16%&lt;br/&gt;1786, Required Financial Responsibility.&lt;br/&gt;"/><marker lat="40.475584417651717" lng="-79.937815676967631" zone="Zone 5" incidentdate="2015-06-06" incidenttime="08:42:00" incidentnumber="15101536" address="900 block Millerdale St" type="OFFENSE" age="" gender="" description="*********************************************** &lt;br/&gt;3745, Accidents Involving Damage to Unattended Veh.or Prop.&lt;br/&gt;"/><marker lat="40.421531877189601" lng="-79.993577564166102" zone="Zone 3" incidentdate="2015-06-06" incidenttime="09:25:00" incidentnumber="15082693" address="800 block E Warrington Ave" type="OFFENSE" age="" gender="" description="*********************************************** &lt;br/&gt;2701, Simple Assault.&lt;br/&gt;"/><marker lat="40.479483764053128" lng="-80.030900495509769" zone="Zone 1" incidentdate="2015-06-06" incidenttime="07:36:00" incidentnumber="15101513" address="3500 block Brighton Rd" type="OFFENSE" age="" gender="" description="*********************************************** &lt;br/&gt;9488, False  Burglar Alarm&lt;br/&gt;"/><marker lat="40.419745084735858" lng="-79.933047930760196" zone="Zone 4" incidentdate="2015-06-06" incidenttime="09:41:00" incidentnumber="15101561" address="700 block Hazelwood Ave" type="OFFENSE" age="" gender="" description="*********************************************** &lt;br/&gt;2702, Aggravated Assault.&lt;br/&gt;"/><marker lat="40.485357548760703" lng="-80.041930628560038" zone="Zone 1" incidentdate="2015-06-06" incidenttime="09:21:00" incidentnumber="15101553" address="3900 block California Ave" type="OFFENSE" age="" gender="" description="*********************************************** &lt;br/&gt;9488, False  Burglar Alarm&lt;br/&gt;"/><marker lat="40.429232248771257" lng="-79.975998950011828" zone="Zone 3" incidentdate="2015-06-06" incidenttime="12:00:00" incidentnumber="15101752" address="2100 block Sidney St" type="OFFENSE" age="" gender="" description="*********************************************** &lt;br/&gt;3922, Theft by Deception.&lt;br/&gt;"/><marker lat="40.442014070573734" lng="-80.045190722613057" zone="Zone 6" incidentdate="2015-06-06" incidenttime="15:00:00" incidentnumber="15101859" address="1200 block Arnold St" type="OFFENSE" age="" gender="" description="*********************************************** &lt;br/&gt;3503(b.1), Criminal Trespass - Simple Trespasser&lt;br/&gt;"/><marker lat="40.449920330979076" lng="-79.974597253786143" zone="Zone 2" incidentdate="2015-06-06" incidenttime="21:09:00" incidentnumber="15101955" address="2400 block Chauncey Dr" type="OFFENSE" age="" gender="" description="*********************************************** &lt;br/&gt;2702, Aggravated Assault.&lt;br/&gt;8106, Shots Fired&lt;br/&gt;"/><marker lat="40.455867257830462" lng="-79.994791192569735" zone="Zone 1" incidentdate="2015-06-06" incidenttime="03:31:00" incidentnumber="15101455" address="900 block Peralta St" type="OFFENSE" age="" gender="" description="*********************************************** &lt;br/&gt;2701, Simple Assault.&lt;br/&gt;"/><marker lat="40.422180596183011" lng="-79.917375474613493" zone="Zone 4" incidentdate="2015-06-06" incidenttime="12:00:00" incidentnumber="15101925" address="Rosemont Ln" type="OFFENSE" age="" gender="" description="*********************************************** &lt;br/&gt;3304(a)(5), CRIMINAL MISCHIEF - Intentionally Damages Real Or Personal Property Of Another&lt;br/&gt;"/><marker lat="40.381405037691927" lng="-79.927667308721652" zone="Zone 4" incidentdate="2015-06-06" incidenttime="05:30:00" incidentnumber="15101529" address="Slate St &amp; Mifflin Rd" type="OFFENSE" age="" gender="" description="*********************************************** &lt;br/&gt;3502, Burglary.&lt;br/&gt;"/><marker lat="40.465757913835297" lng="-79.929035730197427" zone="Zone 5" incidentdate="2015-06-06" incidenttime="10:43:00" incidentnumber="15101598" address="300 block N Negley Ave" type="OFFENSE" age="" gender="" description="*********************************************** &lt;br/&gt;3921(a), Theft by Unlawful Taking or Disposition - Movable item&lt;br/&gt;"/><marker lat="40.418314999708905" lng="-79.998897118093339" zone="Zone 3" incidentdate="2015-06-06" incidenttime="08:30:00" incidentnumber="15101540" address="Curtin Ave" type="OFFENSE" age="" gender="" description="*********************************************** &lt;br/&gt;3928, Unauthorized Use of Automobile and Other Vehicles.&lt;br/&gt;"/><marker lat="40.440841979883878" lng="-80.006751980364669" zone="Zone 2" incidentdate="2015-06-06" incidenttime="20:00:00" incidentnumber="15101910" address="Liberty Ave &amp; Commonwealth Pl" type="OFFENSE" age="" gender="" description="*********************************************** &lt;br/&gt;2709(a)(3), Harassment No Legitimate Purpose&lt;br/&gt;"/><marker lat="40.408233362433364" lng="-79.943897818758742" zone="Zone 4" incidentdate="2015-06-06" incidenttime="00:48:00" incidentnumber="15101356" address="5000 block 2nd Ave" type="OFFENSE" age="" gender="" description="*********************************************** &lt;br/&gt;3304, Criminal Mischief.&lt;br/&gt;3923, Theft by Extortion.&lt;br/&gt;3924, Theft of Property Lost, Mislaid or Delivered by Mistake.&lt;br/&gt;"/><marker lat="40.44511004552583" lng="-80.039246537687731" zone="Zone 6" incidentdate="2015-06-06" incidenttime="02:28:00" incidentnumber="15101425" address="700 block Lorenz Ave" type="OFFENSE" age="" gender="" description="*********************************************** &lt;br/&gt;2702, Aggravated Assault.&lt;br/&gt;3304, Criminal Mischief.&lt;br/&gt;2705, Recklessly Endangering Another Person.&lt;br/&gt;"/><marker lat="40.475614209651539" lng="-79.939923020458423" zone="Zone 5" incidentdate="2015-06-06" incidenttime="17:30:00" incidentnumber="15101862" address="900 block Brintell St" type="OFFENSE" age="" gender="" description="*********************************************** &lt;br/&gt;3921(a), Theft by Unlawful Taking or Disposition - Movable item&lt;br/&gt;3503(b.1), Criminal Trespass - Simple Trespasser&lt;br/&gt;"/><marker lat="40.440973287716929" lng="-80.00347066027409" zone="Zone 2" incidentdate="2015-06-06" incidenttime="02:00:00" incidentnumber="15101724" address="Forbes Ave &amp; Delray St" type="OFFENSE" age="" gender="" description="*********************************************** &lt;br/&gt;3745, Accidents Involving Damage to Unattended Veh.or Prop.&lt;br/&gt;"/><marker lat="40.4462578" lng="-80.0014778" zone="Zone 2" incidentdate="2015-06-06" incidenttime="17:50:00" incidentnumber="15101829" address="7th St Brg" type="OFFENSE" age="" gender="" description="*********************************************** &lt;br/&gt;8104, CLASS 1 - Suspicious Package or Device&lt;br/&gt;9489, Found Property&lt;br/&gt;"/><marker lat="40.421516474216503" lng="-79.926169748115257" zone="Zone 4" incidentdate="2015-06-06" incidenttime="08:00:00" incidentnumber="15101687" address="6400 block Landview Rd" type="OFFENSE" age="" gender="" description="*********************************************** &lt;br/&gt;3304, Criminal Mischief.&lt;br/&gt;"/><marker lat="40.457627539844381" lng="-79.931466548365393" zone="Zone 4" incidentdate="2015-06-06" incidenttime="01:23:00" incidentnumber="15101383" address="5800 block Centre Ave" type="OFFENSE" age="" gender="" description="*********************************************** &lt;br/&gt;5506, Loitering and Prowling at Night&lt;br/&gt;3503(b.1), Criminal Trespass - Simple Trespasser&lt;br/&gt;"/><marker lat="40.5613902" lng="-80.2065183" zone="Zone 1" incidentdate="2015-06-06" incidenttime="03:20:00" incidentnumber="15101448" address="Ohio River Blvd &amp; Chateau St Ramp" type="OFFENSE" age="" gender="" description="*********************************************** &lt;br/&gt;3802(a)(1), DUI - General Impairment&lt;br/&gt;13(a)(16), Possession of Controlled Substance&lt;br/&gt;"/><marker lat="40.445926173410676" lng="-80.052351688864789" zone="Zone 6" incidentdate="2015-06-06" incidenttime="21:14:00" incidentnumber="15073136" address="1000 block Woodlow St" type="OFFENSE" age="" gender="" description="*********************************************** &lt;br/&gt;2701(a)(3), Simple Assault - Attempts by Physical Menace&lt;br/&gt;2706, Terroristic Threats.&lt;br/&gt;2701(a)(1), Simple Assault - Intent., Know., Reckless.Cause Bod. Injury&lt;br/&gt;"/><marker lat="40.455504998738647" lng="-80.007850467221047" zone="Zone 1" incidentdate="2015-06-06" incidenttime="08:52:00" incidentnumber="15101542" address="100 block W North Ave" type="OFFENSE" age="" gender="" description="*********************************************** &lt;br/&gt;9488, False  Burglar Alarm&lt;br/&gt;"/><marker lat="40.395220820695485" lng="-80.022485571709225" zone="Zone 6" incidentdate="2015-06-06" incidenttime="08:10:00" incidentnumber="15101524" address="600 block Brookline Blvd" type="OFFENSE" age="" gender="" description="*********************************************** &lt;br/&gt;3502, Burglary.&lt;br/&gt;"/><marker lat="40.415050819482282" lng="-79.990622790173717" zone="Zone 3" incidentdate="2015-06-06" incidenttime="03:08:00" incidentnumber="15101441" address="200 block Rochelle St" type="OFFENSE" age="" gender="" description="*********************************************** &lt;br/&gt;5503, Disorderly Conduct.&lt;br/&gt;"/><marker lat="40.479829245655225" lng="-80.001901444196207" zone="Zone 1" incidentdate="2015-06-06" incidenttime="21:32:00" incidentnumber="15101968" address="400 block Mt Pleasant Rd" type="OFFENSE" age="" gender="" description="*********************************************** &lt;br/&gt;3304, Criminal Mischief.&lt;br/&gt;"/><marker lat="40.395220820695485" lng="-80.022485571709225" zone="Zone 6" incidentdate="2015-06-06" incidenttime="08:26:00" incidentnumber="15101585" address="600 block Brookline Blvd" type="OFFENSE" age="" gender="" description="*********************************************** &lt;br/&gt;9501, Bench Warrant&lt;br/&gt;"/><marker lat="40.451177701210597" lng="-79.890010656510853" zone="Zone 5" incidentdate="2015-06-06" incidenttime="02:59:00" incidentnumber="15101437" address="7700 block Tioga St" type="OFFENSE" age="" gender="" description="*********************************************** &lt;br/&gt;4302, Periods for Requiring Lighted Lamps.&lt;br/&gt;3334, Turning Movements and Required Signals.&lt;br/&gt;3802(c), DUI - Highest Rate of Alcohol - BAC &gt;= .16%&lt;br/&gt;3802(a)(1), DUI - General Impairment&lt;br/&gt;"/><marker lat="40.45803936285224" lng="-79.904251416277006" zone="Zone 5" incidentdate="2015-06-06" incidenttime="00:08:00" incidentnumber="15101326" address="6900 block Frankstown Ave" type="OFFENSE" age="" gender="" description="*********************************************** &lt;br/&gt;4953, Retaliation Against Witness,Victim or Party.&lt;br/&gt;2701, Simple Assault.&lt;br/&gt;2706, Terroristic Threats.&lt;br/&gt;"/><marker lat="40.460302578526942" lng="-80.006980071080037" zone="Zone 1" incidentdate="2015-06-06" incidenttime="08:30:00" incidentnumber="15101768" address="1700 block Belleau Dr" type="OFFENSE" age="" gender="" description="*********************************************** &lt;br/&gt;2701, Simple Assault.&lt;br/&gt;"/><marker lat="40.43007247445037" lng="-80.053908499092216" zone="Zone 6" incidentdate="2015-06-06" incidenttime="13:00:00" incidentnumber="15101880" address="2200 block Noblestown Rd" type="OFFENSE" age="" gender="" description="*********************************************** &lt;br/&gt;3934, Theft from Vehicle&lt;br/&gt;"/><marker lat="40.477837495837427" lng="-79.954649839944693" zone="Zone 2" incidentdate="2015-06-06" incidenttime="01:45:00" incidentnumber="15101662" address="5100 block Carnegie St" type="OFFENSE" age="" gender="" description="*********************************************** &lt;br/&gt;3503(b)(1)(ii), Defiant Trespass Notice Posted by Sign(s)&lt;br/&gt;2709, Harassment (Non-Specific)&lt;br/&gt;3921, Theft by Unlawful Taking or Disposition.&lt;br/&gt;"/><marker lat="40.454821912402132" lng="-80.013545578756904" zone="Zone 1" incidentdate="2015-06-06" incidenttime="09:00:00" incidentnumber="15101731" address="1200 block Buena Vista St" type="OFFENSE" age="" gender="" description="*********************************************** &lt;br/&gt;3921(a), Theft by Unlawful Taking or Disposition - Movable item&lt;br/&gt;"/><marker lat="40.392871479647226" lng="-80.019186485910737" zone="Zone 6" incidentdate="2015-06-06" incidenttime="16:00:00" incidentnumber="15101758" address="900 block Brookline Blvd" type="OFFENSE" age="" gender="" description="*********************************************** &lt;br/&gt;3304, Criminal Mischief.&lt;br/&gt;"/><marker lat="40.470345759004445" lng="-79.908617801882158" zone="Zone 5" incidentdate="2015-06-06" incidenttime="22:10:00" incidentnumber="15101971" address="Washington Blvd &amp; Negley Run Blvd" type="ARREST" age="31" gender="M" description="*********************************************** &lt;br/&gt;3802(d)(2), DUI - Drug - Impaired Ability&lt;br/&gt;3736, Reckless Driving&lt;br/&gt;"/><marker lat="40.429327630246611" lng="-79.974546834720641" zone="Zone 3" incidentdate="2015-06-06" incidenttime="03:42:00" incidentnumber="15101449" address="S 22nd St &amp; Sidney St" type="ARREST" age="22" gender="M" description="*********************************************** &lt;br/&gt;1301, Registration and Certificate of Title Required.&lt;br/&gt;1543, Driving While Operating Privilege is Suspended or Revoked.&lt;br/&gt;3802(a)(1), DUI - General Impairment&lt;br/&gt;"/><marker lat="40.457627539844381" lng="-79.931466548365393" zone="Zone 4" incidentdate="2015-06-06" incidenttime="01:34:00" incidentnumber="15101383" address="5800 block Centre Ave" type="ARREST" age="22" gender="M" description="*********************************************** &lt;br/&gt;5506, Loitering and Prowling at Night&lt;br/&gt;3503(b.1), Criminal Trespass - Simple Trespasser&lt;br/&gt;"/><marker lat="40.408233362433364" lng="-79.943897818758742" zone="Zone 4" incidentdate="2015-06-06" incidenttime="01:13:00" incidentnumber="15101356" address="5000 block 2nd Ave" type="ARREST" age="45" gender="M" description="*********************************************** &lt;br/&gt;3304, Criminal Mischief.&lt;br/&gt;3923, Theft by Extortion.&lt;br/&gt;3924, Theft of Property Lost, Mislaid or Delivered by Mistake.&lt;br/&gt;"/><marker lat="40.467876401574117" lng="-79.907231654400434" zone="Zone 5" incidentdate="2015-06-06" incidenttime="20:50:00" incidentnumber="15101938" address="100 block Larimer Ave" type="ARREST" age="27" gender="M" description="*********************************************** &lt;br/&gt;9501, Bench Warrant&lt;br/&gt;"/><marker lat="40.476585213994042" lng="-80.030086763205603" zone="Zone 1" incidentdate="2015-06-06" incidenttime="18:30:00" incidentnumber="15101840" address="Central Ave &amp; Woods Run Ave" type="ARREST" age="40" gender="F" description="*********************************************** &lt;br/&gt;5503(a)(1), DISORDERLY CONDUCT - ENGAGE IN FIGHTING&lt;br/&gt;2701, Simple Assault.&lt;br/&gt;5505, Public Drunkenness&lt;br/&gt;"/><marker lat="40.5613902" lng="-80.2065183" zone="Zone 1" incidentdate="2015-06-06" incidenttime="03:35:00" incidentnumber="15101448" address="Ohio River Blvd &amp; Chateau St Ramp" type="ARREST" age="31" gender="F" description="*********************************************** &lt;br/&gt;3802(a)(1), DUI - General Impairment&lt;br/&gt;13(a)(16), Possession of Controlled Substance&lt;br/&gt;"/><marker lat="40.395220820695485" lng="-80.022485571709225" zone="Zone 6" incidentdate="2015-06-06" incidenttime="08:26:00" incidentnumber="15101524" address="600 block Brookline Blvd" type="ARREST" age="26" gender="M" description="*********************************************** &lt;br/&gt;3502, Burglary.&lt;br/&gt;"/><marker lat="40.458608795008487" lng="-79.902074938407978" zone="Zone 5" incidentdate="2015-06-06" incidenttime="00:30:00" incidentnumber="15101330" address="900 block Gerritt St" type="ARREST" age="21" gender="M" description="*********************************************** &lt;br/&gt;6106, Firearms not to be Carried without a License.&lt;br/&gt;"/><marker lat="40.451151142105047" lng="-79.930424097595122" zone="Zone 4" incidentdate="2015-06-06" incidenttime="02:47:00" incidentnumber="15101428" address="5700 block Howe St" type="ARREST" age="29" gender="M" description="*********************************************** &lt;br/&gt;3503, Criminal Trespass&lt;br/&gt;3921(a), Theft by Unlawful Taking or Disposition - Movable item&lt;br/&gt;3502, Burglary.&lt;br/&gt;5505, Public Drunkenness&lt;br/&gt;"/><marker lat="40.465742686724063" lng="-79.981257181433378" zone="Zone 1" incidentdate="2015-06-06" incidenttime="03:45:00" incidentnumber="15091368" address="1900 block Lowrie St" type="ARREST" age="34" gender="F" description="*********************************************** &lt;br/&gt;2701, Simple Assault.&lt;br/&gt;"/><marker lat="40.451519614067784" lng="-79.931937558907734" zone="Zone 4" incidentdate="2015-06-06" incidenttime="18:00:00" incidentnumber="15091083" address="5600 block Walnut St" type="ARREST" age="" gender="M" description="*********************************************** &lt;br/&gt;3701, Robbery.&lt;br/&gt;903, Criminal Conspiracy.&lt;br/&gt;"/><marker lat="40.450892721440539" lng="-80.000843891836467" zone="Zone 1" incidentdate="2015-06-06" incidenttime="01:22:00" incidentnumber="15091341" address="300 block Cedar Ave" type="ARREST" age="23" gender="M" description="*********************************************** &lt;br/&gt;3503(a), Criminal Trespass&lt;br/&gt;13(a)(32), Paraphernalia - Use or Possession&lt;br/&gt;"/><marker lat="40.45858179352976" lng="-79.992016742966769" zone="Zone 1" incidentdate="2015-06-06" incidenttime="01:40:00" incidentnumber="15101388" address="1100 block Brabec St" type="ARREST" age="39" gender="M" description="*********************************************** &lt;br/&gt;2701, Simple Assault.&lt;br/&gt;4304(a)(1) Enhanced, Welfare of Children - Course of Conduct&lt;br/&gt;"/><marker lat="40.447500163348479" lng="-79.893003442015868" zone="Zone 4" incidentdate="2015-06-06" incidenttime="17:30:00" incidentnumber="15052736" address="Meade St &amp; Brushton Ave" type="ARREST" age="20" gender="M" description="*********************************************** &lt;br/&gt;13(a)(31), Marijuana: Possession Small Amount&lt;br/&gt;3334, Turning Movements and Required Signals.&lt;br/&gt;3323, Stop Signs and Yield Signs.&lt;br/&gt;13(a)(32), Paraphernalia - Use or Possession&lt;br/&gt;"/><marker lat="40.452022648610722" lng="-79.935513005350259" zone="Zone 4" incidentdate="2015-06-06" incidenttime="04:47:00" incidentnumber="15101480" address="700 block Copeland St" type="ARREST" age="25" gender="M" description="*********************************************** &lt;br/&gt;5505, Public Drunkenness&lt;br/&gt;3502, Burglary.&lt;br/&gt;"/><marker lat="40.445926173410676" lng="-80.052351688864789" zone="Zone 6" incidentdate="2015-06-06" incidenttime="21:06:00" incidentnumber="15073136" address="1000 block Woodlow St" type="ARREST" age="15" gender="F" description="*********************************************** &lt;br/&gt;2701(a)(3), Simple Assault - Attempts by Physical Menace&lt;br/&gt;2706, Terroristic Threats.&lt;br/&gt;2701(a)(1), Simple Assault - Intent., Know., Reckless.Cause Bod. Injury&lt;br/&gt;"/><marker lat="40.441024249715781" lng="-79.95736833680553" zone="Zone 4" incidentdate="2015-06-06" incidenttime="06:43:00" incidentnumber="15101507" address="3700 block Forbes Ave" type="ARREST" age="24" gender="M" description="*********************************************** &lt;br/&gt;3503.B1I, DEF. TRESPASS ACTUAL COMMUNICATION&lt;br/&gt;5503, Disorderly Conduct.&lt;br/&gt;"/><marker lat="40.447978951773912" lng="-79.899166438752616" zone="Zone 4" incidentdate="2015-06-06" incidenttime="02:10:00" incidentnumber="15101400" address="7300 block Penn Ave" type="ARREST" age="24" gender="F" description="*********************************************** &lt;br/&gt;3714, Careless Driving&lt;br/&gt;3802(a)(1), DUI - General Impairment&lt;br/&gt;3802(c), DUI - Highest Rate of Alcohol - BAC &gt;= .16%&lt;br/&gt;1786, Required Financial Responsibility.&lt;br/&gt;"/><marker lat="40.395220820695485" lng="-80.022485571709225" zone="Zone 6" incidentdate="2015-06-06" incidenttime="08:26:00" incidentnumber="15101585" address="600 block Brookline Blvd" type="ARREST" age="26" gender="M" description="*********************************************** &lt;br/&gt;9501, Bench Warrant&lt;br/&gt;"/><marker lat="40.421531877189601" lng="-79.993577564166102" zone="Zone 3" incidentdate="2015-06-06" incidenttime="09:25:00" incidentnumber="15082693" address="800 block E Warrington Ave" type="ARREST" age="52" gender="M" description="*********************************************** &lt;br/&gt;2701, Simple Assault.&lt;br/&gt;"/><marker lat="40.455867257830462" lng="-79.994791192569735" zone="Zone 1" incidentdate="2015-06-06" incidenttime="03:54:00" incidentnumber="15101455" address="900 block Peralta St" type="ARREST" age="28" gender="M" description="*********************************************** &lt;br/&gt;2701, Simple Assault.&lt;br/&gt;"/><marker lat="40.451177701210597" lng="-79.890010656510853" zone="Zone 5" incidentdate="2015-06-06" incidenttime="03:05:00" incidentnumber="15101437" address="7700 block Tioga St" type="ARREST" age="54" gender="M" description="*********************************************** &lt;br/&gt;4302, Periods for Requiring Lighted Lamps.&lt;br/&gt;3334, Turning Movements and Required Signals.&lt;br/&gt;3802(c), DUI - Highest Rate of Alcohol - BAC &gt;= .16%&lt;br/&gt;3802(a)(1), DUI - General Impairment&lt;br/&gt;"/><marker lat="40.461697469273695" lng="-80.07547856033473" zone="Zone 6" incidentdate="2015-06-06" incidenttime="01:04:00" incidentnumber="15101360" address="Wind Gap Ave &amp; Youghiogheny St" type="ARREST" age="27" gender="F" description="*********************************************** &lt;br/&gt;4581, Restraint Systems.&lt;br/&gt;1511, Carrying and Exhibiting Drivers License on Demand.&lt;br/&gt;3802(c), DUI - Highest Rate of Alcohol - BAC &gt;= .16%&lt;br/&gt;1311, Registration Card to be Signed and Exhibited on Demand.&lt;br/&gt;4107(b)(2), Vehicle Equipment Standards&lt;br/&gt;3802(a)(1), DUI - General Impairment&lt;br/&gt;1786, Required Financial Responsibility.&lt;br/&gt;"/><marker lat="40.455867257830462" lng="-79.994791192569735" zone="Zone 1" incidentdate="2015-06-06" incidenttime="03:54:00" incidentnumber="15101455" address="900 block Peralta St" type="ARREST" age="23" gender="M" description="*********************************************** &lt;br/&gt;2701, Simple Assault.&lt;br/&gt;"/></markers>
