<?xml version="1.0"?>
<markers><marker lat="40.475743982324708" lng="-79.999473074803177" zone="Zone 1" incidentdate="2015-11-21" incidenttime="16:46:00" incidentnumber="15223951" address="800 block Mt Pleasant Rd" type="OFFENSE" age="" gender="" description="*********************************************** &lt;br/&gt;2709(a), Harassment.&lt;br/&gt;"/><marker lat="40.455438094414902" lng="-79.894638087707364" zone="Zone 5" incidentdate="2015-11-21" incidenttime="19:00:00" incidentnumber="15244037" address="7300 block Fleury Way" type="OFFENSE" age="" gender="" description="*********************************************** &lt;br/&gt;029, Missing Juvenile&lt;br/&gt;"/><marker lat="40.437765998839865" lng="-80.00010722975037" zone="Zone 2" incidentdate="2015-11-21" incidenttime="21:10:00" incidentnumber="15224118" address="200 block Smithfield St" type="OFFENSE" age="" gender="" description="*********************************************** &lt;br/&gt;13(a)(16), Possession of Controlled Substance&lt;br/&gt;13(a)(32), Paraphernalia - Use or Possession&lt;br/&gt;5503, Disorderly Conduct.&lt;br/&gt;"/><marker lat="40.415050819482282" lng="-79.990622790173717" zone="Zone 3" incidentdate="2015-11-21" incidenttime="03:16:00" incidentnumber="15223559" address="200 block Rochelle St" type="OFFENSE" age="" gender="" description="*********************************************** &lt;br/&gt;9496, Dead on Arrival (DOA)&lt;br/&gt;"/><marker lat="40.491171083037642" lng="-80.019869774112294" zone="Zone 1" incidentdate="2015-11-21" incidenttime="09:19:00" incidentnumber="15223662" address="4000 block Perrysville Ave" type="OFFENSE" age="" gender="" description="*********************************************** &lt;br/&gt;9501, Bench Warrant&lt;br/&gt;3503, Criminal Trespass&lt;br/&gt;"/><marker lat="40.446533001729442" lng="-79.968416866216259" zone="Zone 2" incidentdate="2015-11-21" incidenttime="14:00:00" incidentnumber="15223873" address="2600 block Centre Ave" type="OFFENSE" age="" gender="" description="*********************************************** &lt;br/&gt;3921, Theft by Unlawful Taking or Disposition.&lt;br/&gt;"/><marker lat="40.429678888541247" lng="-79.980468418252656" zone="Zone 3" incidentdate="2015-11-21" incidenttime="01:45:00" incidentnumber="15223484" address="S 18th St &amp; Sidney St" type="OFFENSE" age="" gender="" description="*********************************************** &lt;br/&gt;13(a)(31), Marijuana: Possession Small Amount&lt;br/&gt;"/><marker lat="40.447407786726266" lng="-79.973334324523677" zone="Zone 2" incidentdate="2015-11-21" incidenttime="03:10:00" incidentnumber="15223533" address="Chauncey St &amp; Wylie Ave" type="OFFENSE" age="" gender="" description="*********************************************** &lt;br/&gt;3802(a)(1), DUI - General Impairment&lt;br/&gt;3802(c), DUI - Highest Rate of Alcohol - BAC &gt;= .16%&lt;br/&gt;"/><marker lat="40.427222544251535" lng="-79.97140725023084" zone="Zone 3" incidentdate="2015-11-21" incidenttime="16:40:00" incidentnumber="15223943" address="2400 block Sarah St" type="OFFENSE" age="" gender="" description="*********************************************** &lt;br/&gt;3921(a), Theft by Unlawful Taking or Disposition - Movable item&lt;br/&gt;"/><marker lat="40.457742801986356" lng="-80.027576695959695" zone="Zone 1" incidentdate="2015-11-21" incidenttime="09:00:00" incidentnumber="15223666" address="1400 block Columbus Ave" type="OFFENSE" age="" gender="" description="*********************************************** &lt;br/&gt;3304, Criminal Mischief.&lt;br/&gt;"/><marker lat="40.454948691850667" lng="-80.009640272832598" zone="Zone 1" incidentdate="2015-11-21" incidenttime="03:45:00" incidentnumber="15223576" address="300 block E North Ave" type="OFFENSE" age="" gender="" description="*********************************************** &lt;br/&gt;3502, Burglary.&lt;br/&gt;"/><marker lat="40.460302578526942" lng="-80.006980071080037" zone="Zone 1" incidentdate="2015-11-21" incidenttime="05:23:00" incidentnumber="15223627" address="1700 block Belleau Dr" type="OFFENSE" age="" gender="" description="*********************************************** &lt;br/&gt;3921, Theft by Unlawful Taking or Disposition.&lt;br/&gt;"/><marker lat="40.476712367606709" lng="-80.028082397973151" zone="Zone 1" incidentdate="2015-11-21" incidenttime="09:45:00" incidentnumber="15223685" address="3300 block Shelby St" type="OFFENSE" age="" gender="" description="*********************************************** &lt;br/&gt;3304, Criminal Mischief.&lt;br/&gt;"/><marker lat="40.457742801986356" lng="-80.027576695959695" zone="Zone 1" incidentdate="2015-11-21" incidenttime="09:00:00" incidentnumber="15223702" address="1400 block Columbus Ave" type="OFFENSE" age="" gender="" description="*********************************************** &lt;br/&gt;3304, Criminal Mischief.&lt;br/&gt;"/><marker lat="40.426340817055319" lng="-79.988710303817541" zone="Zone 3" incidentdate="2015-11-21" incidenttime="04:47:00" incidentnumber="15223598" address="S 10th St" type="OFFENSE" age="" gender="" description="*********************************************** &lt;br/&gt;2701, Simple Assault.&lt;br/&gt;"/><marker lat="40.428585203983602" lng="-79.981869007680203" zone="Zone 3" incidentdate="2015-11-21" incidenttime="00:55:00" incidentnumber="15223556" address="1700 block E Carson St" type="OFFENSE" age="" gender="" description="*********************************************** &lt;br/&gt;2701, Simple Assault.&lt;br/&gt;"/><marker lat="40.451617038816323" lng="-80.001145711453432" zone="Zone 1" incidentdate="2015-11-21" incidenttime="03:00:00" incidentnumber="15223550" address="Cedar Ave &amp; Pressley St" type="OFFENSE" age="" gender="" description="*********************************************** &lt;br/&gt;13(a)(32), Paraphernalia - Use or Possession&lt;br/&gt;9501, Bench Warrant&lt;br/&gt;4703, Operation of Vehicle without Official Certif. of Inspection&lt;br/&gt;1301, Registration and Certificate of Title Required.&lt;br/&gt;7122, Altered, Forged or Counterfeit Documents and Plates&lt;br/&gt;"/><marker lat="40.46967960794337" lng="-80.03188665644052" zone="Zone 1" incidentdate="2015-11-21" incidenttime="15:38:00" incidentnumber="15223906" address="1400 block Dickson St" type="OFFENSE" age="" gender="" description="*********************************************** &lt;br/&gt;3934, Theft from Vehicle&lt;br/&gt;"/><marker lat="40.429678888541247" lng="-79.980468418252656" zone="Zone 3" incidentdate="2015-11-21" incidenttime="01:05:00" incidentnumber="15223455" address="S 18th St &amp; Sidney St" type="OFFENSE" age="" gender="" description="*********************************************** &lt;br/&gt;13(a)(31), Marijuana: Possession Small Amount&lt;br/&gt;"/><marker lat="40.44121932934393" lng="-80.040028580561383" zone="Zone 6" incidentdate="2015-11-21" incidenttime="12:05:00" incidentnumber="15223784" address="700 block Steuben St" type="OFFENSE" age="" gender="" description="*********************************************** &lt;br/&gt;3926.C1, THEFT OF SERVICES&lt;br/&gt;"/><marker lat="40.429228381173026" lng="-79.980513714480466" zone="Zone 3" incidentdate="2015-11-21" incidenttime="02:13:00" incidentnumber="15223500" address="S 18th St &amp; Wrights Way" type="OFFENSE" age="" gender="" description="*********************************************** &lt;br/&gt;13(a)(31), Marijuana: Possession Small Amount&lt;br/&gt;4302, Periods for Requiring Lighted Lamps.&lt;br/&gt;"/><marker lat="40.473292241511828" lng="-80.000549788744806" zone="Zone 1" incidentdate="2015-11-21" incidenttime="02:14:00" incidentnumber="15223514" address="Essen St &amp; Sunset Ave" type="OFFENSE" age="" gender="" description="*********************************************** &lt;br/&gt;1501, Drivers Required to be Licensed.&lt;br/&gt;1543, Driving While Operating Privilege is Suspended or Revoked.&lt;br/&gt;3802(a)(1), DUI - General Impairment&lt;br/&gt;3714, Careless Driving&lt;br/&gt;3802(b), DUI - High Rate of Alchol - BAC &gt;=.10% &lt;.16%&lt;br/&gt;"/><marker lat="40.452666925006717" lng="-80.024330495906881" zone="Zone 1" incidentdate="2015-11-21" incidenttime="20:00:00" incidentnumber="15224073" address="1300 block W North Ave" type="OFFENSE" age="" gender="" description="*********************************************** &lt;br/&gt;3304, Criminal Mischief.&lt;br/&gt;"/><marker lat="40.456844183206378" lng="-80.027287755350386" zone="Zone 1" incidentdate="2015-11-21" incidenttime="06:40:00" incidentnumber="15223619" address="1400 block Juniata St" type="OFFENSE" age="" gender="" description="*********************************************** &lt;br/&gt;3304, Criminal Mischief.&lt;br/&gt;"/><marker lat="40.455094663363312" lng="-79.992613815618611" zone="Zone 1" incidentdate="2015-11-21" incidenttime="23:23:00" incidentnumber="15224195" address="Heinz St" type="OFFENSE" age="" gender="" description="*********************************************** &lt;br/&gt;9488, False  Burglar Alarm&lt;br/&gt;"/><marker lat="40.443859154502618" lng="-79.938709453477671" zone="Zone 4" incidentdate="2015-11-21" incidenttime="00:40:00" incidentnumber="15223439" address="5100 block Beeler St" type="OFFENSE" age="" gender="" description="*********************************************** &lt;br/&gt;5104, Resisting Arrest or Other Law Enforcement.&lt;br/&gt;5505, Public Drunkenness&lt;br/&gt;3503.B1I, DEF. TRESPASS ACTUAL COMMUNICATION&lt;br/&gt;5503(a)(2), DISORDERLY CONDUCT - UNREASONABLE NOISE&lt;br/&gt;5502, Failure of Disorderly Persons to Disperse&lt;br/&gt;"/><marker lat="40.456920521170254" lng="-79.998827988214927" zone="Zone 1" incidentdate="2015-11-21" incidenttime="11:05:00" incidentnumber="15223730" address="East St &amp; E North Ave" type="OFFENSE" age="" gender="" description="*********************************************** &lt;br/&gt;5507, Obstructing Highways and Passages.&lt;br/&gt;"/><marker lat="40.447132689806871" lng="-79.89516170186954" zone="Zone 4" incidentdate="2015-11-21" incidenttime="06:40:00" incidentnumber="15223633" address="Penn Ave &amp; N Braddock Ave" type="OFFENSE" age="" gender="" description="*********************************************** &lt;br/&gt;3743, Accidents Involving Damage to Attended Veh. or Property&lt;br/&gt;"/><marker lat="40.464761679318208" lng="-79.915052881175811" zone="Zone 5" incidentdate="2015-11-21" incidenttime="23:00:00" incidentnumber="15224190" address="400 block Larimer Ave" type="OFFENSE" age="" gender="" description="*********************************************** &lt;br/&gt;9093, Indirect Criminal Contempt&lt;br/&gt;"/><marker lat="40.455427910198594" lng="-80.025252177631543" zone="Zone 1" incidentdate="2015-11-21" incidenttime="10:20:00" incidentnumber="15223708" address="1300 block Liverpool St" type="OFFENSE" age="" gender="" description="*********************************************** &lt;br/&gt;3304(a)(5), CRIMINAL MISCHIEF - Intentionally Damages Real Or Personal Property Of Another&lt;br/&gt;"/><marker lat="40.452666925006717" lng="-80.024330495906881" zone="Zone 1" incidentdate="2015-11-21" incidenttime="13:00:00" incidentnumber="15223827" address="1300 block W North Ave" type="OFFENSE" age="" gender="" description="*********************************************** &lt;br/&gt;3304, Criminal Mischief.&lt;br/&gt;"/><marker lat="40.454972264822828" lng="-80.026637639364495" zone="Zone 1" incidentdate="2015-11-21" incidenttime="10:00:00" incidentnumber="15223703" address="Manhattan St &amp; Liverpool St" type="OFFENSE" age="" gender="" description="*********************************************** &lt;br/&gt;3304(a)(5), CRIMINAL MISCHIEF - Intentionally Damages Real Or Personal Property Of Another&lt;br/&gt;"/><marker lat="40.446700481900621" lng="-79.97450983784141" zone="Zone 2" incidentdate="2015-11-21" incidenttime="18:00:00" incidentnumber="15233995" address="2300 block Wylie Ave" type="OFFENSE" age="" gender="" description="*********************************************** &lt;br/&gt;2709, Harassment (Non-Specific)&lt;br/&gt;4906, False Reports to Law Enforcement Authorities.&lt;br/&gt;2709(b), Stalking&lt;br/&gt;"/><marker lat="40.449216527656368" lng="-79.882636576329489" zone="Zone 5" incidentdate="2015-11-21" incidenttime="07:00:00" incidentnumber="15223637" address="500 block Singer Pl" type="OFFENSE" age="" gender="" description="*********************************************** &lt;br/&gt;3934, Theft from Vehicle&lt;br/&gt;"/><marker lat="40.457742801986356" lng="-80.027576695959695" zone="Zone 1" incidentdate="2015-11-21" incidenttime="09:00:00" incidentnumber="15223667" address="1400 block Columbus Ave" type="OFFENSE" age="" gender="" description="*********************************************** &lt;br/&gt;3304(a)(5), CRIMINAL MISCHIEF - Intentionally Damages Real Or Personal Property Of Another&lt;br/&gt;3934, Theft from Vehicle&lt;br/&gt;"/><marker lat="40.442741998688419" lng="-80.002149663856855" zone="Zone 2" incidentdate="2015-11-21" incidenttime="17:37:00" incidentnumber="15224007" address="6th St &amp; Penn Ave" type="OFFENSE" age="" gender="" description="*********************************************** &lt;br/&gt;9489, Found Property&lt;br/&gt;"/><marker lat="40.444880670467576" lng="-79.983793379021847" zone="Zone 2" incidentdate="2015-11-21" incidenttime="01:07:00" incidentnumber="15223458" address="200 block Hillside Dr" type="OFFENSE" age="" gender="" description="*********************************************** &lt;br/&gt;5104, Resisting Arrest or Other Law Enforcement.&lt;br/&gt;2701, Simple Assault.&lt;br/&gt;"/><marker lat="40.47401783166228" lng="-79.962015845955293" zone="Zone 2" incidentdate="2015-11-21" incidenttime="00:26:00" incidentnumber="15223435" address="100 block 45th St" type="OFFENSE" age="" gender="" description="*********************************************** &lt;br/&gt;3921(a), Theft by Unlawful Taking or Disposition - Movable item&lt;br/&gt;"/><marker lat="40.456633448414188" lng="-79.936435139782176" zone="Zone 4" incidentdate="2015-11-21" incidenttime="15:35:00" incidentnumber="15223908" address="5500 block Centre Ave" type="OFFENSE" age="" gender="" description="*********************************************** &lt;br/&gt;3929, Retail Theft.&lt;br/&gt;"/><marker lat="40.455427910198594" lng="-80.025252177631543" zone="Zone 1" incidentdate="2015-11-21" incidenttime="11:25:00" incidentnumber="15223753" address="1300 block Liverpool St" type="OFFENSE" age="" gender="" description="*********************************************** &lt;br/&gt;3304, Criminal Mischief.&lt;br/&gt;"/><marker lat="40.470143524632661" lng="-80.028426326254063" zone="Zone 1" incidentdate="2015-11-21" incidenttime="20:59:00" incidentnumber="15224113" address="2800 block Wadlow St" type="OFFENSE" age="" gender="" description="*********************************************** &lt;br/&gt;3304, Criminal Mischief.&lt;br/&gt;"/><marker lat="40.437995762053241" lng="-80.034564858295411" zone="Zone 6" incidentdate="2015-11-21" incidenttime="02:49:00" incidentnumber="15223545" address="Wabash St &amp; Plank St" type="OFFENSE" age="" gender="" description="*********************************************** &lt;br/&gt;1501, Drivers Required to be Licensed.&lt;br/&gt;3802(a)(1), DUI - General Impairment&lt;br/&gt;3802(b), DUI - High Rate of Alchol - BAC &gt;=.10% &lt;.16%&lt;br/&gt;4107(b)(2), Vehicle Equipment Standards&lt;br/&gt;3310, Following Too Closely.&lt;br/&gt;1784, Proof of Financial Responsibility Following Violation.&lt;br/&gt;"/><marker lat="40.429369378144116" lng="-79.986184210410613" zone="Zone 3" incidentdate="2015-11-21" incidenttime="12:00:00" incidentnumber="15223786" address="1200 block Bingham St" type="OFFENSE" age="" gender="" description="*********************************************** &lt;br/&gt;3921, Theft by Unlawful Taking or Disposition.&lt;br/&gt;"/><marker lat="40.454750376846917" lng="-79.874078378331518" zone="Zone 5" incidentdate="2015-11-21" incidenttime="14:30:00" incidentnumber="15223892" address="2300 block Park Hill Dr" type="OFFENSE" age="" gender="" description="*********************************************** &lt;br/&gt;3921, Theft by Unlawful Taking or Disposition.&lt;br/&gt;"/><marker lat="40.451701445331011" lng="-79.953845505378652" zone="Zone 4" incidentdate="2015-11-21" incidenttime="08:00:00" incidentnumber="15223646" address="300 block N Dithridge St" type="OFFENSE" age="" gender="" description="*********************************************** &lt;br/&gt;3304(a)(5), CRIMINAL MISCHIEF - Intentionally Damages Real Or Personal Property Of Another&lt;br/&gt;3934, Theft from Vehicle&lt;br/&gt;"/><marker lat="40.458079657542726" lng="-80.026101218065349" zone="Zone 1" incidentdate="2015-11-21" incidenttime="00:01:00" incidentnumber="15223437" address="1300 block Columbus Ave" type="OFFENSE" age="" gender="" description="*********************************************** &lt;br/&gt;3304(a)(5), CRIMINAL MISCHIEF - Intentionally Damages Real Or Personal Property Of Another&lt;br/&gt;"/><marker lat="40.446314652723053" lng="-80.016316228653437" zone="Zone 1" incidentdate="2015-11-21" incidenttime="14:40:00" incidentnumber="15223880" address="100 block Art Rooney Ave" type="OFFENSE" age="" gender="" description="*********************************************** &lt;br/&gt;13(a)(31), Marijuana: Possession Small Amount&lt;br/&gt;13(a)(32), Paraphernalia - Use or Possession&lt;br/&gt;"/><marker lat="40.428567965192009" lng="-79.987317884623508" zone="Zone 3" incidentdate="2015-11-21" incidenttime="02:08:00" incidentnumber="15223505" address="1100 block E Carson St" type="OFFENSE" age="" gender="" description="*********************************************** &lt;br/&gt;3503(b)(1)(i), Actual Communication&lt;br/&gt;2705, Recklessly Endangering Another Person.&lt;br/&gt;2701, Simple Assault.&lt;br/&gt;5505, Public Drunkenness&lt;br/&gt;5121, Escape.&lt;br/&gt;"/><marker lat="40.470255659305934" lng="-80.028069313050878" zone="Zone 1" incidentdate="2015-11-21" incidenttime="09:00:00" incidentnumber="15223783" address="1200 block Dickson St" type="OFFENSE" age="" gender="" description="*********************************************** &lt;br/&gt;3502, Burglary.&lt;br/&gt;"/><marker lat="40.455602467562372" lng="-79.95008361176366" zone="Zone 5" incidentdate="2015-11-21" incidenttime="16:30:00" incidentnumber="15223961" address="100 block Morewood Ave" type="OFFENSE" age="" gender="" description="*********************************************** &lt;br/&gt;3304, Criminal Mischief.&lt;br/&gt;"/><marker lat="40.442741998688419" lng="-80.002149663856855" zone="Zone 2" incidentdate="2015-11-21" incidenttime="20:00:00" incidentnumber="15223278" address="Penn Ave &amp; 6th St" type="OFFENSE" age="" gender="" description="*********************************************** &lt;br/&gt;9489, Found Property&lt;br/&gt;"/><marker lat="40.489508279784538" lng="-80.018347066286765" zone="Zone 1" incidentdate="2015-11-21" incidenttime="10:08:00" incidentnumber="15223706" address="Perrysville Ave &amp; Baytree St" type="OFFENSE" age="" gender="" description="*********************************************** &lt;br/&gt;3714, Careless Driving&lt;br/&gt;3802(d)(2), DUI - Drug - Impaired Ability&lt;br/&gt;"/><marker lat="40.47452965780257" lng="-80.028667696752336" zone="Zone 1" incidentdate="2015-11-21" incidenttime="03:14:00" incidentnumber="15223560" address="3100 block Sorento St" type="OFFENSE" age="" gender="" description="*********************************************** &lt;br/&gt;2701, Simple Assault.&lt;br/&gt;"/><marker lat="40.459960660424144" lng="-79.897653899071486" zone="Zone 5" incidentdate="2015-11-21" incidenttime="15:45:00" incidentnumber="15223910" address="7100 block Monticello St" type="OFFENSE" age="" gender="" description="*********************************************** &lt;br/&gt;3921(a), Theft by Unlawful Taking or Disposition - Movable item&lt;br/&gt;"/><marker lat="40.457974795764926" lng="-79.960543862299758" zone="Zone 2" incidentdate="2015-11-21" incidenttime="15:58:00" incidentnumber="15223916" address="Bigelow Blvd &amp; Finland St" type="OFFENSE" age="" gender="" description="*********************************************** &lt;br/&gt;3701, Robbery.&lt;br/&gt;"/><marker lat="40.438224491241179" lng="-79.97746711026835" zone="Zone 2" incidentdate="2015-11-21" incidenttime="08:55:00" incidentnumber="15223657" address="2000 block Wyandotte St" type="OFFENSE" age="" gender="" description="*********************************************** &lt;br/&gt;5503(a)(1), DISORDERLY CONDUCT - ENGAGE IN FIGHTING&lt;br/&gt;"/><marker lat="40.446208159082936" lng="-79.980108720025981" zone="Zone 2" incidentdate="2015-11-21" incidenttime="03:30:00" incidentnumber="15223562" address="2100 block Webster Ave" type="OFFENSE" age="" gender="" description="*********************************************** &lt;br/&gt;9999, 9999 - (Misc. Incident):&lt;br/&gt;"/><marker lat="40.434437703476185" lng="-79.916386042416022" zone="Zone 4" incidentdate="2015-11-21" incidenttime="03:27:00" incidentnumber="15223570" address="6500 block Beacon St" type="OFFENSE" age="" gender="" description="*********************************************** &lt;br/&gt;3736, Reckless Driving&lt;br/&gt;1543, Driving While Operating Privilege is Suspended or Revoked.&lt;br/&gt;3742, Accidents Involving Death or Personal Injury&lt;br/&gt;3802(a)(1), DUI - General Impairment&lt;br/&gt;3802(c), DUI - Highest Rate of Alcohol - BAC &gt;= .16%&lt;br/&gt;3743, Accidents Involving Damage to Attended Veh. or Property&lt;br/&gt;3742.1, Accident Involv. Death/Inj. While not Licensed&lt;br/&gt;3301, Arson&lt;br/&gt;"/><marker lat="40.458166689746925" lng="-80.011791771187603" zone="Zone 1" incidentdate="2015-11-21" incidenttime="04:05:00" incidentnumber="15223581" address="400 block Alpine Ave" type="OFFENSE" age="" gender="" description="*********************************************** &lt;br/&gt;2701, Simple Assault.&lt;br/&gt;"/><marker lat="40.428131277738437" lng="-79.980832811884397" zone="Zone 3" incidentdate="2015-11-21" incidenttime="00:55:00" incidentnumber="15223447" address="100 block S 18th St" type="OFFENSE" age="" gender="" description="*********************************************** &lt;br/&gt;13(a)(31), Marijuana: Possession Small Amount&lt;br/&gt;3503(b)(1)(i), Actual Communication&lt;br/&gt;5503, Disorderly Conduct.&lt;br/&gt;5505, Public Drunkenness&lt;br/&gt;"/><marker lat="40.461958681798876" lng="-80.009844276032766" zone="Zone 1" incidentdate="2015-11-21" incidenttime="12:01:00" incidentnumber="15223780" address="1900 block Lithgow Ave" type="OFFENSE" age="" gender="" description="*********************************************** &lt;br/&gt;9999, 9999 - (Misc. Incident):&lt;br/&gt;"/><marker lat="40.450629963158747" lng="-80.018534435550123" zone="Zone 1" incidentdate="2015-11-21" incidenttime="16:30:00" incidentnumber="15223954" address="800 block Allegheny Ave" type="OFFENSE" age="" gender="" description="*********************************************** &lt;br/&gt;3921(a), Theft by Unlawful Taking or Disposition - Movable item&lt;br/&gt;"/><marker lat="40.478912650923803" lng="-80.010865632011971" zone="Zone 1" incidentdate="2015-11-21" incidenttime="12:23:00" incidentnumber="15223796" address="3200 block Orleans St" type="OFFENSE" age="" gender="" description="*********************************************** &lt;br/&gt;9488, False  Burglar Alarm&lt;br/&gt;"/><marker lat="40.4430537" lng="-79.9861727" zone="Zone 2" incidentdate="2015-11-21" incidenttime="13:00:00" incidentnumber="15223817" address="400 block Protectory Pl" type="OFFENSE" age="" gender="" description="*********************************************** &lt;br/&gt;3934, Theft from Vehicle&lt;br/&gt;"/><marker lat="40.459241184494772" lng="-80.005548013998464" zone="Zone 1" incidentdate="2015-11-21" incidenttime="18:05:00" incidentnumber="15223999" address="1600 block Sandusky Ct" type="OFFENSE" age="" gender="" description="*********************************************** &lt;br/&gt;13(a)(16), Possession of Controlled Substance&lt;br/&gt;13(a)(31), Marijuana: Possession Small Amount&lt;br/&gt;4910, Tampering with or Fabricating Physical Evidence.&lt;br/&gt;"/><marker lat="40.459338259348982" lng="-79.910541870217315" zone="Zone 5" incidentdate="2015-11-21" incidenttime="03:04:00" incidentnumber="15223525" address="Frankstown Ave &amp; Torrens St" type="OFFENSE" age="" gender="" description="*********************************************** &lt;br/&gt;1543, Driving While Operating Privilege is Suspended or Revoked.&lt;br/&gt;3334, Turning Movements and Required Signals.&lt;br/&gt;6106, Firearms not to be Carried without a License.&lt;br/&gt;"/><marker lat="40.458714806047702" lng="-80.027995936641673" zone="Zone 1" incidentdate="2015-11-21" incidenttime="12:35:00" incidentnumber="15223805" address="1400 block Adams St" type="OFFENSE" age="" gender="" description="*********************************************** &lt;br/&gt;3745, Accidents Involving Damage to Unattended Veh.or Prop.&lt;br/&gt;"/><marker lat="40.438687329552188" lng="-79.951832819378694" zone="Zone 4" incidentdate="2015-11-21" incidenttime="18:10:00" incidentnumber="15224062" address="3800 block Dawson St" type="OFFENSE" age="" gender="" description="*********************************************** &lt;br/&gt;9504, Lost Property&lt;br/&gt;"/><marker lat="40.455921176209607" lng="-80.027004941714608" zone="Zone 1" incidentdate="2015-11-21" incidenttime="03:01:00" incidentnumber="15223551" address="1400 block N Franklin St" type="OFFENSE" age="" gender="" description="*********************************************** &lt;br/&gt;3304, Criminal Mischief.&lt;br/&gt;"/><marker lat="40.437108644982182" lng="-79.963111490937152" zone="Zone 4" incidentdate="2015-11-21" incidenttime="16:05:00" incidentnumber="15223925" address="Forbes Ave &amp; Craft Ave" type="OFFENSE" age="" gender="" description="*********************************************** &lt;br/&gt;13(a)(31), Marijuana: Possession Small Amount&lt;br/&gt;3802(a)(1), DUI - General Impairment&lt;br/&gt;3802(c), DUI - Highest Rate of Alcohol - BAC &gt;= .16%&lt;br/&gt;3310, Following Too Closely.&lt;br/&gt;3809(a), Restriction on Alcoholic Beverages in Vehicle&lt;br/&gt;"/><marker lat="40.451209746298005" lng="-80.021965140261187" zone="Zone 1" incidentdate="2015-11-21" incidenttime="18:25:00" incidentnumber="15224020" address="1200 block Western Ave" type="OFFENSE" age="" gender="" description="*********************************************** &lt;br/&gt;9124, Drug Investigation&lt;br/&gt;"/><marker lat="40.464727336756489" lng="-80.023838543711904" zone="Zone 1" incidentdate="2015-11-21" incidenttime="01:56:00" incidentnumber="15223490" address="2300 block Brighton Rd" type="OFFENSE" age="" gender="" description="*********************************************** &lt;br/&gt;9488, False  Burglar Alarm&lt;br/&gt;"/><marker lat="40.442276133278341" lng="-80.000215385109115" zone="Zone 2" incidentdate="2015-11-21" incidenttime="00:40:00" incidentnumber="15223394" address="200 block 6th Ave" type="OFFENSE" age="" gender="" description="*********************************************** &lt;br/&gt;9498, 302 (Mental)&lt;br/&gt;"/><marker lat="40.399184649147095" lng="-80.025493435297477" zone="Zone 6" incidentdate="2015-11-21" incidenttime="02:15:00" incidentnumber="15223503" address="2500 block West Liberty Ave" type="OFFENSE" age="" gender="" description="*********************************************** &lt;br/&gt;3802(a)(1), DUI - General Impairment&lt;br/&gt;3802(b), DUI - High Rate of Alchol - BAC &gt;=.10% &lt;.16%&lt;br/&gt;"/><marker lat="40.415756397522827" lng="-79.940718040615877" zone="Zone 4" incidentdate="2015-11-21" incidenttime="16:30:00" incidentnumber="15207748" address="4600 block Georgekay Rd" type="ARREST" age="46" gender="M" description="*********************************************** &lt;br/&gt;3304, Criminal Mischief.&lt;br/&gt;3921, Theft by Unlawful Taking or Disposition.&lt;br/&gt;903, Criminal Conspiracy.&lt;br/&gt;907, Possessing Instruments of Crime.&lt;br/&gt;"/><marker lat="40.446314652723053" lng="-80.016316228653437" zone="Zone 1" incidentdate="2015-11-21" incidenttime="14:40:00" incidentnumber="15223880" address="100 block Art Rooney Ave" type="ARREST" age="48" gender="M" description="*********************************************** &lt;br/&gt;13(a)(31), Marijuana: Possession Small Amount&lt;br/&gt;13(a)(32), Paraphernalia - Use or Possession&lt;br/&gt;"/><marker lat="40.466616756829907" lng="-79.993676874083434" zone="Zone 1" incidentdate="2015-11-21" incidenttime="03:00:00" incidentnumber="15179272" address="2100 block Rhine St" type="ARREST" age="41" gender="F" description="*********************************************** &lt;br/&gt;3928, Unauthorized Use of Automobile and Other Vehicles.&lt;br/&gt;"/><marker lat="40.459241184494772" lng="-80.005548013998464" zone="Zone 1" incidentdate="2015-11-21" incidenttime="18:05:00" incidentnumber="15223999" address="1600 block Sandusky Ct" type="ARREST" age="42" gender="M" description="*********************************************** &lt;br/&gt;13(a)(16), Possession of Controlled Substance&lt;br/&gt;13(a)(31), Marijuana: Possession Small Amount&lt;br/&gt;4910, Tampering with or Fabricating Physical Evidence.&lt;br/&gt;"/><marker lat="40.446314652723053" lng="-80.016316228653437" zone="Zone 1" incidentdate="2015-11-21" incidenttime="14:40:00" incidentnumber="15223880" address="100 block Art Rooney Ave" type="ARREST" age="45" gender="M" description="*********************************************** &lt;br/&gt;13(a)(31), Marijuana: Possession Small Amount&lt;br/&gt;13(a)(32), Paraphernalia - Use or Possession&lt;br/&gt;"/><marker lat="40.437108644982182" lng="-79.963111490937152" zone="Zone 4" incidentdate="2015-11-21" incidenttime="16:40:00" incidentnumber="15223925" address="Forbes Ave &amp; Craft Ave" type="ARREST" age="45" gender="M" description="*********************************************** &lt;br/&gt;13(a)(31), Marijuana: Possession Small Amount&lt;br/&gt;3802(a)(1), DUI - General Impairment&lt;br/&gt;3802(c), DUI - Highest Rate of Alcohol - BAC &gt;= .16%&lt;br/&gt;3310, Following Too Closely.&lt;br/&gt;3809(a), Restriction on Alcoholic Beverages in Vehicle&lt;br/&gt;"/><marker lat="40.437765998839865" lng="-80.00010722975037" zone="Zone 2" incidentdate="2015-11-21" incidenttime="21:09:00" incidentnumber="15224118" address="200 block Smithfield St" type="ARREST" age="36" gender="M" description="*********************************************** &lt;br/&gt;13(a)(16), Possession of Controlled Substance&lt;br/&gt;13(a)(32), Paraphernalia - Use or Possession&lt;br/&gt;5503, Disorderly Conduct.&lt;br/&gt;"/><marker lat="40.437765998839865" lng="-80.00010722975037" zone="Zone 2" incidentdate="2015-11-21" incidenttime="21:09:00" incidentnumber="15224118" address="200 block Smithfield St" type="ARREST" age="29" gender="F" description="*********************************************** &lt;br/&gt;13(a)(16), Possession of Controlled Substance&lt;br/&gt;13(a)(32), Paraphernalia - Use or Possession&lt;br/&gt;5503, Disorderly Conduct.&lt;br/&gt;"/><marker lat="40.434696587775576" lng="-79.996300985228572" zone="Zone 2" incidentdate="2015-11-21" incidenttime="14:00:00" incidentnumber="15219144" address="600 block 1st Ave" type="ARREST" age="25" gender="M" description="*********************************************** &lt;br/&gt;2701, Simple Assault.&lt;br/&gt;2709(a)(1), Harassment by Physical Contact, or Attempts or Threats&lt;br/&gt;"/><marker lat="40.459338259348982" lng="-79.910541870217315" zone="Zone 5" incidentdate="2015-11-21" incidenttime="03:04:00" incidentnumber="15223525" address="Frankstown Ave &amp; Torrens St" type="ARREST" age="25" gender="M" description="*********************************************** &lt;br/&gt;1543, Driving While Operating Privilege is Suspended or Revoked.&lt;br/&gt;3334, Turning Movements and Required Signals.&lt;br/&gt;6106, Firearms not to be Carried without a License.&lt;br/&gt;"/><marker lat="40.434437703476185" lng="-79.916386042416022" zone="Zone 4" incidentdate="2015-11-21" incidenttime="04:16:00" incidentnumber="15223570" address="6500 block Beacon St" type="ARREST" age="52" gender="M" description="*********************************************** &lt;br/&gt;3736, Reckless Driving&lt;br/&gt;1543, Driving While Operating Privilege is Suspended or Revoked.&lt;br/&gt;3742, Accidents Involving Death or Personal Injury&lt;br/&gt;3802(a)(1), DUI - General Impairment&lt;br/&gt;3802(c), DUI - Highest Rate of Alcohol - BAC &gt;= .16%&lt;br/&gt;3743, Accidents Involving Damage to Attended Veh. or Property&lt;br/&gt;3742.1, Accident Involv. Death/Inj. While not Licensed&lt;br/&gt;3301, Arson&lt;br/&gt;"/><marker lat="40.451617038816323" lng="-80.001145711453432" zone="Zone 1" incidentdate="2015-11-21" incidenttime="03:00:00" incidentnumber="15223550" address="Cedar Ave &amp; Pressley St" type="ARREST" age="41" gender="F" description="*********************************************** &lt;br/&gt;13(a)(32), Paraphernalia - Use or Possession&lt;br/&gt;9501, Bench Warrant&lt;br/&gt;4703, Operation of Vehicle without Official Certif. of Inspection&lt;br/&gt;1301, Registration and Certificate of Title Required.&lt;br/&gt;7122, Altered, Forged or Counterfeit Documents and Plates&lt;br/&gt;"/><marker lat="40.429678888541247" lng="-79.980468418252656" zone="Zone 3" incidentdate="2015-11-21" incidenttime="01:05:00" incidentnumber="15223455" address="S 18th St &amp; Sidney St" type="ARREST" age="22" gender="F" description="*********************************************** &lt;br/&gt;13(a)(31), Marijuana: Possession Small Amount&lt;br/&gt;"/><marker lat="40.47452965780257" lng="-80.028667696752336" zone="Zone 1" incidentdate="2015-11-21" incidenttime="03:24:00" incidentnumber="15223560" address="3100 block Sorento St" type="ARREST" age="49" gender="F" description="*********************************************** &lt;br/&gt;2701, Simple Assault.&lt;br/&gt;"/><marker lat="40.454948691850667" lng="-80.009640272832598" zone="Zone 1" incidentdate="2015-11-21" incidenttime="03:45:00" incidentnumber="15223576" address="300 block E North Ave" type="ARREST" age="19" gender="M" description="*********************************************** &lt;br/&gt;3502, Burglary.&lt;br/&gt;"/><marker lat="40.465135387913563" lng="-79.95790763699263" zone="Zone 5" incidentdate="2015-11-21" incidenttime="16:30:00" incidentnumber="15213080" address="4000 block Penn Ave" type="ARREST" age="47" gender="" description="*********************************************** &lt;br/&gt;5101, Obstructing Admin. of Law&lt;br/&gt;903, Criminal Conspiracy.&lt;br/&gt;4952, Intimidation of Witnesses or Victims&lt;br/&gt;"/><marker lat="40.455020717981817" lng="-80.021344877819061" zone="Zone 1" incidentdate="2015-11-21" incidenttime="05:28:00" incidentnumber="15221979" address="1100 block Pennsylvania Ave" type="ARREST" age="47" gender="F" description="*********************************************** &lt;br/&gt;3304, Criminal Mischief.&lt;br/&gt;"/><marker lat="40.456633448414188" lng="-79.936435139782176" zone="Zone 4" incidentdate="2015-11-21" incidenttime="15:35:00" incidentnumber="15223908" address="5500 block Centre Ave" type="ARREST" age="27" gender="F" description="*********************************************** &lt;br/&gt;3929, Retail Theft.&lt;br/&gt;"/><marker lat="40.399184649147095" lng="-80.025493435297477" zone="Zone 6" incidentdate="2015-11-21" incidenttime="02:15:00" incidentnumber="15223503" address="2500 block West Liberty Ave" type="ARREST" age="0" gender="M" description="*********************************************** &lt;br/&gt;3802(a)(1), DUI - General Impairment&lt;br/&gt;3802(b), DUI - High Rate of Alchol - BAC &gt;=.10% &lt;.16%&lt;br/&gt;"/><marker lat="40.473292241511828" lng="-80.000549788744806" zone="Zone 1" incidentdate="2015-11-21" incidenttime="02:25:00" incidentnumber="15223514" address="Essen St &amp; Sunset Ave" type="ARREST" age="21" gender="F" description="*********************************************** &lt;br/&gt;1501, Drivers Required to be Licensed.&lt;br/&gt;1543, Driving While Operating Privilege is Suspended or Revoked.&lt;br/&gt;3802(a)(1), DUI - General Impairment&lt;br/&gt;3714, Careless Driving&lt;br/&gt;3802(b), DUI - High Rate of Alchol - BAC &gt;=.10% &lt;.16%&lt;br/&gt;"/><marker lat="40.458166689746925" lng="-80.011791771187603" zone="Zone 1" incidentdate="2015-11-21" incidenttime="04:05:00" incidentnumber="15223581" address="400 block Alpine Ave" type="ARREST" age="28" gender="M" description="*********************************************** &lt;br/&gt;2701, Simple Assault.&lt;br/&gt;"/><marker lat="40.429228381173026" lng="-79.980513714480466" zone="Zone 3" incidentdate="2015-11-21" incidenttime="02:13:00" incidentnumber="15223500" address="S 18th St &amp; Wrights Way" type="ARREST" age="22" gender="M" description="*********************************************** &lt;br/&gt;13(a)(31), Marijuana: Possession Small Amount&lt;br/&gt;4302, Periods for Requiring Lighted Lamps.&lt;br/&gt;"/><marker lat="40.447407786726266" lng="-79.973334324523677" zone="Zone 2" incidentdate="2015-11-21" incidenttime="03:15:00" incidentnumber="15223533" address="Chauncey St &amp; Wylie Ave" type="ARREST" age="43" gender="M" description="*********************************************** &lt;br/&gt;3802(a)(1), DUI - General Impairment&lt;br/&gt;3802(c), DUI - Highest Rate of Alcohol - BAC &gt;= .16%&lt;br/&gt;"/><marker lat="40.468340362880227" lng="-80.02522388206468" zone="Zone 1" incidentdate="2015-11-21" incidenttime="05:00:00" incidentnumber="15147413" address="Brighton Rd &amp; Highwood St" type="ARREST" age="21" gender="M" description="*********************************************** &lt;br/&gt;13(a)(16), Possession of Controlled Substance&lt;br/&gt;13(a)(31), Marijuana: Possession Small Amount&lt;br/&gt;"/><marker lat="40.426340817055319" lng="-79.988710303817541" zone="Zone 3" incidentdate="2015-11-21" incidenttime="05:00:00" incidentnumber="15223598" address="S 10th St" type="ARREST" age="39" gender="M" description="*********************************************** &lt;br/&gt;2701, Simple Assault.&lt;br/&gt;"/><marker lat="40.489508279784538" lng="-80.018347066286765" zone="Zone 1" incidentdate="2015-11-21" incidenttime="10:20:00" incidentnumber="15223706" address="Perrysville Ave &amp; Baytree St" type="ARREST" age="30" gender="M" description="*********************************************** &lt;br/&gt;3714, Careless Driving&lt;br/&gt;3802(d)(2), DUI - Drug - Impaired Ability&lt;br/&gt;"/><marker lat="40.463618856013817" lng="-79.952885734358844" zone="Zone 5" incidentdate="2015-11-21" incidenttime="16:30:00" incidentnumber="15205577" address="Bloomfield Brg &amp; Liberty Ave" type="ARREST" age="47" gender="M" description="*********************************************** &lt;br/&gt;3701, Robbery.&lt;br/&gt;2709, Harassment (Non-Specific)&lt;br/&gt;903, Criminal Conspiracy.&lt;br/&gt;2710, Ethnic Intimidation.&lt;br/&gt;"/><marker lat="40.443859154502618" lng="-79.938709453477671" zone="Zone 4" incidentdate="2015-11-21" incidenttime="01:31:00" incidentnumber="15223439" address="5100 block Beeler St" type="ARREST" age="21" gender="M" description="*********************************************** &lt;br/&gt;5104, Resisting Arrest or Other Law Enforcement.&lt;br/&gt;5505, Public Drunkenness&lt;br/&gt;3503.B1I, DEF. TRESPASS ACTUAL COMMUNICATION&lt;br/&gt;5503(a)(2), DISORDERLY CONDUCT - UNREASONABLE NOISE&lt;br/&gt;5502, Failure of Disorderly Persons to Disperse&lt;br/&gt;"/><marker lat="40.414960380328161" lng="-79.944591902542996" zone="Zone 4" incidentdate="2015-11-21" incidenttime="16:50:00" incidentnumber="14239498" address="4600 block Monongahela St" type="ARREST" age="35" gender="M" description="*********************************************** &lt;br/&gt;2701, Simple Assault.&lt;br/&gt;"/><marker lat="40.428567965192009" lng="-79.987317884623508" zone="Zone 3" incidentdate="2015-11-21" incidenttime="02:10:00" incidentnumber="15223505" address="1100 block E Carson St" type="ARREST" age="21" gender="M" description="*********************************************** &lt;br/&gt;3503(b)(1)(i), Actual Communication&lt;br/&gt;2705, Recklessly Endangering Another Person.&lt;br/&gt;2701, Simple Assault.&lt;br/&gt;5505, Public Drunkenness&lt;br/&gt;5121, Escape.&lt;br/&gt;"/><marker lat="40.429678888541247" lng="-79.980468418252656" zone="Zone 3" incidentdate="2015-11-21" incidenttime="01:45:00" incidentnumber="15223484" address="S 18th St &amp; Sidney St" type="ARREST" age="28" gender="M" description="*********************************************** &lt;br/&gt;13(a)(31), Marijuana: Possession Small Amount&lt;br/&gt;"/><marker lat="40.435095503606554" lng="-79.993077686753679" zone="Zone 2" incidentdate="2015-11-21" incidenttime="21:00:00" incidentnumber="15213793" address="900 block 2nd Ave" type="ARREST" age="" gender="M" description="*********************************************** &lt;br/&gt;3502, Burglary.&lt;br/&gt;3921, Theft by Unlawful Taking or Disposition.&lt;br/&gt;3925, Receiving Stolen Property.&lt;br/&gt;"/><marker lat="40.464761679318208" lng="-79.915052881175811" zone="Zone 5" incidentdate="2015-11-21" incidenttime="23:36:00" incidentnumber="15224190" address="400 block Larimer Ave" type="ARREST" age="33" gender="M" description="*********************************************** &lt;br/&gt;9093, Indirect Criminal Contempt&lt;br/&gt;"/><marker lat="40.444880670467576" lng="-79.983793379021847" zone="Zone 2" incidentdate="2015-11-21" incidenttime="01:18:00" incidentnumber="15223458" address="200 block Hillside Dr" type="ARREST" age="19" gender="F" description="*********************************************** &lt;br/&gt;5104, Resisting Arrest or Other Law Enforcement.&lt;br/&gt;2701, Simple Assault.&lt;br/&gt;"/><marker lat="40.491171083037642" lng="-80.019869774112294" zone="Zone 1" incidentdate="2015-11-21" incidenttime="09:19:00" incidentnumber="15223662" address="4000 block Perrysville Ave" type="ARREST" age="38" gender="M" description="*********************************************** &lt;br/&gt;9501, Bench Warrant&lt;br/&gt;3503, Criminal Trespass&lt;br/&gt;"/><marker lat="40.428131277738437" lng="-79.980832811884397" zone="Zone 3" incidentdate="2015-11-21" incidenttime="01:00:00" incidentnumber="15223447" address="100 block S 18th St" type="ARREST" age="22" gender="M" description="*********************************************** &lt;br/&gt;13(a)(31), Marijuana: Possession Small Amount&lt;br/&gt;3503(b)(1)(i), Actual Communication&lt;br/&gt;5503, Disorderly Conduct.&lt;br/&gt;5505, Public Drunkenness&lt;br/&gt;"/><marker lat="40.437995762053241" lng="-80.034564858295411" zone="Zone 6" incidentdate="2015-11-21" incidenttime="03:03:00" incidentnumber="15223545" address="Wabash St &amp; Plank St" type="ARREST" age="29" gender="F" description="*********************************************** &lt;br/&gt;1501, Drivers Required to be Licensed.&lt;br/&gt;3802(a)(1), DUI - General Impairment&lt;br/&gt;3802(b), DUI - High Rate of Alchol - BAC &gt;=.10% &lt;.16%&lt;br/&gt;4107(b)(2), Vehicle Equipment Standards&lt;br/&gt;3310, Following Too Closely.&lt;br/&gt;1784, Proof of Financial Responsibility Following Violation.&lt;br/&gt;"/><marker lat="40.435095503606554" lng="-79.993077686753679" zone="Zone 2" incidentdate="2015-11-21" incidenttime="13:55:00" incidentnumber="15077873" address="900 block Second Ave" type="ARREST" age="47" gender="M" description="*********************************************** &lt;br/&gt;13(a)(31), Marijuana: Possession Small Amount&lt;br/&gt;1543, Driving While Operating Privilege is Suspended or Revoked.&lt;br/&gt;4303, General Lighting Requirements.&lt;br/&gt;"/><marker lat="40.451617038816323" lng="-80.001145711453432" zone="Zone 1" incidentdate="2015-11-21" incidenttime="03:00:00" incidentnumber="15223550" address="Cedar Ave &amp; Pressley St" type="ARREST" age="47" gender="M" description="*********************************************** &lt;br/&gt;13(a)(32), Paraphernalia - Use or Possession&lt;br/&gt;9501, Bench Warrant&lt;br/&gt;4703, Operation of Vehicle without Official Certif. of Inspection&lt;br/&gt;1301, Registration and Certificate of Title Required.&lt;br/&gt;7122, Altered, Forged or Counterfeit Documents and Plates&lt;br/&gt;"/></markers>
