<?xml version="1.0"?>
<markers><marker lat="40.424215578915053" lng="-79.968373885968475" zone="Zone 3" incidentdate="2016-08-27" incidenttime="10:15:00" incidentnumber="16161101" address="2800 block Mary St" type="OFFENSE" age="" gender="" description="*********************************************** &lt;br/&gt;4106, Access Device Fraud&lt;br/&gt;"/><marker lat="40.458778859290838" lng="-79.970703399584181" zone="Zone 2" incidentdate="2016-08-27" incidenttime="10:40:00" incidentnumber="16161106" address="3100 block Liberty Ave" type="OFFENSE" age="" gender="" description="*********************************************** &lt;br/&gt;3743, Accidents Involving Damage to Attended Veh. or Property&lt;br/&gt;"/><marker lat="40.428585203983602" lng="-79.981869007680203" zone="Zone 3" incidentdate="2016-08-27" incidenttime="02:30:00" incidentnumber="16161035" address="1700 block E Carson St" type="OFFENSE" age="" gender="" description="*********************************************** &lt;br/&gt;2709(a), Harassment.&lt;br/&gt;601.16, Public Urination And Defecation&lt;br/&gt;"/><marker lat="40.475991792684219" lng="-79.998237934488159" zone="Zone 1" incidentdate="2016-08-27" incidenttime="21:48:00" incidentnumber="16161482" address="700 block Mt Pleasant Rd" type="OFFENSE" age="" gender="" description="*********************************************** &lt;br/&gt;9999, 9999 - (Misc. Incident):&lt;br/&gt;"/><marker lat="40.43819611073102" lng="-79.986495470805934" zone="Zone 2" incidentdate="2016-08-27" incidenttime="01:45:00" incidentnumber="16160901" address="Stevenson St &amp; Watson St" type="OFFENSE" age="" gender="" description="*********************************************** &lt;br/&gt;601.16, Public Urination And Defecation&lt;br/&gt;"/><marker lat="40.4613620" lng="-79.9827298" zone="Zone 1" incidentdate="2016-08-27" incidenttime="02:20:00" incidentnumber="16160903" address="200 block East Ohio St" type="OFFENSE" age="" gender="" description="*********************************************** &lt;br/&gt;13(a)(16), Possession of Controlled Substance&lt;br/&gt;13(a)(32), Paraphernalia - Use or Possession&lt;br/&gt;9501, Bench Warrant&lt;br/&gt;3503(b)(1)(ii), Defiant Trespass Notice Posted by Sign(s)&lt;br/&gt;4914, False Identification to Law Enforcement Authorities&lt;br/&gt;"/><marker lat="40.403865499750253" lng="-79.94121154762648" zone="Zone 4" incidentdate="2016-08-27" incidenttime="23:30:00" incidentnumber="16161557" address="200 block Mansion St" type="OFFENSE" age="" gender="" description="*********************************************** &lt;br/&gt;3921, Theft by Unlawful Taking or Disposition.&lt;br/&gt;"/><marker lat="40.396052433870693" lng="-79.987505497219203" zone="Zone 3" incidentdate="2016-08-27" incidenttime="09:35:00" incidentnumber="16161073" address="1900 block Brownsville Rd" type="OFFENSE" age="" gender="" description="*********************************************** &lt;br/&gt;9999, 9999 - (Misc. Incident):&lt;br/&gt;"/><marker lat="40.431452440345801" lng="-80.05354381600165" zone="Zone 6" incidentdate="2016-08-27" incidenttime="17:15:00" incidentnumber="16161341" address="2100 block Noblestown Rd" type="OFFENSE" age="" gender="" description="*********************************************** &lt;br/&gt;3736, Reckless Driving&lt;br/&gt;3743, Accidents Involving Damage to Attended Veh. or Property&lt;br/&gt;"/><marker lat="40.36931172606851" lng="-79.910586679819474" zone="Zone 3" incidentdate="2016-08-27" incidenttime="09:00:00" incidentnumber="16161086" address="1600 block mcbride St" type="OFFENSE" age="" gender="" description="*********************************************** &lt;br/&gt;3921, Theft by Unlawful Taking or Disposition.&lt;br/&gt;"/><marker lat="40.456515048695316" lng="-80.016515559088219" zone="Zone 1" incidentdate="2016-08-27" incidenttime="20:15:00" incidentnumber="16161436" address="1500 block Brighton Rd" type="OFFENSE" age="" gender="" description="*********************************************** &lt;br/&gt;9999, 9999 - (Misc. Incident):&lt;br/&gt;"/><marker lat="40.457973073166841" lng="-80.007377661792106" zone="Zone 1" incidentdate="2016-08-27" incidenttime="03:21:00" incidentnumber="16160993" address="1400 block Federal St N" type="OFFENSE" age="" gender="" description="*********************************************** &lt;br/&gt;9497, Aided Case&lt;br/&gt;"/><marker lat="40.460378497799489" lng="-80.021848946412661" zone="Zone 1" incidentdate="2016-08-27" incidenttime="20:10:00" incidentnumber="16161443" address="1000 block Morrison St" type="OFFENSE" age="" gender="" description="*********************************************** &lt;br/&gt;2702, Aggravated Assault.&lt;br/&gt;"/><marker lat="40.455364158844212" lng="-79.999645999028687" zone="Zone 1" incidentdate="2016-08-27" incidenttime="02:04:00" incidentnumber="16160913" address="Middle St &amp; Suismon St" type="OFFENSE" age="" gender="" description="*********************************************** &lt;br/&gt;13(a)(16), Possession of Controlled Substance&lt;br/&gt;13(a)(31), Marijuana: Possession Small Amount&lt;br/&gt;13(a)(32), Paraphernalia - Use or Possession&lt;br/&gt;9501, Bench Warrant&lt;br/&gt;5505, Public Drunkenness&lt;br/&gt;"/><marker lat="40.454307782768687" lng="-79.946518733076431" zone="Zone 5" incidentdate="2016-08-27" incidenttime="12:15:00" incidentnumber="16161192" address="4900 block Baum Blvd" type="OFFENSE" age="" gender="" description="*********************************************** &lt;br/&gt;3743, Accidents Involving Damage to Attended Veh. or Property&lt;br/&gt;"/><marker lat="40.480487371331321" lng="-79.945894374729775" zone="Zone 5" incidentdate="2016-08-27" incidenttime="17:09:00" incidentnumber="16161335" address="5500 block Alford Way" type="OFFENSE" age="" gender="" description="*********************************************** &lt;br/&gt;9999, 9999 - (Misc. Incident):&lt;br/&gt;"/><marker lat="40.428585203983602" lng="-79.981869007680203" zone="Zone 3" incidentdate="2016-08-27" incidenttime="02:30:00" incidentnumber="16161053" address="1700 block E Carson St" type="OFFENSE" age="" gender="" description="*********************************************** &lt;br/&gt;2709(a), Harassment.&lt;br/&gt;"/><marker lat="40.415480373359927" lng="-80.075296021663462" zone="Zone 6" incidentdate="2016-08-27" incidenttime="09:00:00" incidentnumber="16161099" address="800 block Idlewood Ave" type="OFFENSE" age="" gender="" description="*********************************************** &lt;br/&gt;3934, Theft from Vehicle&lt;br/&gt;"/><marker lat="40.450032508449532" lng="-79.995437101670532" zone="Zone 1" incidentdate="2016-08-27" incidenttime="11:15:00" incidentnumber="16161150" address="River Ave &amp; Madison Ave" type="OFFENSE" age="" gender="" description="*********************************************** &lt;br/&gt;3934, Theft from Vehicle&lt;br/&gt;"/><marker lat="40.454286020685466" lng="-80.000864550897518" zone="Zone 1" incidentdate="2016-08-27" incidenttime="18:35:00" incidentnumber="16161383" address="James St &amp; Foreland St" type="OFFENSE" age="" gender="" description="*********************************************** &lt;br/&gt;9498, 302 (Mental)&lt;br/&gt;"/><marker lat="40.448358481258019" lng="-79.952723972077536" zone="Zone 4" incidentdate="2016-08-27" incidenttime="00:48:00" incidentnumber="16160858" address="Bayard St &amp; N Bellefield Ave" type="OFFENSE" age="" gender="" description="*********************************************** &lt;br/&gt;6308(a), Underage Purchase, Consume, Possessed or Transport Liquor&lt;br/&gt;5505, Public Drunkenness&lt;br/&gt;"/><marker lat="40.45614291324403" lng="-80.015399745388805" zone="Zone 1" incidentdate="2016-08-27" incidenttime="19:43:00" incidentnumber="16161419" address="800 block Pennsylvania Ave" type="OFFENSE" age="" gender="" description="*********************************************** &lt;br/&gt;4106, Access Device Fraud&lt;br/&gt;"/><marker lat="40.447070656722659" lng="-79.895151948393476" zone="Zone 4" incidentdate="2016-08-27" incidenttime="08:27:00" incidentnumber="16161055" address="7600 block Penn Ave" type="OFFENSE" age="" gender="" description="*********************************************** &lt;br/&gt;3929(a)(1), Retail Theft; takes possession of, carries away, or transfers displayed merchandise&lt;br/&gt;"/><marker lat="40.491292855083536" lng="-80.018849494671784" zone="Zone 1" incidentdate="2016-08-27" incidenttime="13:14:00" incidentnumber="16161204" address="4000 block Franklin Rd" type="OFFENSE" age="" gender="" description="*********************************************** &lt;br/&gt;9999, 9999 - (Misc. Incident):&lt;br/&gt;"/><marker lat="40.465668659363509" lng="-79.989312768912072" zone="Zone 1" incidentdate="2016-08-27" incidenttime="12:23:00" incidentnumber="16161173" address="1900 block Rockledge St" type="OFFENSE" age="" gender="" description="*********************************************** &lt;br/&gt;3304(a)(5), CRIMINAL MISCHIEF - Intentionally Damages Real Or Personal Property Of Another&lt;br/&gt;2709(a)(1), Harassment by Physical Contact, or Attempts or Threats&lt;br/&gt;"/><marker lat="40.426138400454285" lng="-79.939745312705426" zone="Zone 4" incidentdate="2016-08-27" incidenttime="08:15:00" incidentnumber="16161051" address="600 block Greenfield Ave" type="OFFENSE" age="" gender="" description="*********************************************** &lt;br/&gt;3304, Criminal Mischief.&lt;br/&gt;"/><marker lat="40.439887463158236" lng="-79.954990452332254" zone="Zone 4" incidentdate="2016-08-27" incidenttime="00:10:00" incidentnumber="16160835" address="300 block Oakland Ave" type="OFFENSE" age="" gender="" description="*********************************************** &lt;br/&gt;3502, Burglary.&lt;br/&gt;"/><marker lat="40.427833334190254" lng="-79.94000095506054" zone="Zone 4" incidentdate="2016-08-27" incidenttime="15:52:00" incidentnumber="16161278" address="3900 block Winterburn Ave" type="OFFENSE" age="" gender="" description="*********************************************** &lt;br/&gt;9497, Aided Case&lt;br/&gt;"/><marker lat="40.453539170738004" lng="-80.000575279128412" zone="Zone 1" incidentdate="2016-08-27" incidenttime="01:15:00" incidentnumber="16160964" address="500 block East Ohio St" type="OFFENSE" age="" gender="" description="*********************************************** &lt;br/&gt;3934, Theft from Vehicle&lt;br/&gt;"/><marker lat="40.475754751962889" lng="-80.000806246214438" zone="Zone 1" incidentdate="2016-08-27" incidenttime="02:11:00" incidentnumber="16160912" address="300 block Penfort St" type="OFFENSE" age="" gender="" description="*********************************************** &lt;br/&gt;2701(b)(1), Simple Assault - Fight or Scuffle Entered by Mutual Consent&lt;br/&gt;"/><marker lat="40.4677638" lng="-79.9661270" zone="Zone 2" incidentdate="2016-08-27" incidenttime="07:40:00" incidentnumber="16161145" address="3700 block Foster St" type="OFFENSE" age="" gender="" description="*********************************************** &lt;br/&gt;3745, Accidents Involving Damage to Unattended Veh.or Prop.&lt;br/&gt;"/><marker lat="40.4258039" lng="-80.0199253" zone="Zone 3" incidentdate="2016-08-27" incidenttime="16:20:00" incidentnumber="16161308" address="Saw Mill Run Blvd &amp; Woodruff St" type="OFFENSE" age="" gender="" description="*********************************************** &lt;br/&gt;3745, Accidents Involving Damage to Unattended Veh.or Prop.&lt;br/&gt;"/><marker lat="40.441161709911142" lng="-80.003981893502939" zone="Zone 2" incidentdate="2016-08-27" incidenttime="09:55:00" incidentnumber="16161090" address="Stanwix St &amp; Forbes Ave" type="OFFENSE" age="" gender="" description="*********************************************** &lt;br/&gt;2709(a)(2), Harassment by Following Person in Public Place(s)&lt;br/&gt;"/><marker lat="40.486340458083419" lng="-80.009745085461986" zone="Zone 1" incidentdate="2016-08-27" incidenttime="19:10:00" incidentnumber="16161377" address="East St &amp; Evergreen Rd" type="OFFENSE" age="" gender="" description="*********************************************** &lt;br/&gt;9130, Graffiti Investigation&lt;br/&gt;"/><marker lat="40.452355032902283" lng="-79.907562184286903" zone="Zone 4" incidentdate="2016-08-27" incidenttime="18:33:00" incidentnumber="16161382" address="N Dallas Ave &amp; Meade St" type="OFFENSE" age="" gender="" description="*********************************************** &lt;br/&gt;3736, Reckless Driving&lt;br/&gt;3925, Receiving Stolen Property.&lt;br/&gt;5121, Escape.&lt;br/&gt;3112, Traffic-Control Signals.&lt;br/&gt;3733, Fleeing or Attempting to Elude Police Officer&lt;br/&gt;3323, Stop Signs and Yield Signs.&lt;br/&gt;3301, Arson&lt;br/&gt;1501(A), Valid Drivers License Required&lt;br/&gt;"/><marker lat="40.458145456551087" lng="-79.989782292941541" zone="Zone 1" incidentdate="2016-08-27" incidenttime="02:20:00" incidentnumber="16160923" address="1300 block Goettmann St" type="OFFENSE" age="" gender="" description="*********************************************** &lt;br/&gt;2702, Aggravated Assault.&lt;br/&gt;2701(a)(1), Simple Assault - Intent., Know., Reckless.Cause Bod. Injury&lt;br/&gt;"/><marker lat="40.428746746224945" lng="-79.982646526389246" zone="Zone 3" incidentdate="2016-08-27" incidenttime="18:15:00" incidentnumber="16161372" address="1600 block E Carson St" type="OFFENSE" age="" gender="" description="*********************************************** &lt;br/&gt;5505, Public Drunkenness&lt;br/&gt;2709(a), Harassment.&lt;br/&gt;3503.B1I, DEF. TRESPASS ACTUAL COMMUNICATION&lt;br/&gt;5503(a)(3), DISORDERLY CONDUCT - OBSCENE LANG/GEST&lt;br/&gt;"/><marker lat="40.446421378848491" lng="-80.034402739535167" zone="Zone 6" incidentdate="2016-08-27" incidenttime="16:59:00" incidentnumber="16161324" address="Rue Grande Vue St &amp; Marlow St" type="OFFENSE" age="" gender="" description="*********************************************** &lt;br/&gt;9501, Bench Warrant&lt;br/&gt;"/><marker lat="40.428774956879735" lng="-79.985327098327147" zone="Zone 3" incidentdate="2016-08-27" incidenttime="00:30:00" incidentnumber="16160837" address="S 13th St &amp; E Carson St" type="OFFENSE" age="" gender="" description="*********************************************** &lt;br/&gt;5505, Public Drunkenness&lt;br/&gt;"/><marker lat="40.457681156969656" lng="-79.893840976358447" zone="Zone 5" incidentdate="2016-08-27" incidenttime="06:54:00" incidentnumber="16161023" address="Idlewild St &amp; Sterrett St" type="OFFENSE" age="" gender="" description="*********************************************** &lt;br/&gt;13(a)(16), Possession of Controlled Substance&lt;br/&gt;13(a)(30), Possession w/ Intent to Del. Controlled Substance&lt;br/&gt;13(a)(32), Paraphernalia - Use or Possession&lt;br/&gt;5104, Resisting Arrest or Other Law Enforcement.&lt;br/&gt;607.03, Discharging Firearm or Airgun&lt;br/&gt;6106, Firearms not to be Carried without a License.&lt;br/&gt;"/><marker lat="40.451701445331011" lng="-79.953845505378652" zone="Zone 4" incidentdate="2016-08-27" incidenttime="01:30:00" incidentnumber="16160871" address="300 block N Dithridge St" type="OFFENSE" age="" gender="" description="*********************************************** &lt;br/&gt;6308(a), Underage Purchase, Consume, Possessed or Transport Liquor&lt;br/&gt;601.04 (c) (2), Loudspeakers  etc 0700-2200 &gt;75dB(c) 2200-0700 &gt;75 dB(c)&lt;br/&gt;"/><marker lat="40.478038107418683" lng="-80.001803139555449" zone="Zone 1" incidentdate="2016-08-27" incidenttime="08:52:00" incidentnumber="16161056" address="1300 block Chicago St" type="OFFENSE" age="" gender="" description="*********************************************** &lt;br/&gt;2709, Harassment (Non-Specific)&lt;br/&gt;"/><marker lat="40.467306786936255" lng="-79.943539408766725" zone="Zone 5" incidentdate="2016-08-27" incidenttime="19:43:00" incidentnumber="16161418" address="5000 block Kincaid St" type="OFFENSE" age="" gender="" description="*********************************************** &lt;br/&gt;2501, Criminal Homicide.&lt;br/&gt;"/><marker lat="40.428478873788158" lng="-79.980265799395895" zone="Zone 3" incidentdate="2016-08-27" incidenttime="02:23:00" incidentnumber="16160948" address="1800 block E Carson St" type="OFFENSE" age="" gender="" description="*********************************************** &lt;br/&gt;3745, Accidents Involving Damage to Unattended Veh.or Prop.&lt;br/&gt;"/><marker lat="40.463173749724525" lng="-80.019862321987162" zone="Zone 1" incidentdate="2016-08-27" incidenttime="10:55:00" incidentnumber="16161333" address="2200 block N Charles St" type="OFFENSE" age="" gender="" description="*********************************************** &lt;br/&gt;2709(a)(1), Harassment by Physical Contact, or Attempts or Threats&lt;br/&gt;"/><marker lat="40.479936560699926" lng="-80.041856845442879" zone="Zone 1" incidentdate="2016-08-27" incidenttime="11:32:00" incidentnumber="16161522" address="1800 block Davis Ave" type="OFFENSE" age="" gender="" description="*********************************************** &lt;br/&gt;9490, Missing Persons (18 and Over)&lt;br/&gt;"/><marker lat="40.428815176198341" lng="-79.983424931589681" zone="Zone 3" incidentdate="2016-08-27" incidenttime="02:15:00" incidentnumber="16160933" address="S 15th St &amp; E Carson St" type="OFFENSE" age="" gender="" description="*********************************************** &lt;br/&gt;9489, Found Property&lt;br/&gt;"/><marker lat="40.405934655153253" lng="-79.943182659504586" zone="Zone 4" incidentdate="2016-08-27" incidenttime="20:20:00" incidentnumber="16161438" address="5200 block Second Ave" type="OFFENSE" age="" gender="" description="*********************************************** &lt;br/&gt;2701, Simple Assault.&lt;br/&gt;"/><marker lat="40.457038376535593" lng="-80.004840527895169" zone="Zone 1" incidentdate="2016-08-27" incidenttime="18:07:00" incidentnumber="16161370" address="1300 block Sandusky St N" type="OFFENSE" age="" gender="" description="*********************************************** &lt;br/&gt;9999, 9999 - (Misc. Incident):&lt;br/&gt;"/><marker lat="40.392183223078433" lng="-79.984978745356202" zone="Zone 3" incidentdate="2016-08-27" incidenttime="17:09:00" incidentnumber="16161331" address="100 block Duffland St" type="OFFENSE" age="" gender="" description="*********************************************** &lt;br/&gt;9501, Bench Warrant&lt;br/&gt;"/><marker lat="40.43710023883375" lng="-79.954968951264206" zone="Zone 4" incidentdate="2016-08-27" incidenttime="00:28:00" incidentnumber="16160848" address="Bates St &amp; Semple St" type="OFFENSE" age="" gender="" description="*********************************************** &lt;br/&gt;6308(a), Underage Purchase, Consume, Possessed or Transport Liquor&lt;br/&gt;5505, Public Drunkenness&lt;br/&gt;601.08(a), Alcohol or Liquor Consumption on Streets or Sidewalks&lt;br/&gt;"/><marker lat="40.458130040765326" lng="-79.954783052719634" zone="Zone 4" incidentdate="2016-08-27" incidenttime="16:53:00" incidentnumber="16161347" address="600 block Melwood Ave" type="OFFENSE" age="" gender="" description="*********************************************** &lt;br/&gt;3502, Burglary.&lt;br/&gt;"/><marker lat="40.437786639737389" lng="-80.004528582843776" zone="Zone 2" incidentdate="2016-08-27" incidenttime="22:07:00" incidentnumber="16161496" address="Market Pl &amp; Market St" type="OFFENSE" age="" gender="" description="*********************************************** &lt;br/&gt;3921(a), Theft by Unlawful Taking or Disposition - Movable item&lt;br/&gt;"/><marker lat="40.399523761161504" lng="-80.026023690347131" zone="Zone 6" incidentdate="2016-08-27" incidenttime="01:20:00" incidentnumber="16160882" address="Saranac Ave &amp; Palm Beach Ave" type="OFFENSE" age="" gender="" description="*********************************************** &lt;br/&gt;3304, Criminal Mischief.&lt;br/&gt;3934, Theft from Vehicle&lt;br/&gt;"/><marker lat="40.475970803438344" lng="-80.003076972725822" zone="Zone 1" incidentdate="2016-08-27" incidenttime="21:30:00" incidentnumber="16161465" address="100 block Hazlett St" type="OFFENSE" age="" gender="" description="*********************************************** &lt;br/&gt;3304, Criminal Mischief.&lt;br/&gt;"/><marker lat="40.483246555096763" lng="-80.035194746264679" zone="Zone 1" incidentdate="2016-08-27" incidenttime="17:34:00" incidentnumber="16161356" address="3700 block Brighton Rd" type="OFFENSE" age="" gender="" description="*********************************************** &lt;br/&gt;3743, Accidents Involving Damage to Attended Veh. or Property&lt;br/&gt;"/><marker lat="40.4410568" lng="-80.0023087" zone="Zone 2" incidentdate="2016-08-27" incidenttime="17:57:00" incidentnumber="16161362" address="400 block Market St" type="OFFENSE" age="" gender="" description="*********************************************** &lt;br/&gt;9999, 9999 - (Misc. Incident):&lt;br/&gt;"/><marker lat="40.478802142990837" lng="-79.917021364097778" zone="Zone 5" incidentdate="2016-08-27" incidenttime="16:13:00" incidentnumber="16161295" address="Bunkerhill St &amp; Greystone Dr" type="OFFENSE" age="" gender="" description="*********************************************** &lt;br/&gt;2705, Recklessly Endangering Another Person.&lt;br/&gt;4304(a)(1), Endangering Welfare of Children - Course of Conduct Enhanced&lt;br/&gt;3736, Reckless Driving&lt;br/&gt;3745, Accidents Involving Damage to Unattended Veh.or Prop.&lt;br/&gt;2706, Terroristic Threats.&lt;br/&gt;2701(a)(3), Simple Assault - Attempts by Physical Menace&lt;br/&gt;907, Possessing Instruments of Crime.&lt;br/&gt;"/><marker lat="40.439698942778435" lng="-79.955881350760848" zone="Zone 4" incidentdate="2016-08-27" incidenttime="00:23:00" incidentnumber="16160842" address="Atwood St &amp; Louisa St" type="OFFENSE" age="" gender="" description="*********************************************** &lt;br/&gt;601.08(a), Alcohol or Liquor Consumption on Streets or Sidewalks&lt;br/&gt;"/><marker lat="40.417504115180527" lng="-79.980508802138502" zone="Zone 3" incidentdate="2016-08-27" incidenttime="18:22:00" incidentnumber="16161375" address="1900 block Arlington Ave" type="OFFENSE" age="" gender="" description="*********************************************** &lt;br/&gt;2709(a), Harassment.&lt;br/&gt;2706, Terroristic Threats.&lt;br/&gt;"/><marker lat="40.437811377822683" lng="-79.988355032042563" zone="Zone 2" incidentdate="2016-08-27" incidenttime="01:27:00" incidentnumber="16160886" address="Forbes Ave &amp; Magee St" type="OFFENSE" age="" gender="" description="*********************************************** &lt;br/&gt;3742, Accidents Involving Death or Personal Injury&lt;br/&gt;"/><marker lat="40.464796641592933" lng="-79.955559073564714" zone="Zone 5" incidentdate="2016-08-27" incidenttime="10:40:00" incidentnumber="16161131" address="Mintwood St &amp; Canoe Way" type="OFFENSE" age="" gender="" description="*********************************************** &lt;br/&gt;3745, Accidents Involving Damage to Unattended Veh.or Prop.&lt;br/&gt;"/><marker lat="40.436366073284717" lng="-79.953820447788871" zone="Zone 4" incidentdate="2016-08-27" incidenttime="03:00:00" incidentnumber="16161314" address="3500 block Cable Pl" type="OFFENSE" age="" gender="" description="*********************************************** &lt;br/&gt;3921(a), Theft by Unlawful Taking or Disposition - Movable item&lt;br/&gt;"/><marker lat="40.427439209666197" lng="-79.90695753587768" zone="Zone 4" incidentdate="2016-08-27" incidenttime="08:28:00" incidentnumber="16161054" address="7000 block Forward Ave" type="OFFENSE" age="" gender="" description="*********************************************** &lt;br/&gt;9496, Dead on Arrival (DOA)&lt;br/&gt;"/><marker lat="40.482127937591486" lng="-79.937581998689467" zone="Zone 5" incidentdate="2016-08-27" incidenttime="06:00:00" incidentnumber="16161039" address="1300 block Simona Dr" type="OFFENSE" age="" gender="" description="*********************************************** &lt;br/&gt;3745, Accidents Involving Damage to Unattended Veh.or Prop.&lt;br/&gt;"/><marker lat="40.44305798226727" lng="-79.997484426855365" zone="Zone 2" incidentdate="2016-08-27" incidenttime="00:30:00" incidentnumber="16161292" address="7th Ave &amp; Liberty Ave" type="OFFENSE" age="" gender="" description="*********************************************** &lt;br/&gt;3924, Theft of Property Lost, Mislaid or Delivered by Mistake.&lt;br/&gt;"/><marker lat="40.44973124806306" lng="-79.956731583752003" zone="Zone 2" incidentdate="2016-08-27" incidenttime="13:00:00" incidentnumber="16161210" address="4300 block Schenley Farms Ter" type="OFFENSE" age="" gender="" description="*********************************************** &lt;br/&gt;3502, Burglary.&lt;br/&gt;"/><marker lat="40.475639774908238" lng="-80.030763711820484" zone="Zone 1" incidentdate="2016-08-27" incidenttime="18:50:00" incidentnumber="16161395" address="3200 block Brighton Rd" type="OFFENSE" age="" gender="" description="*********************************************** &lt;br/&gt;3929(a)(1), Retail Theft; takes possession of, carries away, or transfers displayed merchandise&lt;br/&gt;"/><marker lat="40.430180960167483" lng="-79.981912453079602" zone="Zone 3" incidentdate="2016-08-27" incidenttime="03:02:00" incidentnumber="16160953" address="S 17th St &amp; Muriel St" type="OFFENSE" age="" gender="" description="*********************************************** &lt;br/&gt;13(a)(31), Marijuana: Possession Small Amount&lt;br/&gt;9501, Bench Warrant&lt;br/&gt;4303, General Lighting Requirements.&lt;br/&gt;6106, Firearms not to be Carried without a License.&lt;br/&gt;"/><marker lat="40.445368672453796" lng="-79.933671435755983" zone="Zone 4" incidentdate="2016-08-27" incidenttime="20:05:00" incidentnumber="16161457" address="5300 block Beeler St" type="OFFENSE" age="" gender="" description="*********************************************** &lt;br/&gt;5503(a)(2), DISORDERLY CONDUCT - UNREASONABLE NOISE&lt;br/&gt;"/><marker lat="40.460623402161843" lng="-79.932766652756285" zone="Zone 5" incidentdate="2016-08-27" incidenttime="11:25:00" incidentnumber="16161190" address="300 block S Negley Ave" type="OFFENSE" age="" gender="" description="*********************************************** &lt;br/&gt;3921(a), Theft by Unlawful Taking or Disposition - Movable item&lt;br/&gt;"/><marker lat="40.436415263333423" lng="-80.048717869555446" zone="Zone 6" incidentdate="2016-08-27" incidenttime="10:52:00" incidentnumber="16161110" address="1200 block Queensbury St" type="OFFENSE" age="" gender="" description="*********************************************** &lt;br/&gt;3934, Theft from Vehicle&lt;br/&gt;"/><marker lat="40.456839195430454" lng="-79.999232378956989" zone="Zone 1" incidentdate="2016-08-27" incidenttime="20:47:00" incidentnumber="16161466" address="Howard St &amp; E North Ave" type="OFFENSE" age="" gender="" description="*********************************************** &lt;br/&gt;5902(a)(2), Prostitution - Loitering for purpose of&lt;br/&gt;5902(a)(1), Prostitution&lt;br/&gt;"/><marker lat="40.397196193355981" lng="-79.983038482241881" zone="Zone 3" incidentdate="2016-08-27" incidenttime="11:18:00" incidentnumber="16137770" address="1900 block Redrose Ave" type="OFFENSE" age="" gender="" description="*********************************************** &lt;br/&gt;3925, Receiving Stolen Property.&lt;br/&gt;"/><marker lat="40.464441156580989" lng="-79.936415907960978" zone="Zone 5" incidentdate="2016-08-27" incidenttime="12:25:00" incidentnumber="16161172" address="5400 block Penn Ave" type="OFFENSE" age="" gender="" description="*********************************************** &lt;br/&gt;3701, Robbery.&lt;br/&gt;"/><marker lat="40.434299677403494" lng="-79.961173018071435" zone="Zone 4" incidentdate="2016-08-27" incidenttime="01:00:00" incidentnumber="16160860" address="3200 block Kennett Sq" type="OFFENSE" age="" gender="" description="*********************************************** &lt;br/&gt;601.16, Public Urination And Defecation&lt;br/&gt;"/><marker lat="40.434586774687588" lng="-79.954590339723737" zone="Zone 4" incidentdate="2016-08-27" incidenttime="02:09:00" incidentnumber="16160918" address="Ward St &amp; Blvd Of The Allies" type="OFFENSE" age="" gender="" description="*********************************************** &lt;br/&gt;601.08(a), Alcohol or Liquor Consumption on Streets or Sidewalks&lt;br/&gt;"/><marker lat="40.475430651834372" lng="-79.924473902090099" zone="Zone 5" incidentdate="2016-08-27" incidenttime="19:40:00" incidentnumber="16161403" address="100 block N Negley Ave" type="OFFENSE" age="" gender="" description="*********************************************** &lt;br/&gt;3921, Theft by Unlawful Taking or Disposition.&lt;br/&gt;"/><marker lat="40.460690348237023" lng="-79.929027978876746" zone="Zone 5" incidentdate="2016-08-27" incidenttime="06:04:00" incidentnumber="16161005" address="200 block S Euclid Ave" type="OFFENSE" age="" gender="" description="*********************************************** &lt;br/&gt;9496, Dead on Arrival (DOA)&lt;br/&gt;"/><marker lat="40.452271048307615" lng="-79.964377316908553" zone="Zone 2" incidentdate="2016-08-27" incidenttime="05:02:00" incidentnumber="16160999" address="Milwaukee St &amp; Herron Ave" type="OFFENSE" age="" gender="" description="*********************************************** &lt;br/&gt;9999, 9999 - (Misc. Incident):&lt;br/&gt;"/><marker lat="40.451831373409384" lng="-79.931146453955421" zone="Zone 4" incidentdate="2016-08-27" incidenttime="14:00:00" incidentnumber="16161242" address="800 block S Negley Ave" type="OFFENSE" age="" gender="" description="*********************************************** &lt;br/&gt;3502, Burglary.&lt;br/&gt;"/><marker lat="40.436415263333423" lng="-80.048717869555446" zone="Zone 6" incidentdate="2016-08-27" incidenttime="11:52:00" incidentnumber="16161110" address="1200 block Queensbury St" type="ARREST" age="26" gender="F" description="*********************************************** &lt;br/&gt;3934, Theft from Vehicle&lt;br/&gt;"/><marker lat="40.455364158844212" lng="-79.999645999028687" zone="Zone 1" incidentdate="2016-08-27" incidenttime="02:04:00" incidentnumber="16160913" address="Middle St &amp; Suismon St" type="ARREST" age="22" gender="F" description="*********************************************** &lt;br/&gt;13(a)(16), Possession of Controlled Substance&lt;br/&gt;13(a)(31), Marijuana: Possession Small Amount&lt;br/&gt;13(a)(32), Paraphernalia - Use or Possession&lt;br/&gt;9501, Bench Warrant&lt;br/&gt;5505, Public Drunkenness&lt;br/&gt;"/><marker lat="40.459241184494772" lng="-80.005548013998464" zone="Zone 1" incidentdate="2016-08-27" incidenttime="00:44:00" incidentnumber="16071377" address="1600 block Sandusky Ct" type="ARREST" age="29" gender="M" description="*********************************************** &lt;br/&gt;9015, Failure To Appear/Arrest on Attachment Order&lt;br/&gt;5505, Public Drunkenness&lt;br/&gt;2706, Terroristic Threats.&lt;br/&gt;2701(a)(3), Simple Assault - Attempts by Physical Menace&lt;br/&gt;"/><marker lat="40.426686767989011" lng="-79.99981738467028" zone="Zone 3" incidentdate="2016-08-27" incidenttime="21:30:00" incidentnumber="16103599" address="400 block Bailey Ave" type="ARREST" age="35" gender="M" description="*********************************************** &lt;br/&gt;3304, Criminal Mischief.&lt;br/&gt;2701, Simple Assault.&lt;br/&gt;"/><marker lat="40.4613620" lng="-79.9827298" zone="Zone 1" incidentdate="2016-08-27" incidenttime="02:20:00" incidentnumber="16160903" address="200 block East Ohio St" type="ARREST" age="34" gender="F" description="*********************************************** &lt;br/&gt;13(a)(16), Possession of Controlled Substance&lt;br/&gt;13(a)(32), Paraphernalia - Use or Possession&lt;br/&gt;9501, Bench Warrant&lt;br/&gt;3503(b)(1)(ii), Defiant Trespass Notice Posted by Sign(s)&lt;br/&gt;4914, False Identification to Law Enforcement Authorities&lt;br/&gt;"/><marker lat="40.398877099130736" lng="-79.997883952207886" zone="Zone 3" incidentdate="2016-08-27" incidenttime="00:04:00" incidentnumber="16160805" address="1500 block Nobles Ln" type="ARREST" age="29" gender="F" description="*********************************************** &lt;br/&gt;9501, Bench Warrant&lt;br/&gt;4304(a)(1), Endangering Welfare of Children - Course of Conduct Enhanced&lt;br/&gt;3304(a)(5), CRIMINAL MISCHIEF - Intentionally Damages Real Or Personal Property Of Another&lt;br/&gt;"/><marker lat="40.459241184494772" lng="-80.005548013998464" zone="Zone 1" incidentdate="2016-08-27" incidenttime="00:44:00" incidentnumber="16103338" address="1600 block Sandusky Ct" type="ARREST" age="29" gender="M" description="*********************************************** &lt;br/&gt;3701, Robbery.&lt;br/&gt;2701(a)(1), Simple Assault - Intent., Know., Reckless.Cause Bod. Injury&lt;br/&gt;3503.B1II, DEF. TRESPASS POSTED&lt;br/&gt;"/><marker lat="40.452355032902283" lng="-79.907562184286903" zone="Zone 4" incidentdate="2016-08-27" incidenttime="18:37:00" incidentnumber="16161382" address="N Dallas Ave &amp; Meade St" type="ARREST" age="16" gender="M" description="*********************************************** &lt;br/&gt;3736, Reckless Driving&lt;br/&gt;3925, Receiving Stolen Property.&lt;br/&gt;5121, Escape.&lt;br/&gt;3112, Traffic-Control Signals.&lt;br/&gt;3733, Fleeing or Attempting to Elude Police Officer&lt;br/&gt;3323, Stop Signs and Yield Signs.&lt;br/&gt;3301, Arson&lt;br/&gt;1501(A), Valid Drivers License Required&lt;br/&gt;"/><marker lat="40.457681156969656" lng="-79.893840976358447" zone="Zone 5" incidentdate="2016-08-27" incidenttime="07:15:00" incidentnumber="16161023" address="Idlewild St &amp; Sterrett St" type="ARREST" age="22" gender="M" description="*********************************************** &lt;br/&gt;13(a)(16), Possession of Controlled Substance&lt;br/&gt;13(a)(30), Possession w/ Intent to Del. Controlled Substance&lt;br/&gt;13(a)(32), Paraphernalia - Use or Possession&lt;br/&gt;5104, Resisting Arrest or Other Law Enforcement.&lt;br/&gt;607.03, Discharging Firearm or Airgun&lt;br/&gt;6106, Firearms not to be Carried without a License.&lt;br/&gt;"/><marker lat="40.410552176761328" lng="-79.99322262414627" zone="Zone 3" incidentdate="2016-08-27" incidenttime="03:15:00" incidentnumber="16149255" address="300 block Suncrest St" type="ARREST" age="22" gender="M" description="*********************************************** &lt;br/&gt;2701, Simple Assault.&lt;br/&gt;903, Criminal Conspiracy.&lt;br/&gt;"/><marker lat="40.397196193355981" lng="-79.983038482241881" zone="Zone 3" incidentdate="2016-08-27" incidenttime="11:25:00" incidentnumber="16137770" address="1900 block Redrose Ave" type="ARREST" age="18" gender="M" description="*********************************************** &lt;br/&gt;3925, Receiving Stolen Property.&lt;br/&gt;"/><marker lat="40.430180960167483" lng="-79.981912453079602" zone="Zone 3" incidentdate="2016-08-27" incidenttime="03:09:00" incidentnumber="16160953" address="S 17th St &amp; Muriel St" type="ARREST" age="24" gender="M" description="*********************************************** &lt;br/&gt;13(a)(31), Marijuana: Possession Small Amount&lt;br/&gt;9501, Bench Warrant&lt;br/&gt;4303, General Lighting Requirements.&lt;br/&gt;6106, Firearms not to be Carried without a License.&lt;br/&gt;"/><marker lat="40.428746746224945" lng="-79.982646526389246" zone="Zone 3" incidentdate="2016-08-27" incidenttime="18:15:00" incidentnumber="16161372" address="1600 block E Carson St" type="ARREST" age="33" gender="M" description="*********************************************** &lt;br/&gt;5505, Public Drunkenness&lt;br/&gt;2709(a), Harassment.&lt;br/&gt;3503.B1I, DEF. TRESPASS ACTUAL COMMUNICATION&lt;br/&gt;5503(a)(3), DISORDERLY CONDUCT - OBSCENE LANG/GEST&lt;br/&gt;"/><marker lat="40.453881093138619" lng="-79.873029877694393" zone="Zone 5" incidentdate="2016-08-27" incidenttime="02:30:00" incidentnumber="16087068" address="2200 block East Hills Dr" type="ARREST" age="36" gender="M" description="*********************************************** &lt;br/&gt;2701, Simple Assault.&lt;br/&gt;"/><marker lat="40.455364158844212" lng="-79.999645999028687" zone="Zone 1" incidentdate="2016-08-27" incidenttime="02:04:00" incidentnumber="16160913" address="Middle St &amp; Suismon St" type="ARREST" age="57" gender="M" description="*********************************************** &lt;br/&gt;13(a)(16), Possession of Controlled Substance&lt;br/&gt;13(a)(31), Marijuana: Possession Small Amount&lt;br/&gt;13(a)(32), Paraphernalia - Use or Possession&lt;br/&gt;9501, Bench Warrant&lt;br/&gt;5505, Public Drunkenness&lt;br/&gt;"/><marker lat="40.392154392860824" lng="-80.017676067888289" zone="Zone 6" incidentdate="2016-08-27" incidenttime="19:05:00" incidentnumber="16156199" address="1000 block Brookline Blvd" type="ARREST" age="19" gender="M" description="*********************************************** &lt;br/&gt;3922, Theft by Deception.&lt;br/&gt;5104, Resisting Arrest or Other Law Enforcement.&lt;br/&gt;4101, Forgery.&lt;br/&gt;"/><marker lat="40.455364158844212" lng="-79.999645999028687" zone="Zone 1" incidentdate="2016-08-27" incidenttime="02:04:00" incidentnumber="16160913" address="Middle St &amp; Suismon St" type="ARREST" age="51" gender="F" description="*********************************************** &lt;br/&gt;13(a)(16), Possession of Controlled Substance&lt;br/&gt;13(a)(31), Marijuana: Possession Small Amount&lt;br/&gt;13(a)(32), Paraphernalia - Use or Possession&lt;br/&gt;9501, Bench Warrant&lt;br/&gt;5505, Public Drunkenness&lt;br/&gt;"/><marker lat="40.478802142990837" lng="-79.917021364097778" zone="Zone 5" incidentdate="2016-08-27" incidenttime="17:00:00" incidentnumber="16161295" address="Bunkerhill St &amp; Greystone Dr" type="ARREST" age="33" gender="M" description="*********************************************** &lt;br/&gt;2705, Recklessly Endangering Another Person.&lt;br/&gt;4304(a)(1), Endangering Welfare of Children - Course of Conduct Enhanced&lt;br/&gt;3736, Reckless Driving&lt;br/&gt;3745, Accidents Involving Damage to Unattended Veh.or Prop.&lt;br/&gt;2706, Terroristic Threats.&lt;br/&gt;2701(a)(3), Simple Assault - Attempts by Physical Menace&lt;br/&gt;907, Possessing Instruments of Crime.&lt;br/&gt;"/><marker lat="40.446421378848491" lng="-80.034402739535167" zone="Zone 6" incidentdate="2016-08-27" incidenttime="16:59:00" incidentnumber="16161324" address="Rue Grande Vue St &amp; Marlow St" type="ARREST" age="31" gender="M" description="*********************************************** &lt;br/&gt;9501, Bench Warrant&lt;br/&gt;"/><marker lat="40.430180960167483" lng="-79.981912453079602" zone="Zone 3" incidentdate="2016-08-27" incidenttime="03:25:00" incidentnumber="16160953" address="S 17th St &amp; Muriel St" type="ARREST" age="23" gender="M" description="*********************************************** &lt;br/&gt;13(a)(31), Marijuana: Possession Small Amount&lt;br/&gt;9501, Bench Warrant&lt;br/&gt;4303, General Lighting Requirements.&lt;br/&gt;6106, Firearms not to be Carried without a License.&lt;br/&gt;"/><marker lat="40.392183223078433" lng="-79.984978745356202" zone="Zone 3" incidentdate="2016-08-27" incidenttime="17:31:00" incidentnumber="16161331" address="100 block Duffland St" type="ARREST" age="20" gender="M" description="*********************************************** &lt;br/&gt;9501, Bench Warrant&lt;br/&gt;"/><marker lat="40.405934655153253" lng="-79.943182659504586" zone="Zone 4" incidentdate="2016-08-27" incidenttime="20:30:00" incidentnumber="16161438" address="5200 block Second Ave" type="ARREST" age="54" gender="F" description="*********************************************** &lt;br/&gt;2701, Simple Assault.&lt;br/&gt;"/><marker lat="40.4613620" lng="-79.9827298" zone="Zone 1" incidentdate="2016-08-27" incidenttime="01:49:00" incidentnumber="16160903" address="200 block East Ohio St" type="ARREST" age="32" gender="M" description="*********************************************** &lt;br/&gt;13(a)(16), Possession of Controlled Substance&lt;br/&gt;13(a)(32), Paraphernalia - Use or Possession&lt;br/&gt;9501, Bench Warrant&lt;br/&gt;3503(b)(1)(ii), Defiant Trespass Notice Posted by Sign(s)&lt;br/&gt;4914, False Identification to Law Enforcement Authorities&lt;br/&gt;"/><marker lat="40.453881093138619" lng="-79.873029877694393" zone="Zone 5" incidentdate="2016-08-27" incidenttime="02:30:00" incidentnumber="16114063" address="2200 block East Hills Dr" type="ARREST" age="36" gender="M" description="*********************************************** &lt;br/&gt;3701, Robbery.&lt;br/&gt;"/><marker lat="40.456839195430454" lng="-79.999232378956989" zone="Zone 1" incidentdate="2016-08-27" incidenttime="20:47:00" incidentnumber="16161466" address="Howard St &amp; E North Ave" type="ARREST" age="44" gender="F" description="*********************************************** &lt;br/&gt;5902(a)(2), Prostitution - Loitering for purpose of&lt;br/&gt;5902(a)(1), Prostitution&lt;br/&gt;"/><marker lat="40.410552176761328" lng="-79.99322262414627" zone="Zone 3" incidentdate="2016-08-27" incidenttime="03:15:00" incidentnumber="16149255" address="300 block Suncrest St" type="ARREST" age="27" gender="M" description="*********************************************** &lt;br/&gt;2701, Simple Assault.&lt;br/&gt;903, Criminal Conspiracy.&lt;br/&gt;"/></markers>
