<?xml version="1.0"?>
<markers><marker lat="40.455215202117813" lng="-79.868235913110297" zone="Zone 5" incidentdate="2014-11-29" incidenttime="02:45:00" incidentnumber="14235283" address="200 block Bracey Ct" type="OFFENSE" age="" gender="" description="*********************************************** &lt;br/&gt;2701, Simple Assault.&lt;br/&gt;2701(a)(3), Simple Assault - Attempts by Physical Menace&lt;br/&gt;"/><marker lat="40.387167963125073" lng="-79.983326314937173" zone="Zone 3" incidentdate="2014-11-29" incidenttime="08:00:00" incidentnumber="14235550" address="Carrick Ave" type="OFFENSE" age="" gender="" description="*********************************************** &lt;br/&gt;3502, Burglary.&lt;br/&gt;"/><marker lat="40.43940334638495" lng="-79.99688411397743" zone="Zone 2" incidentdate="2014-11-29" incidenttime="15:15:00" incidentnumber="14235544" address="300 block Grant St" type="OFFENSE" age="" gender="" description="*********************************************** &lt;br/&gt;3304, Criminal Mischief.&lt;br/&gt;3934, Theft from Vehicle&lt;br/&gt;"/><marker lat="40.463198941395092" lng="-79.96401407953087" zone="Zone 2" incidentdate="2014-11-29" incidenttime="14:59:00" incidentnumber="14235519" address="3600 block Mintwood St" type="OFFENSE" age="" gender="" description="*********************************************** &lt;br/&gt;3304, Criminal Mischief.&lt;br/&gt;2705, Recklessly Endangering Another Person.&lt;br/&gt;2707.1, Discharge of a Firearm into Occupied Structure&lt;br/&gt;"/><marker lat="40.441161709911142" lng="-80.003981893502939" zone="Zone 2" incidentdate="2014-11-29" incidenttime="16:41:00" incidentnumber="14235568" address="Forbes Ave &amp; Stanwix St" type="OFFENSE" age="" gender="" description="*********************************************** &lt;br/&gt;3745, Accidents Involving Damage to Unattended Veh.or Prop.&lt;br/&gt;"/><marker lat="40.460302578526942" lng="-80.006980071080037" zone="Zone 1" incidentdate="2014-11-29" incidenttime="08:00:00" incidentnumber="14235427" address="1700 block Belleau Dr" type="OFFENSE" age="" gender="" description="*********************************************** &lt;br/&gt;2701, Simple Assault.&lt;br/&gt;"/><marker lat="40.471070786139038" lng="-80.010615244644669" zone="Zone 1" incidentdate="2014-11-29" incidenttime="09:38:00" incidentnumber="14235406" address="2600 block Ellis St" type="OFFENSE" age="" gender="" description="*********************************************** &lt;br/&gt;2701(a)(3), Simple Assault - Attempts by Physical Menace&lt;br/&gt;"/><marker lat="40.422563158317629" lng="-79.925012005349799" zone="Zone 4" incidentdate="2014-11-29" incidenttime="20:18:00" incidentnumber="14235662" address="Ludwick St &amp; Rosemoor St" type="OFFENSE" age="" gender="" description="*********************************************** &lt;br/&gt;13(a)(16), Possession of Controlled Substance&lt;br/&gt;13(a)(32), Paraphernalia - Use or Possession&lt;br/&gt;"/><marker lat="40.440332076098812" lng="-79.99811615543635" zone="Zone 2" incidentdate="2014-11-29" incidenttime="16:00:00" incidentnumber="14235548" address="500 block SMITHFIELD St" type="OFFENSE" age="" gender="" description="*********************************************** &lt;br/&gt;3924, Theft of Property Lost, Mislaid or Delivered by Mistake.&lt;br/&gt;"/><marker lat="40.394935439612901" lng="-80.013303248852793" zone="Zone 6" incidentdate="2014-11-29" incidenttime="09:00:00" incidentnumber="14235405" address="2200 block Lynnbrook Ave" type="OFFENSE" age="" gender="" description="*********************************************** &lt;br/&gt;3502, Burglary.&lt;br/&gt;"/><marker lat="40.415724062159953" lng="-79.99311329972528" zone="Zone 3" incidentdate="2014-11-29" incidenttime="02:18:00" incidentnumber="14235269" address="300 block Zara St" type="OFFENSE" age="" gender="" description="*********************************************** &lt;br/&gt;2702, Aggravated Assault.&lt;br/&gt;5104, Resisting Arrest or Other Law Enforcement.&lt;br/&gt;5503, Disorderly Conduct.&lt;br/&gt;5505, Public Drunkenness&lt;br/&gt;"/><marker lat="40.456515048695316" lng="-80.016515559088219" zone="Zone 1" incidentdate="2014-11-29" incidenttime="15:02:00" incidentnumber="14228818" address="1500 block Brighton Pl" type="OFFENSE" age="" gender="" description="*********************************************** &lt;br/&gt;9093, Indirect Criminal Contempt&lt;br/&gt;9999, 9999 - (Misc. Incident):&lt;br/&gt;"/><marker lat="40.47499622854334" lng="-80.032080613754033" zone="Zone 1" incidentdate="2014-11-29" incidenttime="17:05:00" incidentnumber="14207648" address="1300 block Geyer Ave" type="OFFENSE" age="" gender="" description="*********************************************** &lt;br/&gt;2709, Harassment (Non-Specific)&lt;br/&gt;2701, Simple Assault.&lt;br/&gt;"/><marker lat="40.471621027089377" lng="-79.940158345226706" zone="Zone 5" incidentdate="2014-11-29" incidenttime="20:00:00" incidentnumber="14235656" address="5100 block Schenley Ave" type="OFFENSE" age="" gender="" description="*********************************************** &lt;br/&gt;029, Missing Juvenile&lt;br/&gt;"/><marker lat="40.440697119948119" lng="-80.003946068250272" zone="Zone 2" incidentdate="2014-11-29" incidenttime="14:00:00" incidentnumber="14235538" address="100 block Forbes Ave" type="OFFENSE" age="" gender="" description="*********************************************** &lt;br/&gt;3745, Accidents Involving Damage to Unattended Veh.or Prop.&lt;br/&gt;"/><marker lat="40.40999281867353" lng="-79.977310467453648" zone="Zone 3" incidentdate="2014-11-29" incidenttime="20:00:00" incidentnumber="14235637" address="Mountain Ave &amp; Henger St" type="OFFENSE" age="" gender="" description="*********************************************** &lt;br/&gt;13(a)(31), Marijuana: Possession Small Amount&lt;br/&gt;4524, Windshield Obstructions and Wipers.&lt;br/&gt;1373, Suspension of Registration.&lt;br/&gt;"/><marker lat="40.415050819482282" lng="-79.990622790173717" zone="Zone 3" incidentdate="2014-11-29" incidenttime="16:50:00" incidentnumber="14235549" address="200 block Rochelle St" type="OFFENSE" age="" gender="" description="*********************************************** &lt;br/&gt;2709, Harassment (Non-Specific)&lt;br/&gt;"/><marker lat="40.471379788428038" lng="-79.92892372925354" zone="Zone 5" incidentdate="2014-11-29" incidenttime="04:03:00" incidentnumber="14235334" address="5500 block Baywood St" type="OFFENSE" age="" gender="" description="*********************************************** &lt;br/&gt;3502, Burglary.&lt;br/&gt;3302, Causing or Risking Catastrophe.&lt;br/&gt;"/><marker lat="40.473586213849003" lng="-80.040183520227302" zone="Zone 1" incidentdate="2014-11-29" incidenttime="10:35:00" incidentnumber="14235426" address="Preble Ave &amp; Tracy St" type="OFFENSE" age="" gender="" description="*********************************************** &lt;br/&gt;9999, 9999 - (Misc. Incident):&lt;br/&gt;"/><marker lat="40.460633282878021" lng="-79.991636130819472" zone="Zone 1" incidentdate="2014-11-29" incidenttime="07:33:00" incidentnumber="14235375" address="1200 block High St" type="OFFENSE" age="" gender="" description="*********************************************** &lt;br/&gt;3921(a), Theft by Unlawful Taking or Disposition - Movable item&lt;br/&gt;4106, Access Device Fraud&lt;br/&gt;"/><marker lat="40.448800264565456" lng="-79.987415224990301" zone="Zone 2" incidentdate="2014-11-29" incidenttime="08:48:00" incidentnumber="14235418" address="1600 block Penn Ave" type="OFFENSE" age="" gender="" description="*********************************************** &lt;br/&gt;3921(a), Theft by Unlawful Taking or Disposition - Movable item&lt;br/&gt;3701, Robbery.&lt;br/&gt;"/><marker lat="40.42870250168594" lng="-79.988572966341138" zone="Zone 3" incidentdate="2014-11-29" incidenttime="02:12:00" incidentnumber="14235265" address="E Carson St &amp; S 10th St" type="OFFENSE" age="" gender="" description="*********************************************** &lt;br/&gt;5505, Public Drunkenness&lt;br/&gt;"/><marker lat="40.433470839766983" lng="-80.047863859971841" zone="Zone 6" incidentdate="2014-11-29" incidenttime="17:05:00" incidentnumber="14235570" address="300 block Shadyhill Rd" type="OFFENSE" age="" gender="" description="*********************************************** &lt;br/&gt;3502, Burglary.&lt;br/&gt;"/><marker lat="40.42971383077203" lng="-79.997736947448075" zone="Zone 3" incidentdate="2014-11-29" incidenttime="12:30:00" incidentnumber="14235464" address="E Carson St" type="OFFENSE" age="" gender="" description="*********************************************** &lt;br/&gt;2701, Simple Assault.&lt;br/&gt;"/><marker lat="40.452236477027206" lng="-80.068979604412149" zone="Zone 6" incidentdate="2014-11-29" incidenttime="18:07:00" incidentnumber="14235599" address="Ladoga St &amp; Faronia St" type="OFFENSE" age="" gender="" description="*********************************************** &lt;br/&gt;9497, Aided Case&lt;br/&gt;"/><marker lat="40.453367602996501" lng="-80.054057840289914" zone="Zone 6" incidentdate="2014-11-29" incidenttime="00:19:00" incidentnumber="14235204" address="2900 block Sheraden Blvd" type="OFFENSE" age="" gender="" description="*********************************************** &lt;br/&gt;9488, False  Burglar Alarm&lt;br/&gt;"/><marker lat="40.463896282044196" lng="-80.008741742645356" zone="Zone 1" incidentdate="2014-11-29" incidenttime="11:01:00" incidentnumber="14235343" address="2000 block Letche Ave" type="OFFENSE" age="" gender="" description="*********************************************** &lt;br/&gt;9488, False  Burglar Alarm&lt;br/&gt;"/><marker lat="40.455109037149178" lng="-80.0010590994724" zone="Zone 1" incidentdate="2014-11-29" incidenttime="03:12:00" incidentnumber="14235315" address="900 block James St" type="OFFENSE" age="" gender="" description="*********************************************** &lt;br/&gt;9093, Indirect Criminal Contempt&lt;br/&gt;"/><marker lat="40.47499622854334" lng="-80.032080613754033" zone="Zone 1" incidentdate="2014-11-29" incidenttime="17:05:00" incidentnumber="14227951" address="1300 block Geyer Ave" type="OFFENSE" age="" gender="" description="*********************************************** &lt;br/&gt;9093, Indirect Criminal Contempt&lt;br/&gt;"/><marker lat="40.45526043198857" lng="-80.058743590274176" zone="Zone 6" incidentdate="2014-11-29" incidenttime="14:03:00" incidentnumber="14235486" address="700 block Sherwood Ave" type="OFFENSE" age="" gender="" description="*********************************************** &lt;br/&gt;9488, False  Burglar Alarm&lt;br/&gt;"/><marker lat="40.411115287863552" lng="-80.006028274962105" zone="Zone 3" incidentdate="2014-11-29" incidenttime="01:07:00" incidentnumber="14235217" address="Bausman St &amp; Saw Mill Run Blvd" type="OFFENSE" age="" gender="" description="*********************************************** &lt;br/&gt;13(a)(32), Paraphernalia - Use or Possession&lt;br/&gt;3714, Careless Driving&lt;br/&gt;"/><marker lat="40.441563849225801" lng="-79.956971080352545" zone="Zone 4" incidentdate="2014-11-29" incidenttime="08:55:00" incidentnumber="14235390" address="Oakland Ave &amp; Forbes Ave" type="OFFENSE" age="" gender="" description="*********************************************** &lt;br/&gt;9999, 9999 - (Misc. Incident):&lt;br/&gt;"/><marker lat="40.451698035579305" lng="-79.885558871811" zone="Zone 5" incidentdate="2014-11-29" incidenttime="16:00:00" incidentnumber="14235537" address="7900 block Hamilton Ave" type="OFFENSE" age="" gender="" description="*********************************************** &lt;br/&gt;2709(a), Harassment.&lt;br/&gt;"/><marker lat="40.447685963600136" lng="-79.938838355579733" zone="Zone 4" incidentdate="2014-11-29" incidenttime="02:25:00" incidentnumber="14235282" address="5th Ave &amp; Amberson Ave" type="OFFENSE" age="" gender="" description="*********************************************** &lt;br/&gt;3714, Careless Driving&lt;br/&gt;3802(a)(1), DUI - General Impairment&lt;br/&gt;3802(c), DUI - Highest Rate of Alcohol - BAC &gt;= .16%&lt;br/&gt;"/><marker lat="40.404935112466504" lng="-79.939161735340249" zone="Zone 4" incidentdate="2014-11-29" incidenttime="20:27:00" incidentnumber="14235661" address="300 block Winston St" type="OFFENSE" age="" gender="" description="*********************************************** &lt;br/&gt;9496, Dead on Arrival (DOA)&lt;br/&gt;"/><marker lat="40.413954063570756" lng="-80.009670712485374" zone="Zone 3" incidentdate="2014-11-29" incidenttime="03:05:00" incidentnumber="14235296" address="Saw Mill Run Blvd &amp; West Liberty Ave" type="OFFENSE" age="" gender="" description="*********************************************** &lt;br/&gt;2705, Recklessly Endangering Another Person.&lt;br/&gt;2709(a), Harassment.&lt;br/&gt;3743, Accidents Involving Damage to Attended Veh. or Property&lt;br/&gt;"/><marker lat="40.411998076177227" lng="-79.995149476193134" zone="Zone 3" incidentdate="2014-11-29" incidenttime="03:52:00" incidentnumber="14235324" address="400 block Moore Ave" type="OFFENSE" age="" gender="" description="*********************************************** &lt;br/&gt;029, Missing Juvenile&lt;br/&gt;"/><marker lat="40.40110054033066" lng="-80.031982060325376" zone="Zone 6" incidentdate="2014-11-29" incidenttime="11:00:00" incidentnumber="14235503" address="1500 block Broadway Ave" type="OFFENSE" age="" gender="" description="*********************************************** &lt;br/&gt;9504, Lost Property&lt;br/&gt;"/><marker lat="40.411346738439107" lng="-79.975645060584924" zone="Zone 3" incidentdate="2014-11-29" incidenttime="15:15:00" incidentnumber="14235525" address="500 block Engstler St" type="OFFENSE" age="" gender="" description="*********************************************** &lt;br/&gt;3304, Criminal Mischief.&lt;br/&gt;"/><marker lat="40.454796925767354" lng="-79.965852751621711" zone="Zone 2" incidentdate="2014-11-29" incidenttime="16:17:00" incidentnumber="14235551" address="3300 block Ajax St" type="OFFENSE" age="" gender="" description="*********************************************** &lt;br/&gt;3502, Burglary.&lt;br/&gt;"/><marker lat="40.459468634817931" lng="-79.938394685531392" zone="Zone 5" incidentdate="2014-11-29" incidenttime="19:30:00" incidentnumber="14235638" address="400 block S Aiken Ave" type="OFFENSE" age="" gender="" description="*********************************************** &lt;br/&gt;2709(a), Harassment.&lt;br/&gt;"/><marker lat="40.463563915176628" lng="-79.957203238837749" zone="Zone 5" incidentdate="2014-11-29" incidenttime="12:20:00" incidentnumber="14235465" address="4000 block Howley St" type="OFFENSE" age="" gender="" description="*********************************************** &lt;br/&gt;9999, 9999 - (Misc. Incident):&lt;br/&gt;"/><marker lat="40.454207988839954" lng="-79.997316632977075" zone="Zone 1" incidentdate="2014-11-29" incidenttime="21:34:00" incidentnumber="14235702" address="200 block East Ohio St" type="OFFENSE" age="" gender="" description="*********************************************** &lt;br/&gt;2709.1, Stalking Conduct or Repeatedly Acts Including Follows&lt;br/&gt;9093, Indirect Criminal Contempt&lt;br/&gt;2709, Harassment (Non-Specific)&lt;br/&gt;"/><marker lat="40.474969270673661" lng="-79.927819600643218" zone="Zone 5" incidentdate="2014-11-29" incidenttime="17:15:00" incidentnumber="14235573" address="1000 block King Ave" type="OFFENSE" age="" gender="" description="*********************************************** &lt;br/&gt;9496, Dead on Arrival (DOA)&lt;br/&gt;"/><marker lat="40.468650269118584" lng="-80.02668669158534" zone="Zone 1" incidentdate="2014-11-29" incidenttime="18:00:00" incidentnumber="14235654" address="2600 block Stayton St" type="OFFENSE" age="" gender="" description="*********************************************** &lt;br/&gt;3502, Burglary.&lt;br/&gt;"/><marker lat="40.443827070123405" lng="-79.993845340890502" zone="Zone 2" incidentdate="2014-11-29" incidenttime="02:02:00" incidentnumber="14235264" address="Liberty Ave &amp; Grant St" type="OFFENSE" age="" gender="" description="*********************************************** &lt;br/&gt;1543, Driving While Operating Privilege is Suspended or Revoked.&lt;br/&gt;3309, Driving on Roadways Laned for Traffic.&lt;br/&gt;3802(a)(1), DUI - General Impairment&lt;br/&gt;3802(c), DUI - Highest Rate of Alcohol - BAC &gt;= .16%&lt;br/&gt;"/><marker lat="40.427188547881535" lng="-80.005614053802859" zone="Zone 3" incidentdate="2014-11-29" incidenttime="02:31:00" incidentnumber="14235276" address="100 block Boggs Ave" type="OFFENSE" age="" gender="" description="*********************************************** &lt;br/&gt;5505, Public Drunkenness&lt;br/&gt;"/><marker lat="40.463152549889003" lng="-79.962170471863828" zone="Zone 2" incidentdate="2014-11-29" incidenttime="14:52:00" incidentnumber="14235512" address="37th St &amp; Cabinet Way" type="OFFENSE" age="" gender="" description="*********************************************** &lt;br/&gt;2702, Aggravated Assault.&lt;br/&gt;"/><marker lat="40.460594319900963" lng="-79.922716789802806" zone="Zone 5" incidentdate="2014-11-29" incidenttime="11:04:00" incidentnumber="14235434" address="6200 block Penn Ave" type="OFFENSE" age="" gender="" description="*********************************************** &lt;br/&gt;3921(a), Theft by Unlawful Taking or Disposition - Movable item&lt;br/&gt;"/><marker lat="40.459960660424144" lng="-79.897653899071486" zone="Zone 5" incidentdate="2014-11-29" incidenttime="12:27:00" incidentnumber="14235467" address="7100 block Monticello St" type="OFFENSE" age="" gender="" description="*********************************************** &lt;br/&gt;1301, Registration and Certificate of Title Required.&lt;br/&gt;13(a)(16), Possession of Controlled Substance&lt;br/&gt;13(a)(30), Possession w/ Intent to Del. Controlled Substance&lt;br/&gt;1371, Operation Following Suspension of Registration.&lt;br/&gt;"/><marker lat="40.411998076177227" lng="-79.995149476193134" zone="Zone 3" incidentdate="2014-11-29" incidenttime="03:52:00" incidentnumber="14235357" address="400 block Moore Ave" type="OFFENSE" age="" gender="" description="*********************************************** &lt;br/&gt;029, Missing Juvenile&lt;br/&gt;"/><marker lat="40.440312313140176" lng="-80.023168371073737" zone="Zone 3" incidentdate="2014-11-29" incidenttime="18:24:00" incidentnumber="14235607" address="1400 block Grandview Ave" type="OFFENSE" age="" gender="" description="*********************************************** &lt;br/&gt;2709(a)(1), Harassment by Physical Contact, or Attempts or Threats&lt;br/&gt;2709(a)(3), Harassment No Legitimate Purpose&lt;br/&gt;"/><marker lat="40.457267579856016" lng="-80.051856353957618" zone="Zone 6" incidentdate="2014-11-29" incidenttime="07:39:00" incidentnumber="14235378" address="3000 block Merwyn Ave" type="OFFENSE" age="" gender="" description="*********************************************** &lt;br/&gt;9999, 9999 - (Misc. Incident):&lt;br/&gt;"/><marker lat="40.483246555096763" lng="-80.035194746264679" zone="Zone 1" incidentdate="2014-11-29" incidenttime="17:27:00" incidentnumber="14235590" address="3700 block Brighton Rd" type="OFFENSE" age="" gender="" description="*********************************************** &lt;br/&gt;3929, Retail Theft.&lt;br/&gt;"/><marker lat="40.428585203983602" lng="-79.981869007680203" zone="Zone 3" incidentdate="2014-11-29" incidenttime="02:05:00" incidentnumber="14235267" address="1700 block E Carson St" type="OFFENSE" age="" gender="" description="*********************************************** &lt;br/&gt;601.16, Public Urination And Defecation&lt;br/&gt;5505, Public Drunkenness&lt;br/&gt;"/><marker lat="40.453470511792048" lng="-80.001533243378148" zone="Zone 1" incidentdate="2014-11-29" incidenttime="13:55:00" incidentnumber="14235495" address="400 block East Ohio St" type="OFFENSE" age="" gender="" description="*********************************************** &lt;br/&gt;601.08(a), Alcohol or Liquor Consumption on Streets or Sidewalks&lt;br/&gt;"/><marker lat="40.455526459350949" lng="-79.888093103464158" zone="Zone 5" incidentdate="2014-11-29" incidenttime="03:29:00" incidentnumber="14235318" address="Frankstown Ave &amp; Brushton Ave" type="OFFENSE" age="" gender="" description="*********************************************** &lt;br/&gt;13(a)(31), Marijuana: Possession Small Amount&lt;br/&gt;1543, Driving While Operating Privilege is Suspended or Revoked.&lt;br/&gt;3112, Traffic-Control Signals.&lt;br/&gt;3323, Stop Signs and Yield Signs.&lt;br/&gt;3802(a)(1), DUI - General Impairment&lt;br/&gt;3802(b), DUI - High Rate of Alchol - BAC &gt;=.10% &lt;.16%&lt;br/&gt;"/><marker lat="40.449606365527259" lng="-79.974270684591801" zone="Zone 2" incidentdate="2014-11-29" incidenttime="02:27:00" incidentnumber="14235284" address="2400 block Bedford Ave" type="OFFENSE" age="" gender="" description="*********************************************** &lt;br/&gt;3304, Criminal Mischief.&lt;br/&gt;607.03, Discharging Firearm or Airgun&lt;br/&gt;"/><marker lat="40.428684832699354" lng="-79.983306706238423" zone="Zone 3" incidentdate="2014-11-29" incidenttime="01:35:00" incidentnumber="14235242" address="1500 block E Carson St" type="OFFENSE" age="" gender="" description="*********************************************** &lt;br/&gt;3503(b)(1)(i), Actual Communication&lt;br/&gt;5505, Public Drunkenness&lt;br/&gt;"/><marker lat="40.459960660424144" lng="-79.897653899071486" zone="Zone 5" incidentdate="2014-11-29" incidenttime="22:19:00" incidentnumber="14235722" address="7100 block Monticello St" type="OFFENSE" age="" gender="" description="*********************************************** &lt;br/&gt;029, Missing Juvenile&lt;br/&gt;"/><marker lat="40.444200272919588" lng="-80.040607296470199" zone="Zone 6" incidentdate="2014-11-29" incidenttime="09:40:00" incidentnumber="14235408" address="1000 block Chartiers Ave" type="OFFENSE" age="" gender="" description="*********************************************** &lt;br/&gt;3743, Accidents Involving Damage to Attended Veh. or Property&lt;br/&gt;"/><marker lat="40.429319862415177" lng="-79.981997147629315" zone="Zone 3" incidentdate="2014-11-29" incidenttime="00:38:00" incidentnumber="14235209" address="S 17th St &amp; Wrights Way" type="OFFENSE" age="" gender="" description="*********************************************** &lt;br/&gt;1301, Registration and Certificate of Title Required.&lt;br/&gt;13(a)(31)(i), Marijuana - Possess Small Amt for Personal Use&lt;br/&gt;"/><marker lat="40.451200624160947" lng="-79.9257871886754" zone="Zone 4" incidentdate="2014-11-29" incidenttime="03:45:00" incidentnumber="14235319" address="College Ave &amp; 5th Ave" type="OFFENSE" age="" gender="" description="*********************************************** &lt;br/&gt;4303, General Lighting Requirements.&lt;br/&gt;3802(a)(1), DUI - General Impairment&lt;br/&gt;3802(a)(2), DUI - BAC &gt;.08% &lt;.10%&lt;br/&gt;"/><marker lat="40.438685596185962" lng="-79.988266340906492" zone="Zone 2" incidentdate="2014-11-29" incidenttime="15:48:00" incidentnumber="14235536" address="5th Ave &amp; Magee St" type="OFFENSE" age="" gender="" description="*********************************************** &lt;br/&gt;13(a)(31), Marijuana: Possession Small Amount&lt;br/&gt;5505, Public Drunkenness&lt;br/&gt;"/><marker lat="40.442587791779665" lng="-80.08532925287804" zone="Zone 6" incidentdate="2014-11-29" incidenttime="13:07:00" incidentnumber="14235474" address="600 block Napor Blvd" type="OFFENSE" age="" gender="" description="*********************************************** &lt;br/&gt;9488, False  Burglar Alarm&lt;br/&gt;"/><marker lat="40.451601893913271" lng="-80.066357338902122" zone="Zone 6" incidentdate="2014-11-29" incidenttime="15:23:00" incidentnumber="14235524" address="3200 block Faronia St" type="OFFENSE" age="" gender="" description="*********************************************** &lt;br/&gt;3304, Criminal Mischief.&lt;br/&gt;3503(b.1)(1)(iii), Criminal Trespass/Simple Trespasser - Defacing or Damaging the Premises&lt;br/&gt;"/><marker lat="40.445647284854452" lng="-79.994132022463603" zone="Zone 2" incidentdate="2014-11-29" incidenttime="01:15:00" incidentnumber="14235221" address="Smallman St &amp; 11th St" type="OFFENSE" age="" gender="" description="*********************************************** &lt;br/&gt;4302, Periods for Requiring Lighted Lamps.&lt;br/&gt;3334, Turning Movements and Required Signals.&lt;br/&gt;3802(a)(1), DUI - General Impairment&lt;br/&gt;3802(b), DUI - High Rate of Alchol - BAC &gt;=.10% &lt;.16%&lt;br/&gt;"/><marker lat="40.449884001105687" lng="-79.974732885831912" zone="Zone 2" incidentdate="2014-11-29" incidenttime="05:15:00" incidentnumber="14235325" address="Chauncey Dr" type="OFFENSE" age="" gender="" description="*********************************************** &lt;br/&gt;2705, Recklessly Endangering Another Person.&lt;br/&gt;"/><marker lat="40.428686990454359" lng="-79.9835018707046" zone="Zone 3" incidentdate="2014-11-29" incidenttime="02:19:00" incidentnumber="14235278" address="S 15th St" type="OFFENSE" age="" gender="" description="*********************************************** &lt;br/&gt;601.16(b)(1)(a), Any Person who urinates or defecates in, on, or about any public place&lt;br/&gt;"/><marker lat="40.451601893913271" lng="-80.066357338902122" zone="Zone 6" incidentdate="2014-11-29" incidenttime="15:23:00" incidentnumber="14235553" address="3200 block Faronia St" type="OFFENSE" age="" gender="" description="*********************************************** &lt;br/&gt;3304, Criminal Mischief.&lt;br/&gt;3503(b.1)(1)(iii), Criminal Trespass/Simple Trespasser - Defacing or Damaging the Premises&lt;br/&gt;"/><marker lat="40.457281883886331" lng="-79.909059701531348" zone="Zone 5" incidentdate="2014-11-29" incidenttime="02:58:00" incidentnumber="14235310" address="Hamilton Ave &amp; 5th Ave" type="OFFENSE" age="" gender="" description="*********************************************** &lt;br/&gt;13(a)(31), Marijuana: Possession Small Amount&lt;br/&gt;3334, Turning Movements and Required Signals.&lt;br/&gt;6105(a)(1), Persons not to possess, use, manufacture, control, sell or transfer firearms: Former convict enumerated in subsection (b)&lt;br/&gt;"/><marker lat="40.46307206303031" lng="-79.924078822601928" zone="Zone 5" incidentdate="2014-11-29" incidenttime="17:15:00" incidentnumber="14235566" address="Harvard Sq &amp; N Highland Ave" type="OFFENSE" age="" gender="" description="*********************************************** &lt;br/&gt;601.16, Public Urination And Defecation&lt;br/&gt;"/><marker lat="40.450211644641676" lng="-79.928436634818141" zone="Zone 4" incidentdate="2014-11-29" incidenttime="02:46:00" incidentnumber="14235299" address="Murray Hill Ave &amp; 5th Ave" type="OFFENSE" age="" gender="" description="*********************************************** &lt;br/&gt;3111, Obedience to Traffic-Control Devices.&lt;br/&gt;3802(a)(1), DUI - General Impairment&lt;br/&gt;3802(c), DUI - Highest Rate of Alcohol - BAC &gt;= .16%&lt;br/&gt;"/><marker lat="40.46184182208286" lng="-79.937611431319027" zone="Zone 5" incidentdate="2014-11-29" incidenttime="16:00:00" incidentnumber="14235543" address="5400 block Friendship Ave" type="OFFENSE" age="" gender="" description="*********************************************** &lt;br/&gt;3307, Institutional Vandalism.&lt;br/&gt;"/><marker lat="40.38515772475057" lng="-79.995148189584569" zone="Zone 3" incidentdate="2014-11-29" incidenttime="01:30:00" incidentnumber="14235376" address="2400 block Saw Mill Run Blvd" type="OFFENSE" age="" gender="" description="*********************************************** &lt;br/&gt;2701, Simple Assault.&lt;br/&gt;"/><marker lat="40.428749648408306" lng="-79.986422192206675" zone="Zone 3" incidentdate="2014-11-29" incidenttime="02:57:00" incidentnumber="14235307" address="S 12TH St &amp; E CARSON St" type="OFFENSE" age="" gender="" description="*********************************************** &lt;br/&gt;4303, General Lighting Requirements.&lt;br/&gt;3802(a)(1), DUI - General Impairment&lt;br/&gt;3802(b), DUI - High Rate of Alchol - BAC &gt;=.10% &lt;.16%&lt;br/&gt;"/><marker lat="40.447685963600136" lng="-79.938838355579733" zone="Zone 4" incidentdate="2014-11-29" incidenttime="02:39:00" incidentnumber="14235282" address="5th Ave &amp; Amberson Ave" type="ARREST" age="26" gender="M" description="*********************************************** &lt;br/&gt;3714, Careless Driving&lt;br/&gt;3802(a)(1), DUI - General Impairment&lt;br/&gt;3802(c), DUI - Highest Rate of Alcohol - BAC &gt;= .16%&lt;br/&gt;"/><marker lat="40.450211644641676" lng="-79.928436634818141" zone="Zone 4" incidentdate="2014-11-29" incidenttime="02:55:00" incidentnumber="14235299" address="Murray Hill Ave &amp; 5th Ave" type="ARREST" age="24" gender="M" description="*********************************************** &lt;br/&gt;3111, Obedience to Traffic-Control Devices.&lt;br/&gt;3802(a)(1), DUI - General Impairment&lt;br/&gt;3802(c), DUI - Highest Rate of Alcohol - BAC &gt;= .16%&lt;br/&gt;"/><marker lat="40.422563158317629" lng="-79.925012005349799" zone="Zone 4" incidentdate="2014-11-29" incidenttime="20:22:00" incidentnumber="14235662" address="Ludwick St &amp; Rosemoor St" type="ARREST" age="24" gender="M" description="*********************************************** &lt;br/&gt;13(a)(16), Possession of Controlled Substance&lt;br/&gt;13(a)(32), Paraphernalia - Use or Possession&lt;br/&gt;"/><marker lat="40.457281883886331" lng="-79.909059701531348" zone="Zone 5" incidentdate="2014-11-29" incidenttime="03:05:00" incidentnumber="14235310" address="Hamilton Ave &amp; 5th Ave" type="ARREST" age="33" gender="M" description="*********************************************** &lt;br/&gt;13(a)(31), Marijuana: Possession Small Amount&lt;br/&gt;3334, Turning Movements and Required Signals.&lt;br/&gt;6105(a)(1), Persons not to possess, use, manufacture, control, sell or transfer firearms: Former convict enumerated in subsection (b)&lt;br/&gt;"/><marker lat="40.40999281867353" lng="-79.977310467453648" zone="Zone 3" incidentdate="2014-11-29" incidenttime="19:30:00" incidentnumber="14235637" address="Mountain Ave &amp; Henger St" type="ARREST" age="30" gender="M" description="*********************************************** &lt;br/&gt;13(a)(31), Marijuana: Possession Small Amount&lt;br/&gt;4524, Windshield Obstructions and Wipers.&lt;br/&gt;1373, Suspension of Registration.&lt;br/&gt;"/><marker lat="40.429319862415177" lng="-79.981997147629315" zone="Zone 3" incidentdate="2014-11-29" incidenttime="00:38:00" incidentnumber="14235209" address="S 17th St &amp; Wrights Way" type="ARREST" age="23" gender="M" description="*********************************************** &lt;br/&gt;1301, Registration and Certificate of Title Required.&lt;br/&gt;13(a)(31)(i), Marijuana - Possess Small Amt for Personal Use&lt;br/&gt;"/><marker lat="40.455526459350949" lng="-79.888093103464158" zone="Zone 5" incidentdate="2014-11-29" incidenttime="03:29:00" incidentnumber="14235318" address="Frankstown Ave &amp; Brushton Ave" type="ARREST" age="22" gender="M" description="*********************************************** &lt;br/&gt;13(a)(31), Marijuana: Possession Small Amount&lt;br/&gt;1543, Driving While Operating Privilege is Suspended or Revoked.&lt;br/&gt;3112, Traffic-Control Signals.&lt;br/&gt;3323, Stop Signs and Yield Signs.&lt;br/&gt;3802(a)(1), DUI - General Impairment&lt;br/&gt;3802(b), DUI - High Rate of Alchol - BAC &gt;=.10% &lt;.16%&lt;br/&gt;"/><marker lat="40.443827070123405" lng="-79.993845340890502" zone="Zone 2" incidentdate="2014-11-29" incidenttime="02:10:00" incidentnumber="14235264" address="Liberty Ave &amp; Grant St" type="ARREST" age="33" gender="M" description="*********************************************** &lt;br/&gt;1543, Driving While Operating Privilege is Suspended or Revoked.&lt;br/&gt;3309, Driving on Roadways Laned for Traffic.&lt;br/&gt;3802(a)(1), DUI - General Impairment&lt;br/&gt;3802(c), DUI - Highest Rate of Alcohol - BAC &gt;= .16%&lt;br/&gt;"/><marker lat="40.471070786139038" lng="-80.010615244644669" zone="Zone 1" incidentdate="2014-11-29" incidenttime="09:50:00" incidentnumber="14235406" address="2600 block Ellis St" type="ARREST" age="25" gender="M" description="*********************************************** &lt;br/&gt;2701(a)(3), Simple Assault - Attempts by Physical Menace&lt;br/&gt;"/><marker lat="40.47499622854334" lng="-80.032080613754033" zone="Zone 1" incidentdate="2014-11-29" incidenttime="17:05:00" incidentnumber="14207648" address="1300 block Geyer Ave" type="ARREST" age="20" gender="M" description="*********************************************** &lt;br/&gt;2709, Harassment (Non-Specific)&lt;br/&gt;2701, Simple Assault.&lt;br/&gt;"/><marker lat="40.445647284854452" lng="-79.994132022463603" zone="Zone 2" incidentdate="2014-11-29" incidenttime="01:15:00" incidentnumber="14235221" address="Smallman St &amp; 11th St" type="ARREST" age="40" gender="M" description="*********************************************** &lt;br/&gt;4302, Periods for Requiring Lighted Lamps.&lt;br/&gt;3334, Turning Movements and Required Signals.&lt;br/&gt;3802(a)(1), DUI - General Impairment&lt;br/&gt;3802(b), DUI - High Rate of Alchol - BAC &gt;=.10% &lt;.16%&lt;br/&gt;"/><marker lat="40.415724062159953" lng="-79.99311329972528" zone="Zone 3" incidentdate="2014-11-29" incidenttime="02:18:00" incidentnumber="14235269" address="300 block Zara St" type="ARREST" age="23" gender="F" description="*********************************************** &lt;br/&gt;2702, Aggravated Assault.&lt;br/&gt;5104, Resisting Arrest or Other Law Enforcement.&lt;br/&gt;5503, Disorderly Conduct.&lt;br/&gt;5505, Public Drunkenness&lt;br/&gt;"/><marker lat="40.459960660424144" lng="-79.897653899071486" zone="Zone 5" incidentdate="2014-11-29" incidenttime="12:47:00" incidentnumber="14235467" address="7100 block Monticello St" type="ARREST" age="21" gender="F" description="*********************************************** &lt;br/&gt;1301, Registration and Certificate of Title Required.&lt;br/&gt;13(a)(16), Possession of Controlled Substance&lt;br/&gt;13(a)(30), Possession w/ Intent to Del. Controlled Substance&lt;br/&gt;1371, Operation Following Suspension of Registration.&lt;br/&gt;"/><marker lat="40.47499622854334" lng="-80.032080613754033" zone="Zone 1" incidentdate="2014-11-29" incidenttime="17:05:00" incidentnumber="14227951" address="1300 block Geyer Ave" type="ARREST" age="20" gender="M" description="*********************************************** &lt;br/&gt;9093, Indirect Criminal Contempt&lt;br/&gt;"/><marker lat="40.411115287863552" lng="-80.006028274962105" zone="Zone 3" incidentdate="2014-11-29" incidenttime="01:07:00" incidentnumber="14235217" address="Bausman St &amp; Saw Mill Run Blvd" type="ARREST" age="42" gender="M" description="*********************************************** &lt;br/&gt;13(a)(32), Paraphernalia - Use or Possession&lt;br/&gt;3714, Careless Driving&lt;br/&gt;"/><marker lat="40.42971383077203" lng="-79.997736947448075" zone="Zone 3" incidentdate="2014-11-29" incidenttime="12:30:00" incidentnumber="14235464" address="E Carson St" type="ARREST" age="23" gender="F" description="*********************************************** &lt;br/&gt;2701, Simple Assault.&lt;br/&gt;"/><marker lat="40.456515048695316" lng="-80.016515559088219" zone="Zone 1" incidentdate="2014-11-29" incidenttime="15:02:00" incidentnumber="14228818" address="1500 block Brighton Pl" type="ARREST" age="40" gender="M" description="*********************************************** &lt;br/&gt;9093, Indirect Criminal Contempt&lt;br/&gt;9999, 9999 - (Misc. Incident):&lt;br/&gt;"/><marker lat="40.438685596185962" lng="-79.988266340906492" zone="Zone 2" incidentdate="2014-11-29" incidenttime="15:55:00" incidentnumber="14235536" address="5th Ave &amp; Magee St" type="ARREST" age="47" gender="M" description="*********************************************** &lt;br/&gt;13(a)(31), Marijuana: Possession Small Amount&lt;br/&gt;5505, Public Drunkenness&lt;br/&gt;"/><marker lat="40.451200624160947" lng="-79.9257871886754" zone="Zone 4" incidentdate="2014-11-29" incidenttime="03:40:00" incidentnumber="14235319" address="College Ave &amp; 5th Ave" type="ARREST" age="24" gender="M" description="*********************************************** &lt;br/&gt;4303, General Lighting Requirements.&lt;br/&gt;3802(a)(1), DUI - General Impairment&lt;br/&gt;3802(a)(2), DUI - BAC &gt;.08% &lt;.10%&lt;br/&gt;"/><marker lat="40.428749648408306" lng="-79.986422192206675" zone="Zone 3" incidentdate="2014-11-29" incidenttime="02:57:00" incidentnumber="14235307" address="S 12TH St &amp; E CARSON St" type="ARREST" age="32" gender="M" description="*********************************************** &lt;br/&gt;4303, General Lighting Requirements.&lt;br/&gt;3802(a)(1), DUI - General Impairment&lt;br/&gt;3802(b), DUI - High Rate of Alchol - BAC &gt;=.10% &lt;.16%&lt;br/&gt;"/><marker lat="40.455109037149178" lng="-80.0010590994724" zone="Zone 1" incidentdate="2014-11-29" incidenttime="03:20:00" incidentnumber="14235315" address="900 block James St" type="ARREST" age="52" gender="M" description="*********************************************** &lt;br/&gt;9093, Indirect Criminal Contempt&lt;br/&gt;"/><marker lat="40.428684832699354" lng="-79.983306706238423" zone="Zone 3" incidentdate="2014-11-29" incidenttime="01:35:00" incidentnumber="14235242" address="1500 block E Carson St" type="ARREST" age="25" gender="M" description="*********************************************** &lt;br/&gt;3503(b)(1)(i), Actual Communication&lt;br/&gt;5505, Public Drunkenness&lt;br/&gt;"/></markers>
