<?xml version="1.0"?>
<markers><marker lat="40.427570135437186" lng="-79.983452876581822" zone="Zone 3" incidentdate="2015-10-31" incidenttime="18:40:00" incidentnumber="15209480" address="1500 block Sarah St" type="OFFENSE" age="" gender="" description="*********************************************** &lt;br/&gt;13(a)(16), Possession of Controlled Substance&lt;br/&gt;13(a)(32), Paraphernalia - Use or Possession&lt;br/&gt;"/><marker lat="40.438224491241179" lng="-79.97746711026835" zone="Zone 2" incidentdate="2015-10-31" incidenttime="06:15:00" incidentnumber="15209129" address="2000 block Wyandotte St" type="OFFENSE" age="" gender="" description="*********************************************** &lt;br/&gt;2701(a)(3), Simple Assault - Attempts by Physical Menace&lt;br/&gt;"/><marker lat="40.418951806911615" lng="-79.89961254662721" zone="Zone 4" incidentdate="2015-10-31" incidenttime="14:01:00" incidentnumber="15209344" address="100 block Blackhawk St" type="OFFENSE" age="" gender="" description="*********************************************** &lt;br/&gt;029, Missing Juvenile&lt;br/&gt;"/><marker lat="40.452042212663898" lng="-80.008738896002342" zone="Zone 1" incidentdate="2015-10-31" incidenttime="14:15:00" incidentnumber="15209348" address="200 block Ridge Ave" type="OFFENSE" age="" gender="" description="*********************************************** &lt;br/&gt;029, Missing Juvenile&lt;br/&gt;"/><marker lat="40.428799178836528" lng="-79.984145739682731" zone="Zone 3" incidentdate="2015-10-31" incidenttime="01:28:00" incidentnumber="15209000" address="E Carson St &amp; S 14th St" type="OFFENSE" age="" gender="" description="*********************************************** &lt;br/&gt;9501, Bench Warrant&lt;br/&gt;3802(a)(1), DUI - General Impairment&lt;br/&gt;3714, Careless Driving&lt;br/&gt;4703, Operation of Vehicle without Official Certif. of Inspection&lt;br/&gt;2706, Terroristic Threats.&lt;br/&gt;908, Prohibited Offensive Weapons.&lt;br/&gt;4706, Prohib. on Expend. for Emission Insp Prog..&lt;br/&gt;"/><marker lat="40.386289152186016" lng="-79.98378684876468" zone="Zone 3" incidentdate="2015-10-31" incidenttime="07:30:00" incidentnumber="15209151" address="2400 block Edgar St" type="OFFENSE" age="" gender="" description="*********************************************** &lt;br/&gt;9496, Dead on Arrival (DOA)&lt;br/&gt;"/><marker lat="40.462206527800817" lng="-80.051237561811348" zone="Zone 6" incidentdate="2015-10-31" incidenttime="04:00:00" incidentnumber="15209107" address="3300 block W Carson St" type="OFFENSE" age="" gender="" description="*********************************************** &lt;br/&gt;2709(a)(3), Harassment No Legitimate Purpose&lt;br/&gt;"/><marker lat="40.45803936285224" lng="-79.904251416277006" zone="Zone 5" incidentdate="2015-10-31" incidenttime="10:15:00" incidentnumber="15209212" address="6900 block Frankstown Ave" type="OFFENSE" age="" gender="" description="*********************************************** &lt;br/&gt;4120, Identity Theft&lt;br/&gt;"/><marker lat="40.485014435488722" lng="-80.039470198347502" zone="Zone 1" incidentdate="2015-10-31" incidenttime="09:51:00" incidentnumber="15209189" address="3900 block Riddle St" type="OFFENSE" age="" gender="" description="*********************************************** &lt;br/&gt;3304, Criminal Mischief.&lt;br/&gt;"/><marker lat="40.427081781994367" lng="-79.967068291202835" zone="Zone 3" incidentdate="2015-10-31" incidenttime="02:55:00" incidentnumber="15209081" address="S 27th St &amp; E Carson St" type="OFFENSE" age="" gender="" description="*********************************************** &lt;br/&gt;3745, Accidents Involving Damage to Unattended Veh.or Prop.&lt;br/&gt;"/><marker lat="40.468779162131661" lng="-79.985624774626743" zone="Zone 1" incidentdate="2015-10-31" incidenttime="11:45:00" incidentnumber="15209233" address="1900 block Spring Garden Ave" type="OFFENSE" age="" gender="" description="*********************************************** &lt;br/&gt;13(a)(31), Marijuana: Possession Small Amount&lt;br/&gt;"/><marker lat="40.428815176198341" lng="-79.983424931589681" zone="Zone 3" incidentdate="2015-10-31" incidenttime="00:41:00" incidentnumber="15208961" address="S 15th St &amp; E Carson St" type="OFFENSE" age="" gender="" description="*********************************************** &lt;br/&gt;5503(a)(4), DISORDERLY CONDUCT - HAZARDOUS/PHYS. OFF&lt;br/&gt;5505, Public Drunkenness&lt;br/&gt;3503.B1I, DEF. TRESPASS ACTUAL COMMUNICATION&lt;br/&gt;"/><marker lat="40.426758783783633" lng="-80.002448877770476" zone="Zone 3" incidentdate="2015-10-31" incidenttime="04:00:00" incidentnumber="15209102" address="300 block Bailey Ave" type="OFFENSE" age="" gender="" description="*********************************************** &lt;br/&gt;3502, Burglary.&lt;br/&gt;"/><marker lat="40.471816083273318" lng="-80.036551124585912" zone="Zone 1" incidentdate="2015-10-31" incidenttime="03:00:00" incidentnumber="15209138" address="1700 block Eckert St" type="OFFENSE" age="" gender="" description="*********************************************** &lt;br/&gt;3921(a), Theft by Unlawful Taking or Disposition - Movable item&lt;br/&gt;3921, Theft by Unlawful Taking or Disposition.&lt;br/&gt;"/><marker lat="40.472481837294396" lng="-79.918054544961166" zone="Zone 5" incidentdate="2015-10-31" incidenttime="03:11:00" incidentnumber="15209086" address="1000 block Farragut St" type="OFFENSE" age="" gender="" description="*********************************************** &lt;br/&gt;3503, Criminal Trespass&lt;br/&gt;"/><marker lat="40.441024249715781" lng="-79.95736833680553" zone="Zone 4" incidentdate="2015-10-31" incidenttime="15:18:00" incidentnumber="15209370" address="3700 block Forbes Ave" type="OFFENSE" age="" gender="" description="*********************************************** &lt;br/&gt;3921(a), Theft by Unlawful Taking or Disposition - Movable item&lt;br/&gt;"/><marker lat="40.468729593934583" lng="-79.891779456903407" zone="Zone 5" incidentdate="2015-10-31" incidenttime="03:00:00" incidentnumber="15209449" address="1600 block Broadhead St" type="OFFENSE" age="" gender="" description="*********************************************** &lt;br/&gt;2701, Simple Assault.&lt;br/&gt;2706, Terroristic Threats.&lt;br/&gt;"/><marker lat="40.436542249197686" lng="-79.955542366200021" zone="Zone 4" incidentdate="2015-10-31" incidenttime="01:29:00" incidentnumber="15209145" address="400 block McKee Pl" type="OFFENSE" age="" gender="" description="*********************************************** &lt;br/&gt;3304(a)(4), CRIMINAL MISCHIEF- Intentionally Damage Property (By Graffiti, Aerosol Spray Paint, Broad Tip Marker, or Similar)&lt;br/&gt;"/><marker lat="40.441919441965581" lng="-79.982892744621594" zone="Zone 2" incidentdate="2015-10-31" incidenttime="10:00:00" incidentnumber="15209197" address="1800 block Centre Ave" type="OFFENSE" age="" gender="" description="*********************************************** &lt;br/&gt;901, Criminal Attempt&lt;br/&gt;"/><marker lat="40.427168151484665" lng="-79.977741347784132" zone="Zone 3" incidentdate="2015-10-31" incidenttime="19:00:00" incidentnumber="15209510" address="2000 block Larkins Way" type="OFFENSE" age="" gender="" description="*********************************************** &lt;br/&gt;3502, Burglary.&lt;br/&gt;"/><marker lat="40.413954063570756" lng="-80.009670712485374" zone="Zone 3" incidentdate="2015-10-31" incidenttime="01:05:00" incidentnumber="15208992" address="Liberty Tunl &amp; Saw Mill Run Blvd" type="OFFENSE" age="" gender="" description="*********************************************** &lt;br/&gt;3304, Criminal Mischief.&lt;br/&gt;3926(a)(1), Theft of Services; Cable, Gas, Taxi, Bill, Tab, etc.&lt;br/&gt;"/><marker lat="40.453881093138619" lng="-79.873029877694393" zone="Zone 5" incidentdate="2015-10-31" incidenttime="08:45:00" incidentnumber="15209171" address="2200 block East Hills Dr" type="OFFENSE" age="" gender="" description="*********************************************** &lt;br/&gt;029, Missing Juvenile&lt;br/&gt;"/><marker lat="40.467927247545596" lng="-79.903236719793938" zone="Zone 5" incidentdate="2015-10-31" incidenttime="04:17:00" incidentnumber="15209105" address="1200 block Paulson Ave" type="OFFENSE" age="" gender="" description="*********************************************** &lt;br/&gt;3304(a)(5), CRIMINAL MISCHIEF - Intentionally Damages Real Or Personal Property Of Another&lt;br/&gt;3503(a), Criminal Trespass&lt;br/&gt;"/><marker lat="40.427361411734964" lng="-79.906435649664033" zone="Zone 4" incidentdate="2015-10-31" incidenttime="01:26:00" incidentnumber="15209002" address="6800 block Forward Ave" type="OFFENSE" age="" gender="" description="*********************************************** &lt;br/&gt;3503(b)(1)(i), Actual Communication&lt;br/&gt;5503(a)(1), DISORDERLY CONDUCT - ENGAGE IN FIGHTING&lt;br/&gt;"/><marker lat="40.438737565192007" lng="-79.957093627257407" zone="Zone 4" incidentdate="2015-10-31" incidenttime="11:30:00" incidentnumber="15209293" address="300 block Semple St" type="OFFENSE" age="" gender="" description="*********************************************** &lt;br/&gt;3921(a), Theft by Unlawful Taking or Disposition - Movable item&lt;br/&gt;"/><marker lat="40.441730122618281" lng="-79.961093442895944" zone="Zone 4" incidentdate="2015-10-31" incidenttime="03:38:00" incidentnumber="15209095" address="200 block Lothrop St" type="OFFENSE" age="" gender="" description="*********************************************** &lt;br/&gt;2702, Aggravated Assault.&lt;br/&gt;"/><marker lat="40.429228381173026" lng="-79.980513714480466" zone="Zone 3" incidentdate="2015-10-31" incidenttime="01:04:00" incidentnumber="15208981" address="Wrights Way &amp; S 18th St" type="OFFENSE" age="" gender="" description="*********************************************** &lt;br/&gt;601.16, Public Urination And Defecation&lt;br/&gt;"/><marker lat="40.462471314719117" lng="-79.899507688408946" zone="Zone 5" incidentdate="2015-10-31" incidenttime="20:40:00" incidentnumber="15209546" address="7000 block Mt Vernon St" type="OFFENSE" age="" gender="" description="*********************************************** &lt;br/&gt;2702, Aggravated Assault.&lt;br/&gt;5505, Public Drunkenness&lt;br/&gt;2706, Terroristic Threats.&lt;br/&gt;"/><marker lat="40.470723899650849" lng="-79.923953228834449" zone="Zone 5" incidentdate="2015-10-31" incidenttime="12:35:00" incidentnumber="15209463" address="800 block N St Clair St" type="OFFENSE" age="" gender="" description="*********************************************** &lt;br/&gt;9012, Non-Violent Domestic&lt;br/&gt;"/><marker lat="40.45156448168715" lng="-80.018949472643925" zone="Zone 1" incidentdate="2015-10-31" incidenttime="02:04:00" incidentnumber="15154831" address="1000 block Western Ave" type="OFFENSE" age="" gender="" description="*********************************************** &lt;br/&gt;9015, Failure To Appear/Arrest on Attachment Order&lt;br/&gt;2701, Simple Assault.&lt;br/&gt;"/><marker lat="40.455526459350949" lng="-79.888093103464158" zone="Zone 5" incidentdate="2015-10-31" incidenttime="00:25:00" incidentnumber="15208949" address="Brushton Ave &amp; Frankstown Ave" type="OFFENSE" age="" gender="" description="*********************************************** &lt;br/&gt;3701, Robbery.&lt;br/&gt;"/><marker lat="40.465661540899092" lng="-80.024746213476632" zone="Zone 1" incidentdate="2015-10-31" incidenttime="15:04:00" incidentnumber="15209363" address="2400 block Brighton Rd" type="OFFENSE" age="" gender="" description="*********************************************** &lt;br/&gt;2702, Aggravated Assault.&lt;br/&gt;901, Criminal Attempt&lt;br/&gt;2501, Criminal Homicide.&lt;br/&gt;"/><marker lat="40.465881225809873" lng="-79.903894865137261" zone="Zone 5" incidentdate="2015-10-31" incidenttime="20:56:00" incidentnumber="15209526" address="6600 block Deary St" type="OFFENSE" age="" gender="" description="*********************************************** &lt;br/&gt;5104, Resisting Arrest or Other Law Enforcement.&lt;br/&gt;3925, Receiving Stolen Property.&lt;br/&gt;"/><marker lat="40.456026397140533" lng="-80.006488644201866" zone="Zone 1" incidentdate="2015-10-31" incidenttime="09:00:00" incidentnumber="15209173" address="1200 block Federal St N" type="OFFENSE" age="" gender="" description="*********************************************** &lt;br/&gt;9501, Bench Warrant&lt;br/&gt;"/><marker lat="40.469731647057117" lng="-80.027507012884371" zone="Zone 1" incidentdate="2015-10-31" incidenttime="23:15:00" incidentnumber="15209622" address="1200 block Woodland Ave" type="OFFENSE" age="" gender="" description="*********************************************** &lt;br/&gt;5104, Resisting Arrest or Other Law Enforcement.&lt;br/&gt;5503, Disorderly Conduct.&lt;br/&gt;"/><marker lat="40.4471653" lng="-80.0523328" zone="Zone 6" incidentdate="2015-10-31" incidenttime="00:57:00" incidentnumber="15209056" address="1500 block Crucible St" type="OFFENSE" age="" gender="" description="*********************************************** &lt;br/&gt;3502, Burglary.&lt;br/&gt;"/><marker lat="40.4012295" lng="-79.8576528" zone="Zone 3" incidentdate="2015-10-31" incidenttime="01:45:00" incidentnumber="15209023" address="1300 block S 13th St" type="OFFENSE" age="" gender="" description="*********************************************** &lt;br/&gt;601.16, Public Urination And Defecation&lt;br/&gt;"/><marker lat="40.441024249715781" lng="-79.95736833680553" zone="Zone 4" incidentdate="2015-10-31" incidenttime="02:25:00" incidentnumber="15209057" address="3700 block Forbes Ave" type="OFFENSE" age="" gender="" description="*********************************************** &lt;br/&gt;5104, Resisting Arrest or Other Law Enforcement.&lt;br/&gt;5101, Obstructing Admin. of Law&lt;br/&gt;5505, Public Drunkenness&lt;br/&gt;3503.B1I, DEF. TRESPASS ACTUAL COMMUNICATION&lt;br/&gt;5503(a)(2), DISORDERLY CONDUCT - UNREASONABLE NOISE&lt;br/&gt;"/><marker lat="40.465216215750473" lng="-79.911111265006767" zone="Zone 5" incidentdate="2015-10-31" incidenttime="21:39:00" incidentnumber="15209570" address="600 block Thompson St" type="OFFENSE" age="" gender="" description="*********************************************** &lt;br/&gt;2701, Simple Assault.&lt;br/&gt;"/><marker lat="40.42870250168594" lng="-79.988572966341138" zone="Zone 3" incidentdate="2015-10-31" incidenttime="22:10:00" incidentnumber="15209596" address="E Carson St &amp; S 10th St" type="OFFENSE" age="" gender="" description="*********************************************** &lt;br/&gt;3802(a)(1), DUI - General Impairment&lt;br/&gt;"/><marker lat="40.450892721440539" lng="-80.000843891836467" zone="Zone 1" incidentdate="2015-10-31" incidenttime="12:10:00" incidentnumber="15209276" address="300 block Cedar Ave" type="OFFENSE" age="" gender="" description="*********************************************** &lt;br/&gt;3921(a), Theft by Unlawful Taking or Disposition - Movable item&lt;br/&gt;"/><marker lat="40.451883876583189" lng="-79.952017784483445" zone="Zone 4" incidentdate="2015-10-31" incidenttime="06:00:00" incidentnumber="15209279" address="Centre Ave &amp; N Craig St" type="OFFENSE" age="" gender="" description="*********************************************** &lt;br/&gt;3921, Theft by Unlawful Taking or Disposition.&lt;br/&gt;"/><marker lat="40.445926173410676" lng="-80.052351688864789" zone="Zone 6" incidentdate="2015-10-31" incidenttime="22:40:00" incidentnumber="15209606" address="1000 block Woodlow St" type="OFFENSE" age="" gender="" description="*********************************************** &lt;br/&gt;029, Missing Juvenile&lt;br/&gt;"/><marker lat="40.483375364979572" lng="-80.029283911187079" zone="Zone 1" incidentdate="2015-10-31" incidenttime="04:40:00" incidentnumber="15209111" address="1000 block Cornell St" type="OFFENSE" age="" gender="" description="*********************************************** &lt;br/&gt;9498, 302 (Mental)&lt;br/&gt;"/><marker lat="40.43315372931005" lng="-79.89713143787813" zone="Zone 4" incidentdate="2015-10-31" incidenttime="14:45:00" incidentnumber="15209371" address="1000 block La Clair St" type="OFFENSE" age="" gender="" description="*********************************************** &lt;br/&gt;3934, Theft from Vehicle&lt;br/&gt;"/><marker lat="40.396715643563397" lng="-80.021134827337718" zone="Zone 6" incidentdate="2015-10-31" incidenttime="01:08:00" incidentnumber="15208986" address="2500 block Wedgemere St" type="OFFENSE" age="" gender="" description="*********************************************** &lt;br/&gt;3802(a)(1), DUI - General Impairment&lt;br/&gt;"/><marker lat="40.476630079004408" lng="-79.958740634984068" zone="Zone 2" incidentdate="2015-10-31" incidenttime="20:55:00" incidentnumber="15209558" address="4800 block Hatfield St" type="OFFENSE" age="" gender="" description="*********************************************** &lt;br/&gt;2702, Aggravated Assault.&lt;br/&gt;"/><marker lat="40.429505937952463" lng="-79.977548578170712" zone="Zone 3" incidentdate="2015-10-31" incidenttime="00:50:00" incidentnumber="15208971" address="S 20th St &amp; Sidney St" type="OFFENSE" age="" gender="" description="*********************************************** &lt;br/&gt;13(a)(31), Marijuana: Possession Small Amount&lt;br/&gt;601.08(a), Alcohol or Liquor Consumption on Streets or Sidewalks&lt;br/&gt;"/><marker lat="40.451859127490565" lng="-79.969254182229392" zone="Zone 2" incidentdate="2015-10-31" incidenttime="03:00:00" incidentnumber="15209218" address="2800 block Bedford Ave" type="OFFENSE" age="" gender="" description="*********************************************** &lt;br/&gt;3921, Theft by Unlawful Taking or Disposition.&lt;br/&gt;"/><marker lat="40.48938943140358" lng="-80.01612757696067" zone="Zone 1" incidentdate="2015-10-31" incidenttime="09:45:00" incidentnumber="15209190" address="3800 block Baytree St" type="OFFENSE" age="" gender="" description="*********************************************** &lt;br/&gt;1543, Driving While Operating Privilege is Suspended or Revoked.&lt;br/&gt;3743, Accidents Involving Damage to Attended Veh. or Property&lt;br/&gt;"/><marker lat="40.455489210692683" lng="-80.064285475348868" zone="Zone 6" incidentdate="2015-10-31" incidenttime="19:57:00" incidentnumber="15209517" address="1200 block Tweed St" type="OFFENSE" age="" gender="" description="*********************************************** &lt;br/&gt;13(a)(31), Marijuana: Possession Small Amount&lt;br/&gt;2701, Simple Assault.&lt;br/&gt;"/><marker lat="40.438615294156641" lng="-80.00581600502511" zone="Zone 2" incidentdate="2015-10-31" incidenttime="16:00:00" incidentnumber="15209416" address="200 block Stanwix St" type="OFFENSE" age="" gender="" description="*********************************************** &lt;br/&gt;901, Criminal Attempt&lt;br/&gt;2709(a), Harassment.&lt;br/&gt;"/><marker lat="40.4774720" lng="-80.0379389" zone="Zone 1" incidentdate="2015-10-31" incidenttime="06:05:00" incidentnumber="15209131" address="3400 block Sipe St" type="OFFENSE" age="" gender="" description="*********************************************** &lt;br/&gt;13(a)(16), Possession of Controlled Substance&lt;br/&gt;13(a)(30), Possession w/ Intent to Del. Controlled Substance&lt;br/&gt;13(a)(31), Marijuana: Possession Small Amount&lt;br/&gt;6111, Sale of Firearms.&lt;br/&gt;"/><marker lat="40.457700724640112" lng="-80.00505759765646" zone="Zone 1" incidentdate="2015-10-31" incidenttime="07:00:00" incidentnumber="15209147" address="1400 block Sandusky St N" type="OFFENSE" age="" gender="" description="*********************************************** &lt;br/&gt;3745, Accidents Involving Damage to Unattended Veh.or Prop.&lt;br/&gt;"/><marker lat="40.424888656206583" lng="-79.928412601821279" zone="Zone 4" incidentdate="2015-10-31" incidenttime="08:44:00" incidentnumber="15209170" address="4100 block Murray Ave" type="OFFENSE" age="" gender="" description="*********************************************** &lt;br/&gt;9498, 302 (Mental)&lt;br/&gt;"/><marker lat="40.488209834026463" lng="-80.015158575586483" zone="Zone 1" incidentdate="2015-10-31" incidenttime="03:04:00" incidentnumber="15209080" address="3800 block East St" type="OFFENSE" age="" gender="" description="*********************************************** &lt;br/&gt;9488, False  Burglar Alarm&lt;br/&gt;"/><marker lat="40.4043790287121" lng="-79.939171529828982" zone="Zone 4" incidentdate="2015-10-31" incidenttime="19:22:00" incidentnumber="15209514" address="Glenwood Ave &amp; Mansion St" type="OFFENSE" age="" gender="" description="*********************************************** &lt;br/&gt;2705, Recklessly Endangering Another Person.&lt;br/&gt;4304(a)(1), Endangering Welfare of Children - Course of Conduct Enhanced&lt;br/&gt;3361, Driving Vehicle at Safe Speed.&lt;br/&gt;3736, Reckless Driving&lt;br/&gt;4581, Restraint Systems.&lt;br/&gt;1501, Drivers Required to be Licensed.&lt;br/&gt;3733, Fleeing or Attempting to Elude Police Officer&lt;br/&gt;3323, Stop Signs and Yield Signs.&lt;br/&gt;"/><marker lat="40.479160938604153" lng="-79.943725200056477" zone="Zone 5" incidentdate="2015-10-31" incidenttime="08:04:00" incidentnumber="15209154" address="900 block Woodbine St" type="OFFENSE" age="" gender="" description="*********************************************** &lt;br/&gt;9999, 9999 - (Misc. Incident):&lt;br/&gt;"/><marker lat="40.455164357250908" lng="-79.93182815194298" zone="Zone 4" incidentdate="2015-10-31" incidenttime="10:00:00" incidentnumber="15209209" address="600 block Summerlea St" type="OFFENSE" age="" gender="" description="*********************************************** &lt;br/&gt;3745, Accidents Involving Damage to Unattended Veh.or Prop.&lt;br/&gt;"/><marker lat="40.453312242754301" lng="-80.001693845474151" zone="Zone 1" incidentdate="2015-10-31" incidenttime="11:07:00" incidentnumber="15209242" address="Cedar Ave &amp; East Ohio St" type="OFFENSE" age="" gender="" description="*********************************************** &lt;br/&gt;5505, Public Drunkenness&lt;br/&gt;"/><marker lat="40.395528604107845" lng="-79.989979880472703" zone="Zone 3" incidentdate="2015-10-31" incidenttime="07:00:00" incidentnumber="15209146" address="200 block Copperfield Ave" type="OFFENSE" age="" gender="" description="*********************************************** &lt;br/&gt;9504, Lost Property&lt;br/&gt;"/><marker lat="40.468580303977795" lng="-80.011778618826" zone="Zone 1" incidentdate="2015-10-31" incidenttime="14:00:00" incidentnumber="15163859" address="100 block W Mc Intyre Ave" type="OFFENSE" age="" gender="" description="*********************************************** &lt;br/&gt;13(a)(16), Possession of Controlled Substance&lt;br/&gt;9015, Failure To Appear/Arrest on Attachment Order&lt;br/&gt;1543, Driving While Operating Privilege is Suspended or Revoked.&lt;br/&gt;3802(a)(1), DUI - General Impairment&lt;br/&gt;3714, Careless Driving&lt;br/&gt;3802(b), DUI - High Rate of Alchol - BAC &gt;=.10% &lt;.16%&lt;br/&gt;"/><marker lat="40.470239318054197" lng="-80.012634590630185" zone="Zone 1" incidentdate="2015-10-31" incidenttime="00:33:00" incidentnumber="15208953" address="2600 block Norwood Ave" type="OFFENSE" age="" gender="" description="*********************************************** &lt;br/&gt;3304, Criminal Mischief.&lt;br/&gt;2705, Recklessly Endangering Another Person.&lt;br/&gt;2707.1, Discharge of a Firearm into Occupied Structure&lt;br/&gt;"/><marker lat="40.458984469829907" lng="-79.914262427093618" zone="Zone 5" incidentdate="2015-10-31" incidenttime="03:05:00" incidentnumber="15209084" address="6500 block Hamilton Ave" type="OFFENSE" age="" gender="" description="*********************************************** &lt;br/&gt;2702, Aggravated Assault.&lt;br/&gt;607.03, Discharging Firearm or Airgun&lt;br/&gt;3732.1, Aggravated Assault by Vehicle&lt;br/&gt;"/><marker lat="40.460530820662065" lng="-79.9917163095935" zone="Zone 1" incidentdate="2015-10-31" incidenttime="18:00:00" incidentnumber="15167873" address="Arcola Way &amp; High St" type="OFFENSE" age="" gender="" description="*********************************************** &lt;br/&gt;9501, Bench Warrant&lt;br/&gt;3926(a)(1), Theft of Services; Cable, Gas, Taxi, Bill, Tab, etc.&lt;br/&gt;"/><marker lat="40.455449018464734" lng="-80.006632348628386" zone="Zone 1" incidentdate="2015-10-31" incidenttime="17:21:00" incidentnumber="15209441" address="Federal St N &amp; E North Ave" type="OFFENSE" age="" gender="" description="*********************************************** &lt;br/&gt;3921, Theft by Unlawful Taking or Disposition.&lt;br/&gt;"/><marker lat="40.458984469829907" lng="-79.914262427093618" zone="Zone 5" incidentdate="2015-10-31" incidenttime="08:41:00" incidentnumber="15209169" address="6500 block Hamilton Ave" type="OFFENSE" age="" gender="" description="*********************************************** &lt;br/&gt;9489, Found Property&lt;br/&gt;"/><marker lat="40.414416100276526" lng="-79.989221314961966" zone="Zone 3" incidentdate="2015-10-31" incidenttime="22:00:00" incidentnumber="15209592" address="Grape St" type="OFFENSE" age="" gender="" description="*********************************************** &lt;br/&gt;2701(a)(1), Simple Assault - Intent., Know., Reckless.Cause Bod. Injury&lt;br/&gt;"/><marker lat="40.478108780040486" lng="-79.955158548090708" zone="Zone 2" incidentdate="2015-10-31" incidenttime="12:32:00" incidentnumber="15209269" address="5100 block Dresden Way" type="OFFENSE" age="" gender="" description="*********************************************** &lt;br/&gt;9497, Aided Case&lt;br/&gt;"/><marker lat="40.45272928671028" lng="-79.967723531025683" zone="Zone 2" incidentdate="2015-10-31" incidenttime="00:08:00" incidentnumber="15208937" address="Wandless St &amp; Bedford Ave" type="OFFENSE" age="" gender="" description="*********************************************** &lt;br/&gt;3745, Accidents Involving Damage to Unattended Veh.or Prop.&lt;br/&gt;"/><marker lat="40.460530820662065" lng="-79.9917163095935" zone="Zone 1" incidentdate="2015-10-31" incidenttime="18:00:00" incidentnumber="15167873" address="Arcola Way &amp; High St" type="ARREST" age="30" gender="M" description="*********************************************** &lt;br/&gt;9501, Bench Warrant&lt;br/&gt;3926(a)(1), Theft of Services; Cable, Gas, Taxi, Bill, Tab, etc.&lt;br/&gt;"/><marker lat="40.465216215750473" lng="-79.911111265006767" zone="Zone 5" incidentdate="2015-10-31" incidenttime="21:39:00" incidentnumber="15209570" address="600 block Thompson St" type="ARREST" age="71" gender="M" description="*********************************************** &lt;br/&gt;2701, Simple Assault.&lt;br/&gt;"/><marker lat="40.414416100276526" lng="-79.989221314961966" zone="Zone 3" incidentdate="2015-10-31" incidenttime="22:26:00" incidentnumber="15209592" address="Grape St" type="ARREST" age="37" gender="M" description="*********************************************** &lt;br/&gt;2701(a)(1), Simple Assault - Intent., Know., Reckless.Cause Bod. Injury&lt;br/&gt;"/><marker lat="40.42870250168594" lng="-79.988572966341138" zone="Zone 3" incidentdate="2015-10-31" incidenttime="22:10:00" incidentnumber="15209596" address="E Carson St &amp; S 10th St" type="ARREST" age="56" gender="F" description="*********************************************** &lt;br/&gt;3802(a)(1), DUI - General Impairment&lt;br/&gt;"/><marker lat="40.467927247545596" lng="-79.903236719793938" zone="Zone 5" incidentdate="2015-10-31" incidenttime="04:17:00" incidentnumber="15209105" address="1200 block Paulson Ave" type="ARREST" age="73" gender="M" description="*********************************************** &lt;br/&gt;3304(a)(5), CRIMINAL MISCHIEF - Intentionally Damages Real Or Personal Property Of Another&lt;br/&gt;3503(a), Criminal Trespass&lt;br/&gt;"/><marker lat="40.455489210692683" lng="-80.064285475348868" zone="Zone 6" incidentdate="2015-10-31" incidenttime="19:57:00" incidentnumber="15209517" address="1200 block Tweed St" type="ARREST" age="30" gender="F" description="*********************************************** &lt;br/&gt;13(a)(31), Marijuana: Possession Small Amount&lt;br/&gt;2701, Simple Assault.&lt;br/&gt;"/><marker lat="40.469731647057117" lng="-80.027507012884371" zone="Zone 1" incidentdate="2015-10-31" incidenttime="23:26:00" incidentnumber="15209622" address="1200 block Woodland Ave" type="ARREST" age="21" gender="M" description="*********************************************** &lt;br/&gt;5104, Resisting Arrest or Other Law Enforcement.&lt;br/&gt;5503, Disorderly Conduct.&lt;br/&gt;"/><marker lat="40.45156448168715" lng="-80.018949472643925" zone="Zone 1" incidentdate="2015-10-31" incidenttime="02:04:00" incidentnumber="15154831" address="1000 block Western Ave" type="ARREST" age="47" gender="M" description="*********************************************** &lt;br/&gt;9015, Failure To Appear/Arrest on Attachment Order&lt;br/&gt;2701, Simple Assault.&lt;br/&gt;"/><marker lat="40.427570135437186" lng="-79.983452876581822" zone="Zone 3" incidentdate="2015-10-31" incidenttime="18:45:00" incidentnumber="15209480" address="1500 block Sarah St" type="ARREST" age="20" gender="M" description="*********************************************** &lt;br/&gt;13(a)(16), Possession of Controlled Substance&lt;br/&gt;13(a)(32), Paraphernalia - Use or Possession&lt;br/&gt;"/><marker lat="40.455489210692683" lng="-80.064285475348868" zone="Zone 6" incidentdate="2015-10-31" incidenttime="19:57:00" incidentnumber="15209517" address="1200 block Tweed St" type="ARREST" age="24" gender="M" description="*********************************************** &lt;br/&gt;13(a)(31), Marijuana: Possession Small Amount&lt;br/&gt;2701, Simple Assault.&lt;br/&gt;"/><marker lat="40.435095503606554" lng="-79.993077686753679" zone="Zone 2" incidentdate="2015-10-31" incidenttime="20:45:00" incidentnumber="14104541" address="900 block 2nd Ave" type="ARREST" age="53" gender="M" description="*********************************************** &lt;br/&gt;3925, Receiving Stolen Property.&lt;br/&gt;"/><marker lat="40.4560267" lng="-79.8708900" zone="Zone 5" incidentdate="2015-10-31" incidenttime="00:40:00" incidentnumber="15197347" address="2500 block East Hills Dr" type="ARREST" age="28" gender="M" description="*********************************************** &lt;br/&gt;4304(a)(1), Endangering Welfare of Children - Course of Conduct Enhanced&lt;br/&gt;"/><marker lat="40.48938943140358" lng="-80.01612757696067" zone="Zone 1" incidentdate="2015-10-31" incidenttime="14:00:00" incidentnumber="15209190" address="3800 block Baytree St" type="ARREST" age="23" gender="M" description="*********************************************** &lt;br/&gt;1543, Driving While Operating Privilege is Suspended or Revoked.&lt;br/&gt;3743, Accidents Involving Damage to Attended Veh. or Property&lt;br/&gt;"/><marker lat="40.441024249715781" lng="-79.95736833680553" zone="Zone 4" incidentdate="2015-10-31" incidenttime="02:30:00" incidentnumber="15209057" address="3700 block Forbes Ave" type="ARREST" age="21" gender="M" description="*********************************************** &lt;br/&gt;5104, Resisting Arrest or Other Law Enforcement.&lt;br/&gt;5101, Obstructing Admin. of Law&lt;br/&gt;5505, Public Drunkenness&lt;br/&gt;3503.B1I, DEF. TRESPASS ACTUAL COMMUNICATION&lt;br/&gt;5503(a)(2), DISORDERLY CONDUCT - UNREASONABLE NOISE&lt;br/&gt;"/><marker lat="40.421531877189601" lng="-79.993577564166102" zone="Zone 3" incidentdate="2015-10-31" incidenttime="00:05:00" incidentnumber="15208900" address="800 block E Warrington Ave" type="ARREST" age="79" gender="F" description="*********************************************** &lt;br/&gt;5104, Resisting Arrest or Other Law Enforcement.&lt;br/&gt;3304(a)(1), CRIMINAL MISCHIEF-Prop Damage By Fire, Explosives, or Other Dangerous Means&lt;br/&gt;3302, Causing or Risking Catastrophe.&lt;br/&gt;3301, Arson&lt;br/&gt;"/><marker lat="40.4774720" lng="-80.0379389" zone="Zone 1" incidentdate="2015-10-31" incidenttime="06:05:00" incidentnumber="15209131" address="3400 block Sipe St" type="ARREST" age="27" gender="M" description="*********************************************** &lt;br/&gt;13(a)(16), Possession of Controlled Substance&lt;br/&gt;13(a)(30), Possession w/ Intent to Del. Controlled Substance&lt;br/&gt;13(a)(31), Marijuana: Possession Small Amount&lt;br/&gt;6111, Sale of Firearms.&lt;br/&gt;"/><marker lat="40.462471314719117" lng="-79.899507688408946" zone="Zone 5" incidentdate="2015-10-31" incidenttime="20:40:00" incidentnumber="15209546" address="7000 block Mt Vernon St" type="ARREST" age="61" gender="M" description="*********************************************** &lt;br/&gt;2702, Aggravated Assault.&lt;br/&gt;5505, Public Drunkenness&lt;br/&gt;2706, Terroristic Threats.&lt;br/&gt;"/><marker lat="40.427361411734964" lng="-79.906435649664033" zone="Zone 4" incidentdate="2015-10-31" incidenttime="01:41:00" incidentnumber="15209002" address="6800 block Forward Ave" type="ARREST" age="22" gender="M" description="*********************************************** &lt;br/&gt;3503(b)(1)(i), Actual Communication&lt;br/&gt;5503(a)(1), DISORDERLY CONDUCT - ENGAGE IN FIGHTING&lt;br/&gt;"/><marker lat="40.456026397140533" lng="-80.006488644201866" zone="Zone 1" incidentdate="2015-10-31" incidenttime="09:00:00" incidentnumber="15209173" address="1200 block Federal St N" type="ARREST" age="33" gender="M" description="*********************************************** &lt;br/&gt;9501, Bench Warrant&lt;br/&gt;"/><marker lat="40.468779162131661" lng="-79.985624774626743" zone="Zone 1" incidentdate="2015-10-31" incidenttime="11:45:00" incidentnumber="15209233" address="1900 block Spring Garden Ave" type="ARREST" age="28" gender="F" description="*********************************************** &lt;br/&gt;13(a)(31), Marijuana: Possession Small Amount&lt;br/&gt;"/><marker lat="40.427361411734964" lng="-79.906435649664033" zone="Zone 4" incidentdate="2015-10-31" incidenttime="01:41:00" incidentnumber="15209002" address="6800 block Forward Ave" type="ARREST" age="27" gender="M" description="*********************************************** &lt;br/&gt;3503(b)(1)(i), Actual Communication&lt;br/&gt;5503(a)(1), DISORDERLY CONDUCT - ENGAGE IN FIGHTING&lt;br/&gt;"/><marker lat="40.434696587775576" lng="-79.996300985228572" zone="Zone 2" incidentdate="2015-10-31" incidenttime="20:30:00" incidentnumber="15146156" address="600 block 1st Ave" type="ARREST" age="36" gender="M" description="*********************************************** &lt;br/&gt;3929, Retail Theft.&lt;br/&gt;903, Criminal Conspiracy.&lt;br/&gt;"/><marker lat="40.429505937952463" lng="-79.977548578170712" zone="Zone 3" incidentdate="2015-10-31" incidenttime="00:52:00" incidentnumber="15208971" address="S 20th St &amp; Sidney St" type="ARREST" age="28" gender="M" description="*********************************************** &lt;br/&gt;13(a)(31), Marijuana: Possession Small Amount&lt;br/&gt;601.08(a), Alcohol or Liquor Consumption on Streets or Sidewalks&lt;br/&gt;"/><marker lat="40.465881225809873" lng="-79.903894865137261" zone="Zone 5" incidentdate="2015-10-31" incidenttime="21:15:00" incidentnumber="15209526" address="6600 block Deary St" type="ARREST" age="16" gender="M" description="*********************************************** &lt;br/&gt;5104, Resisting Arrest or Other Law Enforcement.&lt;br/&gt;3925, Receiving Stolen Property.&lt;br/&gt;"/><marker lat="40.428815176198341" lng="-79.983424931589681" zone="Zone 3" incidentdate="2015-10-31" incidenttime="00:41:00" incidentnumber="15208961" address="S 15th St &amp; E Carson St" type="ARREST" age="27" gender="M" description="*********************************************** &lt;br/&gt;5503(a)(4), DISORDERLY CONDUCT - HAZARDOUS/PHYS. OFF&lt;br/&gt;5505, Public Drunkenness&lt;br/&gt;3503.B1I, DEF. TRESPASS ACTUAL COMMUNICATION&lt;br/&gt;"/><marker lat="40.434696587775576" lng="-79.996300985228572" zone="Zone 2" incidentdate="2015-10-31" incidenttime="20:30:00" incidentnumber="15154297" address="600 block 1st Ave" type="ARREST" age="36" gender="M" description="*********************************************** &lt;br/&gt;3929, Retail Theft.&lt;br/&gt;"/><marker lat="40.468580303977795" lng="-80.011778618826" zone="Zone 1" incidentdate="2015-10-31" incidenttime="14:00:00" incidentnumber="15163859" address="100 block W Mc Intyre Ave" type="ARREST" age="23" gender="M" description="*********************************************** &lt;br/&gt;13(a)(16), Possession of Controlled Substance&lt;br/&gt;9015, Failure To Appear/Arrest on Attachment Order&lt;br/&gt;1543, Driving While Operating Privilege is Suspended or Revoked.&lt;br/&gt;3802(a)(1), DUI - General Impairment&lt;br/&gt;3714, Careless Driving&lt;br/&gt;3802(b), DUI - High Rate of Alchol - BAC &gt;=.10% &lt;.16%&lt;br/&gt;"/><marker lat="40.4043790287121" lng="-79.939171529828982" zone="Zone 4" incidentdate="2015-10-31" incidenttime="19:22:00" incidentnumber="15209514" address="Glenwood Ave &amp; Mansion St" type="ARREST" age="20" gender="M" description="*********************************************** &lt;br/&gt;2705, Recklessly Endangering Another Person.&lt;br/&gt;4304(a)(1), Endangering Welfare of Children - Course of Conduct Enhanced&lt;br/&gt;3361, Driving Vehicle at Safe Speed.&lt;br/&gt;3736, Reckless Driving&lt;br/&gt;4581, Restraint Systems.&lt;br/&gt;1501, Drivers Required to be Licensed.&lt;br/&gt;3733, Fleeing or Attempting to Elude Police Officer&lt;br/&gt;3323, Stop Signs and Yield Signs.&lt;br/&gt;"/><marker lat="40.465216215750473" lng="-79.911111265006767" zone="Zone 5" incidentdate="2015-10-31" incidenttime="21:39:00" incidentnumber="15209570" address="600 block Thompson St" type="ARREST" age="14" gender="M" description="*********************************************** &lt;br/&gt;2701, Simple Assault.&lt;br/&gt;"/><marker lat="40.396715643563397" lng="-80.021134827337718" zone="Zone 6" incidentdate="2015-10-31" incidenttime="01:11:00" incidentnumber="15208986" address="2500 block Wedgemere St" type="ARREST" age="31" gender="M" description="*********************************************** &lt;br/&gt;3802(a)(1), DUI - General Impairment&lt;br/&gt;"/><marker lat="40.428799178836528" lng="-79.984145739682731" zone="Zone 3" incidentdate="2015-10-31" incidenttime="01:35:00" incidentnumber="15209000" address="E Carson St &amp; S 14th St" type="ARREST" age="38" gender="M" description="*********************************************** &lt;br/&gt;9501, Bench Warrant&lt;br/&gt;3802(a)(1), DUI - General Impairment&lt;br/&gt;3714, Careless Driving&lt;br/&gt;4703, Operation of Vehicle without Official Certif. of Inspection&lt;br/&gt;2706, Terroristic Threats.&lt;br/&gt;908, Prohibited Offensive Weapons.&lt;br/&gt;4706, Prohib. on Expend. for Emission Insp Prog..&lt;br/&gt;"/></markers>
