<?xml version="1.0"?>
<markers><marker lat="40.434299457525853" lng="-79.954228609639202" zone="Zone 4" incidentdate="2015-12-19" incidenttime="12:05:00" incidentnumber="15241913" address="3600 block Blvd Of The Allies" type="OFFENSE" age="" gender="" description="*********************************************** &lt;br/&gt;3701, Robbery.&lt;br/&gt;"/><marker lat="40.473159653169574" lng="-80.037579572438645" zone="Zone 1" incidentdate="2015-12-19" incidenttime="06:45:00" incidentnumber="15241795" address="3200 block Bainton St" type="OFFENSE" age="" gender="" description="*********************************************** &lt;br/&gt;3502, Burglary.&lt;br/&gt;"/><marker lat="40.482879021356389" lng="-80.04453300763744" zone="Zone 1" incidentdate="2015-12-19" incidenttime="14:30:00" incidentnumber="15242170" address="2000 block Termon Ave" type="OFFENSE" age="" gender="" description="*********************************************** &lt;br/&gt;029, Missing Juvenile&lt;br/&gt;"/><marker lat="40.4077948273289" lng="-80.025766774784273" zone="Zone 6" incidentdate="2015-12-19" incidenttime="16:50:00" incidentnumber="15242056" address="1800 block Broadway Ave" type="OFFENSE" age="" gender="" description="*********************************************** &lt;br/&gt;2701(a)(1), Simple Assault - Intent., Know., Reckless.Cause Bod. Injury&lt;br/&gt;2706, Terroristic Threats.&lt;br/&gt;"/><marker lat="40.424215578915053" lng="-79.968373885968475" zone="Zone 3" incidentdate="2015-12-19" incidenttime="08:28:00" incidentnumber="15241811" address="2800 block Mary St" type="OFFENSE" age="" gender="" description="*********************************************** &lt;br/&gt;2701(a)(3), Simple Assault - Attempts by Physical Menace&lt;br/&gt;"/><marker lat="40.443535549700833" lng="-79.977755397985646" zone="Zone 2" incidentdate="2015-12-19" incidenttime="08:45:00" incidentnumber="15233282" address="300 block Addison St" type="OFFENSE" age="" gender="" description="*********************************************** &lt;br/&gt;2701, Simple Assault.&lt;br/&gt;"/><marker lat="40.438056227784742" lng="-79.922984272883284" zone="Zone 4" incidentdate="2015-12-19" incidenttime="14:50:00" incidentnumber="15242050" address="Forbes Ave &amp; Murray Ave" type="OFFENSE" age="" gender="" description="*********************************************** &lt;br/&gt;3743, Accidents Involving Damage to Attended Veh. or Property&lt;br/&gt;"/><marker lat="40.410758711444451" lng="-79.9660447807792" zone="Zone 3" incidentdate="2015-12-19" incidenttime="15:53:00" incidentnumber="15242026" address="1000 block Parkwood Rd" type="OFFENSE" age="" gender="" description="*********************************************** &lt;br/&gt;3503(b)(1)(ii), Defiant Trespass Notice Posted by Sign(s)&lt;br/&gt;"/><marker lat="40.44923028512747" lng="-79.887209840525756" zone="Zone 5" incidentdate="2015-12-19" incidenttime="00:27:00" incidentnumber="15241661" address="500 block Rosedale St" type="OFFENSE" age="" gender="" description="*********************************************** &lt;br/&gt;2701, Simple Assault.&lt;br/&gt;2902, Unlawful Restraint.&lt;br/&gt;"/><marker lat="40.463252273354115" lng="-80.014695833087771" zone="Zone 1" incidentdate="2015-12-19" incidenttime="11:55:00" incidentnumber="15241933" address="2100 block Holyoke St" type="OFFENSE" age="" gender="" description="*********************************************** &lt;br/&gt;9498, 302 (Mental)&lt;br/&gt;"/><marker lat="40.457281883886331" lng="-79.909059701531348" zone="Zone 5" incidentdate="2015-12-19" incidenttime="03:11:00" incidentnumber="15241727" address="Hamilton Ave &amp; 5th Ave" type="OFFENSE" age="" gender="" description="*********************************************** &lt;br/&gt;3334, Turning Movements and Required Signals.&lt;br/&gt;6106, Firearms not to be Carried without a License.&lt;br/&gt;6105(a)(1), Persons not to possess, use, manufacture, control, sell or transfer firearms: Former convict enumerated in subsection (b)&lt;br/&gt;"/><marker lat="40.447070656722659" lng="-79.895151948393476" zone="Zone 4" incidentdate="2015-12-19" incidenttime="20:34:00" incidentnumber="15242214" address="7600 block Penn Ave" type="OFFENSE" age="" gender="" description="*********************************************** &lt;br/&gt;3921, Theft by Unlawful Taking or Disposition.&lt;br/&gt;"/><marker lat="40.477352311542191" lng="-79.953945634914135" zone="Zone 2" incidentdate="2015-12-19" incidenttime="23:50:00" incidentnumber="15242240" address="5100 block Keystone St" type="OFFENSE" age="" gender="" description="*********************************************** &lt;br/&gt;2701(a)(1), Simple Assault - Intent., Know., Reckless.Cause Bod. Injury&lt;br/&gt;"/><marker lat="40.429365451368078" lng="-79.98403566971173" zone="Zone 3" incidentdate="2015-12-19" incidenttime="17:18:00" incidentnumber="15242069" address="1400 block Bingham St" type="OFFENSE" age="" gender="" description="*********************************************** &lt;br/&gt;3304, Criminal Mischief.&lt;br/&gt;"/><marker lat="40.397519300735595" lng="-79.991168326458094" zone="Zone 3" incidentdate="2015-12-19" incidenttime="17:44:00" incidentnumber="15242086" address="1700 block Plateau St" type="OFFENSE" age="" gender="" description="*********************************************** &lt;br/&gt;2701, Simple Assault.&lt;br/&gt;"/><marker lat="40.368023943522147" lng="-79.917439086222217" zone="Zone 4" incidentdate="2015-12-19" incidenttime="15:30:00" incidentnumber="15242077" address="1100 block Rodgers St" type="OFFENSE" age="" gender="" description="*********************************************** &lt;br/&gt;2709(a)(3), Harassment No Legitimate Purpose&lt;br/&gt;"/><marker lat="40.432440265993229" lng="-80.004042507126258" zone="Zone 3" incidentdate="2015-12-19" incidenttime="22:01:00" incidentnumber="15242203" address="100 block W Carson St" type="OFFENSE" age="" gender="" description="*********************************************** &lt;br/&gt;5104, Resisting Arrest or Other Law Enforcement.&lt;br/&gt;5505, Public Drunkenness&lt;br/&gt;5503(a)(3), DISORDERLY CONDUCT - OBSCENE LANG/GEST&lt;br/&gt;"/><marker lat="40.484550069346753" lng="-80.035692783449747" zone="Zone 1" incidentdate="2015-12-19" incidenttime="20:39:00" incidentnumber="15242175" address="3800 block Brighton Rd" type="OFFENSE" age="" gender="" description="*********************************************** &lt;br/&gt;2701, Simple Assault.&lt;br/&gt;"/><marker lat="40.40074958751395" lng="-80.00507392304327" zone="Zone 6" incidentdate="2015-12-19" incidenttime="17:09:00" incidentnumber="15242060" address="Edgebrook Ave &amp; Bundle Way" type="OFFENSE" age="" gender="" description="*********************************************** &lt;br/&gt;13(a)(16), Possession of Controlled Substance&lt;br/&gt;13(a)(32), Paraphernalia - Use or Possession&lt;br/&gt;1786, Required Financial Responsibility.&lt;br/&gt;3736, Reckless Driving&lt;br/&gt;1543, Driving While Operating Privilege is Suspended or Revoked.&lt;br/&gt;3802(a)(1), DUI - General Impairment&lt;br/&gt;"/><marker lat="40.449606365527259" lng="-79.974270684591801" zone="Zone 2" incidentdate="2015-12-19" incidenttime="00:52:00" incidentnumber="15241674" address="2400 block Bedford Ave" type="OFFENSE" age="" gender="" description="*********************************************** &lt;br/&gt;3304, Criminal Mischief.&lt;br/&gt;2702, Aggravated Assault.&lt;br/&gt;"/><marker lat="40.4224488" lng="-80.0100816" zone="Zone 3" incidentdate="2015-12-19" incidenttime="11:25:00" incidentnumber="15241903" address="200 block Paul St" type="OFFENSE" age="" gender="" description="*********************************************** &lt;br/&gt;3304, Criminal Mischief.&lt;br/&gt;2701, Simple Assault.&lt;br/&gt;"/><marker lat="40.4599458" lng="-79.8862763" zone="Zone 5" incidentdate="2015-12-19" incidenttime="17:17:00" incidentnumber="15242067" address="1300 block Heart Ct" type="OFFENSE" age="" gender="" description="*********************************************** &lt;br/&gt;2702, Aggravated Assault.&lt;br/&gt;"/><marker lat="40.450934256715165" lng="-79.973807393033383" zone="Zone 2" incidentdate="2015-12-19" incidenttime="00:05:00" incidentnumber="15241649" address="2500 block Chauncey Dr" type="OFFENSE" age="" gender="" description="*********************************************** &lt;br/&gt;9999, 9999 - (Misc. Incident):&lt;br/&gt;"/><marker lat="40.482879021356389" lng="-80.04453300763744" zone="Zone 1" incidentdate="2015-12-19" incidenttime="14:30:00" incidentnumber="15242167" address="2000 block Termon Ave" type="OFFENSE" age="" gender="" description="*********************************************** &lt;br/&gt;029, Missing Juvenile&lt;br/&gt;"/><marker lat="40.440696417919249" lng="-79.954591082015028" zone="Zone 4" incidentdate="2015-12-19" incidenttime="01:53:00" incidentnumber="15241709" address="300 block S Bouquet St" type="OFFENSE" age="" gender="" description="*********************************************** &lt;br/&gt;5503, Disorderly Conduct.&lt;br/&gt;6308(a), Underage Purchase, Consume, Possessed or Transport Liquor&lt;br/&gt;2702, Aggravated Assault.&lt;br/&gt;2701(a)(1), Simple Assault - Intent., Know., Reckless.Cause Bod. Injury&lt;br/&gt;"/><marker lat="40.433039321425312" lng="-80.009993708047176" zone="Zone 3" incidentdate="2015-12-19" incidenttime="23:29:00" incidentnumber="15242231" address="Kearsarge St &amp; Fetzer St" type="OFFENSE" age="" gender="" description="*********************************************** &lt;br/&gt;3934, Theft from Vehicle&lt;br/&gt;"/><marker lat="40.428585203983602" lng="-79.981869007680203" zone="Zone 3" incidentdate="2015-12-19" incidenttime="02:50:00" incidentnumber="15241739" address="1700 block E Carson St" type="OFFENSE" age="" gender="" description="*********************************************** &lt;br/&gt;2701, Simple Assault.&lt;br/&gt;"/><marker lat="40.429621575574508" lng="-79.980431245670616" zone="Zone 3" incidentdate="2015-12-19" incidenttime="01:15:00" incidentnumber="15241680" address="1800 block Sidney St" type="OFFENSE" age="" gender="" description="*********************************************** &lt;br/&gt;9012, Non-Violent Domestic&lt;br/&gt;"/><marker lat="40.426138400454285" lng="-79.939745312705426" zone="Zone 4" incidentdate="2015-12-19" incidenttime="20:04:00" incidentnumber="15242159" address="600 block Greenfield Ave" type="OFFENSE" age="" gender="" description="*********************************************** &lt;br/&gt;5104, Resisting Arrest or Other Law Enforcement.&lt;br/&gt;2702, Aggravated Assault.&lt;br/&gt;2701(a)(1), Simple Assault - Intent., Know., Reckless.Cause Bod. Injury&lt;br/&gt;"/><marker lat="40.453675651234356" lng="-80.04883059197202" zone="Zone 6" incidentdate="2015-12-19" incidenttime="00:46:00" incidentnumber="15241675" address="2700 block Merwyn Ave" type="OFFENSE" age="" gender="" description="*********************************************** &lt;br/&gt;3502, Burglary.&lt;br/&gt;3921(a), Theft by Unlawful Taking or Disposition - Movable item&lt;br/&gt;2902, Unlawful Restraint.&lt;br/&gt;9093, Indirect Criminal Contempt&lt;br/&gt;2706, Terroristic Threats.&lt;br/&gt;2701(a)(3), Simple Assault - Attempts by Physical Menace&lt;br/&gt;3503(a), Criminal Trespass&lt;br/&gt;"/><marker lat="40.4497919" lng="-79.9745910" zone="Zone 2" incidentdate="2015-12-19" incidenttime="10:10:00" incidentnumber="15241864" address="2500 block Bedford Ave &amp; Chauncey Dr" type="OFFENSE" age="" gender="" description="*********************************************** &lt;br/&gt;3745, Accidents Involving Damage to Unattended Veh.or Prop.&lt;br/&gt;"/><marker lat="40.454080431958992" lng="-80.001938757944643" zone="Zone 1" incidentdate="2015-12-19" incidenttime="03:30:00" incidentnumber="15241754" address="Cedar Ave &amp; Foreland St" type="OFFENSE" age="" gender="" description="*********************************************** &lt;br/&gt;9999, 9999 - (Misc. Incident):&lt;br/&gt;"/><marker lat="40.4548051" lng="-79.9279143" zone="Zone OSC" incidentdate="2015-12-19" incidenttime="21:10:00" incidentnumber="15242190" address="100 block COLLEGE St" type="OFFENSE" age="" gender="" description="*********************************************** &lt;br/&gt;0291, Located Runaway - Outside City&lt;br/&gt;"/><marker lat="40.482879021356389" lng="-80.04453300763744" zone="Zone 1" incidentdate="2015-12-19" incidenttime="02:20:00" incidentnumber="15241724" address="2000 block Termon Ave" type="OFFENSE" age="" gender="" description="*********************************************** &lt;br/&gt;029, Missing Juvenile&lt;br/&gt;"/><marker lat="40.433148874114316" lng="-79.954843385469843" zone="Zone 4" incidentdate="2015-12-19" incidenttime="04:30:00" incidentnumber="15241776" address="3300 block Ward St" type="OFFENSE" age="" gender="" description="*********************************************** &lt;br/&gt;3502, Burglary.&lt;br/&gt;3503, Criminal Trespass&lt;br/&gt;903, Criminal Conspiracy.&lt;br/&gt;"/><marker lat="40.428684832699354" lng="-79.983306706238423" zone="Zone 3" incidentdate="2015-12-19" incidenttime="01:25:00" incidentnumber="15241703" address="1500 block E Carson St" type="OFFENSE" age="" gender="" description="*********************************************** &lt;br/&gt;3503.B1I, DEF. TRESPASS ACTUAL COMMUNICATION&lt;br/&gt;"/><marker lat="40.4785913" lng="-80.0008600" zone="Zone 1" incidentdate="2015-12-19" incidenttime="17:10:00" incidentnumber="15242058" address="500 block Mt Pleasant Rd" type="OFFENSE" age="" gender="" description="*********************************************** &lt;br/&gt;2709(a), Harassment.&lt;br/&gt;"/><marker lat="40.446346164512178" lng="-79.994318011299683" zone="Zone 2" incidentdate="2015-12-19" incidenttime="03:46:00" incidentnumber="15241759" address="11th St" type="OFFENSE" age="" gender="" description="*********************************************** &lt;br/&gt;9489, Found Property&lt;br/&gt;"/><marker lat="40.443089665038606" lng="-80.039666768977995" zone="Zone 6" incidentdate="2015-12-19" incidenttime="03:46:00" incidentnumber="15241760" address="100 block Marlow St" type="OFFENSE" age="" gender="" description="*********************************************** &lt;br/&gt;9497, Aided Case&lt;br/&gt;"/><marker lat="40.487016241050313" lng="-80.037446880989933" zone="Zone 1" incidentdate="2015-12-19" incidenttime="11:30:00" incidentnumber="15241907" address="3900 block Kleber St" type="OFFENSE" age="" gender="" description="*********************************************** &lt;br/&gt;9489, Found Property&lt;br/&gt;"/><marker lat="40.422524867607919" lng="-80.013158246525549" zone="Zone 3" incidentdate="2015-12-19" incidenttime="04:00:00" incidentnumber="15241764" address="Penelope St" type="OFFENSE" age="" gender="" description="*********************************************** &lt;br/&gt;3304, Criminal Mischief.&lt;br/&gt;"/><marker lat="40.444136782158047" lng="-80.000993475333104" zone="Zone 2" incidentdate="2015-12-19" incidenttime="01:12:00" incidentnumber="15241691" address="100 block 7th St" type="OFFENSE" age="" gender="" description="*********************************************** &lt;br/&gt;13(a)(16), Possession of Controlled Substance&lt;br/&gt;2702, Aggravated Assault.&lt;br/&gt;3701, Robbery.&lt;br/&gt;5505, Public Drunkenness&lt;br/&gt;903, Criminal Conspiracy.&lt;br/&gt;"/><marker lat="40.452079448980783" lng="-80.016803241975907" zone="Zone 1" incidentdate="2015-12-19" incidenttime="11:42:00" incidentnumber="15241902" address="900 block Western Ave" type="OFFENSE" age="" gender="" description="*********************************************** &lt;br/&gt;9488, False  Burglar Alarm&lt;br/&gt;"/><marker lat="40.428684832699354" lng="-79.983306706238423" zone="Zone 3" incidentdate="2015-12-19" incidenttime="02:29:00" incidentnumber="15241729" address="1500 block E Carson St" type="OFFENSE" age="" gender="" description="*********************************************** &lt;br/&gt;5507, Obstructing Highways and Passages.&lt;br/&gt;5503(a)(4), DISORDERLY CONDUCT - HAZARDOUS/PHYS. OFF&lt;br/&gt;2701, Simple Assault.&lt;br/&gt;5505, Public Drunkenness&lt;br/&gt;"/><marker lat="40.454671991236104" lng="-79.932117906094192" zone="Zone 4" incidentdate="2015-12-19" incidenttime="03:13:00" incidentnumber="15241753" address="5700 block Ellsworth Ave" type="OFFENSE" age="" gender="" description="*********************************************** &lt;br/&gt;3304(a)(5), CRIMINAL MISCHIEF - Intentionally Damages Real Or Personal Property Of Another&lt;br/&gt;"/><marker lat="40.450901096519573" lng="-79.930622154707279" zone="Zone 5" incidentdate="2015-12-19" incidenttime="00:01:00" incidentnumber="15241637" address="900 block N Negley Ave" type="OFFENSE" age="" gender="" description="*********************************************** &lt;br/&gt;029, Missing Juvenile&lt;br/&gt;"/><marker lat="40.426141061106222" lng="-79.970682225051206" zone="Zone 3" incidentdate="2015-12-19" incidenttime="11:00:00" incidentnumber="15241885" address="S 25th St" type="OFFENSE" age="" gender="" description="*********************************************** &lt;br/&gt;3921(a), Theft by Unlawful Taking or Disposition - Movable item&lt;br/&gt;"/><marker lat="40.405564913954258" lng="-80.015276974021162" zone="Zone 6" incidentdate="2015-12-19" incidenttime="12:56:00" incidentnumber="15241941" address="1800 block Pioneer Ave" type="OFFENSE" age="" gender="" description="*********************************************** &lt;br/&gt;3921(a), Theft by Unlawful Taking or Disposition - Movable item&lt;br/&gt;1543, Driving While Operating Privilege is Suspended or Revoked.&lt;br/&gt;"/><marker lat="40.433506227695702" lng="-79.923234257536734" zone="Zone 4" incidentdate="2015-12-19" incidenttime="19:00:00" incidentnumber="15242195" address="2100 block Murray Ave" type="OFFENSE" age="" gender="" description="*********************************************** &lt;br/&gt;3921(a), Theft by Unlawful Taking or Disposition - Movable item&lt;br/&gt;"/><marker lat="40.409205437705104" lng="-80.019732444971893" zone="Zone 6" incidentdate="2015-12-19" incidenttime="19:38:00" incidentnumber="15242149" address="Cape May Ave &amp; Colebrook Ave" type="OFFENSE" age="" gender="" description="*********************************************** &lt;br/&gt;13(a)(31), Marijuana: Possession Small Amount&lt;br/&gt;1543, Driving While Operating Privilege is Suspended or Revoked.&lt;br/&gt;4303, General Lighting Requirements.&lt;br/&gt;"/><marker lat="40.470410050613673" lng="-79.892607631958555" zone="Zone 5" incidentdate="2015-12-19" incidenttime="20:43:00" incidentnumber="15242178" address="1600 block Lincoln Ave" type="OFFENSE" age="" gender="" description="*********************************************** &lt;br/&gt;2705, Recklessly Endangering Another Person.&lt;br/&gt;3736, Reckless Driving&lt;br/&gt;3745, Accidents Involving Damage to Unattended Veh.or Prop.&lt;br/&gt;3802(a)(1), DUI - General Impairment&lt;br/&gt;3743, Accidents Involving Damage to Attended Veh. or Property&lt;br/&gt;"/><marker lat="40.428226811517405" lng="-79.974453769791367" zone="Zone 3" incidentdate="2015-12-19" incidenttime="09:00:00" incidentnumber="15241884" address="2200 block E Carson St" type="OFFENSE" age="" gender="" description="*********************************************** &lt;br/&gt;3304, Criminal Mischief.&lt;br/&gt;"/><marker lat="40.478178829811441" lng="-79.941228725356893" zone="Zone 5" incidentdate="2015-12-19" incidenttime="03:30:00" incidentnumber="15241738" address="1100 block Woodbine St" type="OFFENSE" age="" gender="" description="*********************************************** &lt;br/&gt;3745, Accidents Involving Damage to Unattended Veh.or Prop.&lt;br/&gt;1543, Driving While Operating Privilege is Suspended or Revoked.&lt;br/&gt;"/><marker lat="40.478846468228319" lng="-80.043103207786132" zone="Zone 1" incidentdate="2015-12-19" incidenttime="00:30:00" incidentnumber="15241640" address="Ohio River Blvd &amp; Mckees Rocks Brg" type="OFFENSE" age="" gender="" description="*********************************************** &lt;br/&gt;5507, Obstructing Highways and Passages.&lt;br/&gt;"/><marker lat="40.414378931083867" lng="-79.988051306016501" zone="Zone 3" incidentdate="2015-12-19" incidenttime="14:30:00" incidentnumber="15242228" address="100 block Bausman St" type="OFFENSE" age="" gender="" description="*********************************************** &lt;br/&gt;3921(a), Theft by Unlawful Taking or Disposition - Movable item&lt;br/&gt;"/><marker lat="40.456613245058954" lng="-79.997562076207217" zone="Zone 1" incidentdate="2015-12-19" incidenttime="13:25:00" incidentnumber="15241960" address="1000 block Madison Ave" type="OFFENSE" age="" gender="" description="*********************************************** &lt;br/&gt;9488, False  Burglar Alarm&lt;br/&gt;"/><marker lat="40.453147354990151" lng="-79.906889970418121" zone="Zone 4" incidentdate="2015-12-19" incidenttime="09:45:00" incidentnumber="15241839" address="6900 block Thomas Blvd" type="OFFENSE" age="" gender="" description="*********************************************** &lt;br/&gt;2709(a), Harassment.&lt;br/&gt;"/><marker lat="40.488376978978813" lng="-79.923133082038333" zone="Zone 5" incidentdate="2015-12-19" incidenttime="18:50:00" incidentnumber="15242109" address="7200 block Butler St" type="OFFENSE" age="" gender="" description="*********************************************** &lt;br/&gt;9497, Aided Case&lt;br/&gt;"/><marker lat="40.437344950831772" lng="-79.981322200027023" zone="Zone 2" incidentdate="2015-12-19" incidenttime="00:30:00" incidentnumber="15241595" address="1800 block Forbes Ave" type="OFFENSE" age="" gender="" description="*********************************************** &lt;br/&gt;9490, Missing Persons (18 and Over)&lt;br/&gt;"/><marker lat="40.428016435405077" lng="-80.010150813740779" zone="Zone 3" incidentdate="2015-12-19" incidenttime="11:35:00" incidentnumber="15241901" address="200 block Cowan St" type="OFFENSE" age="" gender="" description="*********************************************** &lt;br/&gt;9999, 9999 - (Misc. Incident):&lt;br/&gt;"/><marker lat="40.466011403743479" lng="-79.922731041831852" zone="Zone 5" incidentdate="2015-12-19" incidenttime="03:10:00" incidentnumber="15241748" address="N Highland Ave &amp; East Liberty Blvd" type="OFFENSE" age="" gender="" description="*********************************************** &lt;br/&gt;3304, Criminal Mischief.&lt;br/&gt;3929, Retail Theft.&lt;br/&gt;"/><marker lat="40.428684832699354" lng="-79.983306706238423" zone="Zone 3" incidentdate="2015-12-19" incidenttime="02:29:00" incidentnumber="15241729" address="1500 block E Carson St" type="ARREST" age="23" gender="M" description="*********************************************** &lt;br/&gt;5507, Obstructing Highways and Passages.&lt;br/&gt;5503(a)(4), DISORDERLY CONDUCT - HAZARDOUS/PHYS. OFF&lt;br/&gt;2701, Simple Assault.&lt;br/&gt;5505, Public Drunkenness&lt;br/&gt;"/><marker lat="40.443535549700833" lng="-79.977755397985646" zone="Zone 2" incidentdate="2015-12-19" incidenttime="09:00:00" incidentnumber="15233282" address="300 block Addison St" type="ARREST" age="20" gender="M" description="*********************************************** &lt;br/&gt;2701, Simple Assault.&lt;br/&gt;"/><marker lat="40.4224488" lng="-80.0100816" zone="Zone 3" incidentdate="2015-12-19" incidenttime="12:39:00" incidentnumber="15241903" address="200 block Paul St" type="ARREST" age="24" gender="M" description="*********************************************** &lt;br/&gt;3304, Criminal Mischief.&lt;br/&gt;2701, Simple Assault.&lt;br/&gt;"/><marker lat="40.444136782158047" lng="-80.000993475333104" zone="Zone 2" incidentdate="2015-12-19" incidenttime="01:12:00" incidentnumber="15241691" address="100 block 7th St" type="ARREST" age="23" gender="M" description="*********************************************** &lt;br/&gt;13(a)(16), Possession of Controlled Substance&lt;br/&gt;2702, Aggravated Assault.&lt;br/&gt;3701, Robbery.&lt;br/&gt;5505, Public Drunkenness&lt;br/&gt;903, Criminal Conspiracy.&lt;br/&gt;"/><marker lat="40.415724062159953" lng="-79.99311329972528" zone="Zone 3" incidentdate="2015-12-19" incidenttime="21:00:00" incidentnumber="15230044" address="300 block Zara St" type="ARREST" age="30" gender="F" description="*********************************************** &lt;br/&gt;2701, Simple Assault.&lt;br/&gt;"/><marker lat="40.432440265993229" lng="-80.004042507126258" zone="Zone 3" incidentdate="2015-12-19" incidenttime="22:01:00" incidentnumber="15242203" address="100 block W Carson St" type="ARREST" age="21" gender="M" description="*********************************************** &lt;br/&gt;5104, Resisting Arrest or Other Law Enforcement.&lt;br/&gt;5505, Public Drunkenness&lt;br/&gt;5503(a)(3), DISORDERLY CONDUCT - OBSCENE LANG/GEST&lt;br/&gt;"/><marker lat="40.457281883886331" lng="-79.909059701531348" zone="Zone 5" incidentdate="2015-12-19" incidenttime="03:11:00" incidentnumber="15241727" address="Hamilton Ave &amp; 5th Ave" type="ARREST" age="26" gender="M" description="*********************************************** &lt;br/&gt;3334, Turning Movements and Required Signals.&lt;br/&gt;6106, Firearms not to be Carried without a License.&lt;br/&gt;6105(a)(1), Persons not to possess, use, manufacture, control, sell or transfer firearms: Former convict enumerated in subsection (b)&lt;br/&gt;"/><marker lat="40.409205437705104" lng="-80.019732444971893" zone="Zone 6" incidentdate="2015-12-19" incidenttime="19:38:00" incidentnumber="15242149" address="Cape May Ave &amp; Colebrook Ave" type="ARREST" age="21" gender="M" description="*********************************************** &lt;br/&gt;13(a)(31), Marijuana: Possession Small Amount&lt;br/&gt;1543, Driving While Operating Privilege is Suspended or Revoked.&lt;br/&gt;4303, General Lighting Requirements.&lt;br/&gt;"/><marker lat="40.419607469652064" lng="-79.927151382845352" zone="Zone 4" incidentdate="2015-12-19" incidenttime="00:01:00" incidentnumber="15239465" address="Hazelwood Ave &amp; Beechwood Blvd" type="ARREST" age="21" gender="M" description="*********************************************** &lt;br/&gt;13(a)(16), Possession of Controlled Substance&lt;br/&gt;13(a)(30), Possession w/ Intent to Del. Controlled Substance&lt;br/&gt;1501, Drivers Required to be Licensed.&lt;br/&gt;4703, Operation of Vehicle without Official Certif. of Inspection&lt;br/&gt;1574, Permitting Unauthorized Person to Drive.&lt;br/&gt;1301, Registration and Certificate of Title Required.&lt;br/&gt;"/><marker lat="40.428684832699354" lng="-79.983306706238423" zone="Zone 3" incidentdate="2015-12-19" incidenttime="02:30:00" incidentnumber="15241729" address="1500 block E Carson St" type="ARREST" age="22" gender="M" description="*********************************************** &lt;br/&gt;5507, Obstructing Highways and Passages.&lt;br/&gt;5503(a)(4), DISORDERLY CONDUCT - HAZARDOUS/PHYS. OFF&lt;br/&gt;2701, Simple Assault.&lt;br/&gt;5505, Public Drunkenness&lt;br/&gt;"/><marker lat="40.44923028512747" lng="-79.887209840525756" zone="Zone 5" incidentdate="2015-12-19" incidenttime="01:09:00" incidentnumber="15241661" address="500 block Rosedale St" type="ARREST" age="56" gender="M" description="*********************************************** &lt;br/&gt;2701, Simple Assault.&lt;br/&gt;2902, Unlawful Restraint.&lt;br/&gt;"/><marker lat="40.434696587775576" lng="-79.996300985228572" zone="Zone 2" incidentdate="2015-12-19" incidenttime="11:50:00" incidentnumber="15237881" address="600 block 1st Ave" type="ARREST" age="19" gender="M" description="*********************************************** &lt;br/&gt;2707, Propulsion of Missiles&lt;br/&gt;3714, Careless Driving&lt;br/&gt;601.11(a), Littering and Dumping; Any waste, dangerous or detrimental substance upon public property&lt;br/&gt;3702, Robbery of Motor Vehicle.&lt;br/&gt;3809(a), Restriction on Alcoholic Beverages in Vehicle&lt;br/&gt;491(2), Unlawful Posession/Transportation Liquor&lt;br/&gt;"/><marker lat="40.412490771668999" lng="-80.040587392325691" zone="Zone 6" incidentdate="2015-12-19" incidenttime="17:00:00" incidentnumber="15190535" address="1300 block Kirsopp Ave" type="ARREST" age="47" gender="M" description="*********************************************** &lt;br/&gt;3925, Receiving Stolen Property.&lt;br/&gt;"/><marker lat="40.4599458" lng="-79.8862763" zone="Zone 5" incidentdate="2015-12-19" incidenttime="17:30:00" incidentnumber="15242067" address="1300 block Heart Ct" type="ARREST" age="22" gender="F" description="*********************************************** &lt;br/&gt;2702, Aggravated Assault.&lt;br/&gt;"/><marker lat="40.397519300735595" lng="-79.991168326458094" zone="Zone 3" incidentdate="2015-12-19" incidenttime="18:07:00" incidentnumber="15242086" address="1700 block Plateau St" type="ARREST" age="64" gender="M" description="*********************************************** &lt;br/&gt;2701, Simple Assault.&lt;br/&gt;"/><marker lat="40.40074958751395" lng="-80.00507392304327" zone="Zone 6" incidentdate="2015-12-19" incidenttime="17:20:00" incidentnumber="15242060" address="Edgebrook Ave &amp; Bundle Way" type="ARREST" age="23" gender="M" description="*********************************************** &lt;br/&gt;13(a)(16), Possession of Controlled Substance&lt;br/&gt;13(a)(32), Paraphernalia - Use or Possession&lt;br/&gt;1786, Required Financial Responsibility.&lt;br/&gt;3736, Reckless Driving&lt;br/&gt;1543, Driving While Operating Privilege is Suspended or Revoked.&lt;br/&gt;3802(a)(1), DUI - General Impairment&lt;br/&gt;"/><marker lat="40.426138400454285" lng="-79.939745312705426" zone="Zone 4" incidentdate="2015-12-19" incidenttime="20:10:00" incidentnumber="15242159" address="600 block Greenfield Ave" type="ARREST" age="53" gender="M" description="*********************************************** &lt;br/&gt;5104, Resisting Arrest or Other Law Enforcement.&lt;br/&gt;2702, Aggravated Assault.&lt;br/&gt;2701(a)(1), Simple Assault - Intent., Know., Reckless.Cause Bod. Injury&lt;br/&gt;"/><marker lat="40.470410050613673" lng="-79.892607631958555" zone="Zone 5" incidentdate="2015-12-19" incidenttime="21:28:00" incidentnumber="15242178" address="1600 block Lincoln Ave" type="ARREST" age="38" gender="M" description="*********************************************** &lt;br/&gt;2705, Recklessly Endangering Another Person.&lt;br/&gt;3736, Reckless Driving&lt;br/&gt;3745, Accidents Involving Damage to Unattended Veh.or Prop.&lt;br/&gt;3802(a)(1), DUI - General Impairment&lt;br/&gt;3743, Accidents Involving Damage to Attended Veh. or Property&lt;br/&gt;"/><marker lat="40.464737211022197" lng="-80.029578543611052" zone="Zone 1" incidentdate="2015-12-19" incidenttime="09:00:00" incidentnumber="15208790" address="1300 block Overcliff Way" type="ARREST" age="20" gender="M" description="*********************************************** &lt;br/&gt;3304, Criminal Mischief.&lt;br/&gt;5104, Resisting Arrest or Other Law Enforcement.&lt;br/&gt;9015, Failure To Appear/Arrest on Attachment Order&lt;br/&gt;5121, Escape.&lt;br/&gt;5506, Loitering and Prowling at Night&lt;br/&gt;5126, Flight to Avoid Apprehension, Trial or Punishment.&lt;br/&gt;"/></markers>
