<?xml version="1.0"?>
<markers><marker lat="40.46142719178016" lng="-79.927258505762481" zone="Zone 5" incidentdate="2014-11-01" incidenttime="00:38:00" incidentnumber="14217345" address="S Beatty St &amp; Mignonette St" type="OFFENSE" age="" gender="" description="*********************************************** &lt;br/&gt;2702, Aggravated Assault.&lt;br/&gt;2705, Recklessly Endangering Another Person.&lt;br/&gt;3701, Robbery.&lt;br/&gt;"/><marker lat="40.412484442362505" lng="-79.933532307859025" zone="Zone 4" incidentdate="2014-11-01" incidenttime="02:50:00" incidentnumber="14217457" address="Longview St &amp; Kinglake St" type="OFFENSE" age="" gender="" description="*********************************************** &lt;br/&gt;9122, Miscellaneous Fire Vehicle Investigation to Continue&lt;br/&gt;"/><marker lat="40.443880384697444" lng="-80.053703950718187" zone="Zone 6" incidentdate="2014-11-01" incidenttime="12:45:00" incidentnumber="14217701" address="900 block Woodlow St" type="OFFENSE" age="" gender="" description="*********************************************** &lt;br/&gt;029, Missing Juvenile&lt;br/&gt;"/><marker lat="40.428478873788158" lng="-79.980265799395895" zone="Zone 3" incidentdate="2014-11-01" incidenttime="17:30:00" incidentnumber="14217847" address="1800 block E Carson St" type="OFFENSE" age="" gender="" description="*********************************************** &lt;br/&gt;2706, Terroristic Threats.&lt;br/&gt;"/><marker lat="40.467127750833384" lng="-79.925058050236629" zone="Zone 5" incidentdate="2014-11-01" incidenttime="21:00:00" incidentnumber="14217950" address="Mathews Way &amp; N Euclid Ave" type="OFFENSE" age="" gender="" description="*********************************************** &lt;br/&gt;3701, Robbery.&lt;br/&gt;"/><marker lat="40.45603240287538" lng="-80.063311385591874" zone="Zone 6" incidentdate="2014-11-01" incidenttime="11:27:00" incidentnumber="14217658" address="1100 block Tweed St" type="OFFENSE" age="" gender="" description="*********************************************** &lt;br/&gt;9488, False  Burglar Alarm&lt;br/&gt;"/><marker lat="40.421944420582776" lng="-79.984192375027831" zone="Zone 3" incidentdate="2014-11-01" incidenttime="05:05:00" incidentnumber="14217512" address="2500 block S 18th St" type="OFFENSE" age="" gender="" description="*********************************************** &lt;br/&gt;9489, Found Property&lt;br/&gt;"/><marker lat="40.409847601863099" lng="-79.99090162944519" zone="Zone 3" incidentdate="2014-11-01" incidenttime="06:08:00" incidentnumber="14217548" address="700 block Brownsville Rd" type="OFFENSE" age="" gender="" description="*********************************************** &lt;br/&gt;3745, Accidents Involving Damage to Unattended Veh.or Prop.&lt;br/&gt;"/><marker lat="40.446867779409757" lng="-80.020757813868244" zone="Zone 1" incidentdate="2014-11-01" incidenttime="18:21:00" incidentnumber="14217870" address="Ohio River Blvd &amp; Marshall Ave Ramp" type="OFFENSE" age="" gender="" description="*********************************************** &lt;br/&gt;3714, Careless Driving&lt;br/&gt;3736, Reckless Driving&lt;br/&gt;3743, Accidents Involving Damage to Attended Veh. or Property&lt;br/&gt;"/><marker lat="40.460594319900963" lng="-79.922716789802806" zone="Zone 5" incidentdate="2014-11-01" incidenttime="16:50:00" incidentnumber="14217831" address="6200 block Penn Ave" type="OFFENSE" age="" gender="" description="*********************************************** &lt;br/&gt;3929, Retail Theft.&lt;br/&gt;"/><marker lat="40.434635671074027" lng="-79.961838045603614" zone="Zone 4" incidentdate="2014-11-01" incidenttime="00:01:00" incidentnumber="14217306" address="3200 block Joe Hammer Sq" type="OFFENSE" age="" gender="" description="*********************************************** &lt;br/&gt;5503(a)(2), DISORDERLY CONDUCT - UNREASONABLE NOISE&lt;br/&gt;"/><marker lat="40.44466201857626" lng="-80.042150479542755" zone="Zone 6" incidentdate="2014-11-01" incidenttime="02:37:00" incidentnumber="14217444" address="1100 block Fredonia St" type="OFFENSE" age="" gender="" description="*********************************************** &lt;br/&gt;9999, 9999 - (Misc. Incident):&lt;br/&gt;"/><marker lat="40.428684832699354" lng="-79.983306706238423" zone="Zone 3" incidentdate="2014-11-01" incidenttime="01:28:00" incidentnumber="14217391" address="1500 block E Carson St" type="OFFENSE" age="" gender="" description="*********************************************** &lt;br/&gt;2701, Simple Assault.&lt;br/&gt;5503(a)(1), DISORDERLY CONDUCT - ENGAGE IN FIGHTING&lt;br/&gt;5104, Resisting Arrest or Other Law Enforcement.&lt;br/&gt;5505, Public Drunkenness&lt;br/&gt;"/><marker lat="40.487823540011732" lng="-79.897614208935366" zone="Zone 5" incidentdate="2014-11-01" incidenttime="16:57:00" incidentnumber="14217837" address="800 block Freeport Rd" type="OFFENSE" age="" gender="" description="*********************************************** &lt;br/&gt;3929, Retail Theft.&lt;br/&gt;3503.B1I, DEF. TRESPASS ACTUAL COMMUNICATION&lt;br/&gt;"/><marker lat="40.45016757645427" lng="-79.914208122104924" zone="Zone 4" incidentdate="2014-11-01" incidenttime="20:30:00" incidentnumber="14217938" address="400 block Hastings St" type="OFFENSE" age="" gender="" description="*********************************************** &lt;br/&gt;3304, Criminal Mischief.&lt;br/&gt;3502, Burglary.&lt;br/&gt;"/><marker lat="40.463089718554265" lng="-79.899272953521745" zone="Zone 5" incidentdate="2014-11-01" incidenttime="13:30:00" incidentnumber="14217711" address="7000 block Upland St" type="OFFENSE" age="" gender="" description="*********************************************** &lt;br/&gt;029, Missing Juvenile&lt;br/&gt;"/><marker lat="40.428815176198341" lng="-79.983424931589681" zone="Zone 3" incidentdate="2014-11-01" incidenttime="00:02:00" incidentnumber="14217307" address="E Carson St &amp; S 15th St" type="OFFENSE" age="" gender="" description="*********************************************** &lt;br/&gt;601.08(a), Alcohol or Liquor Consumption on Streets or Sidewalks&lt;br/&gt;"/><marker lat="40.428648587693665" lng="-79.984030978724903" zone="Zone 3" incidentdate="2014-11-01" incidenttime="01:23:00" incidentnumber="14217397" address="1400 block E Carson St" type="OFFENSE" age="" gender="" description="*********************************************** &lt;br/&gt;2701, Simple Assault.&lt;br/&gt;"/><marker lat="40.428746746224945" lng="-79.982646526389246" zone="Zone 3" incidentdate="2014-11-01" incidenttime="04:02:00" incidentnumber="14217493" address="1600 block E Carson St" type="OFFENSE" age="" gender="" description="*********************************************** &lt;br/&gt;5505, Public Drunkenness&lt;br/&gt;"/><marker lat="40.466891029576871" lng="-79.901962825749436" zone="Zone 5" incidentdate="2014-11-01" incidenttime="16:23:00" incidentnumber="14217795" address="6600 block Hedge St" type="OFFENSE" age="" gender="" description="*********************************************** &lt;br/&gt;3304, Criminal Mischief.&lt;br/&gt;"/><marker lat="40.429319862415177" lng="-79.981997147629315" zone="Zone 3" incidentdate="2014-11-01" incidenttime="02:42:00" incidentnumber="14217438" address="Wrights Way &amp; S 17th St" type="OFFENSE" age="" gender="" description="*********************************************** &lt;br/&gt;2701, Simple Assault.&lt;br/&gt;5503(a)(1), DISORDERLY CONDUCT - ENGAGE IN FIGHTING&lt;br/&gt;"/><marker lat="40.459092247072519" lng="-80.028033617136927" zone="Zone 1" incidentdate="2014-11-01" incidenttime="00:05:00" incidentnumber="14217313" address="1400 block Beldale St" type="OFFENSE" age="" gender="" description="*********************************************** &lt;br/&gt;3301, Arson&lt;br/&gt;"/><marker lat="40.428815176198341" lng="-79.983424931589681" zone="Zone 3" incidentdate="2014-11-01" incidenttime="01:18:00" incidentnumber="14217381" address="E Carson St &amp; S 15th St" type="OFFENSE" age="" gender="" description="*********************************************** &lt;br/&gt;601.08(a), Alcohol or Liquor Consumption on Streets or Sidewalks&lt;br/&gt;"/><marker lat="40.457644669440079" lng="-80.056984913637734" zone="Zone 6" incidentdate="2014-11-01" incidenttime="01:19:00" incidentnumber="14217382" address="3200 block Ashlyn St" type="OFFENSE" age="" gender="" description="*********************************************** &lt;br/&gt;6308(a), Underage Purchase, Consume, Possessed or Transport Liquor&lt;br/&gt;3718(a), Minor Prohib from Operating w/ Alcohol in System&lt;br/&gt;3745, Accidents Involving Damage to Unattended Veh.or Prop.&lt;br/&gt;3802(a)(1), DUI - General Impairment&lt;br/&gt;"/><marker lat="40.38940338753342" lng="-80.01736541014921" zone="Zone 6" incidentdate="2014-11-01" incidenttime="01:45:00" incidentnumber="14217401" address="1100 block Woodbourne Ave" type="OFFENSE" age="" gender="" description="*********************************************** &lt;br/&gt;9488, False  Burglar Alarm&lt;br/&gt;"/><marker lat="40.443766633912354" lng="-80.040975827303569" zone="Zone 6" incidentdate="2014-11-01" incidenttime="12:00:00" incidentnumber="14217745" address="1000 block Fredonia St" type="OFFENSE" age="" gender="" description="*********************************************** &lt;br/&gt;3921, Theft by Unlawful Taking or Disposition.&lt;br/&gt;"/><marker lat="40.453470511792048" lng="-80.001533243378148" zone="Zone 1" incidentdate="2014-11-01" incidenttime="09:07:00" incidentnumber="14217603" address="400 block East Ohio St" type="OFFENSE" age="" gender="" description="*********************************************** &lt;br/&gt;3929, Retail Theft.&lt;br/&gt;"/><marker lat="40.446867779409757" lng="-80.020757813868244" zone="Zone 1" incidentdate="2014-11-01" incidenttime="16:30:00" incidentnumber="14217914" address="700 block Casino Dr" type="OFFENSE" age="" gender="" description="*********************************************** &lt;br/&gt;3304, Criminal Mischief.&lt;br/&gt;"/><marker lat="40.481109801727499" lng="-79.928975976869765" zone="Zone 5" incidentdate="2014-11-01" incidenttime="03:30:00" incidentnumber="14217476" address="1400 block Jancey St" type="OFFENSE" age="" gender="" description="*********************************************** &lt;br/&gt;2701, Simple Assault.&lt;br/&gt;"/><marker lat="40.455876321777623" lng="-79.938275604820149" zone="Zone 4" incidentdate="2014-11-01" incidenttime="18:38:00" incidentnumber="14217884" address="5400 block Centre Ave" type="OFFENSE" age="" gender="" description="*********************************************** &lt;br/&gt;13(a)(31), Marijuana: Possession Small Amount&lt;br/&gt;13(a)(16), Possession of Controlled Substance&lt;br/&gt;13(a)(30), Possession w/ Intent to Del. Controlled Substance&lt;br/&gt;5503(a)(4), DISORDERLY CONDUCT - HAZARDOUS/PHYS. OFF&lt;br/&gt;13(a)(32), Paraphernalia - Use or Possession&lt;br/&gt;5123, Contraband.&lt;br/&gt;3304(a)(5), CRIMINAL MISCHIEF - Intentionally Damages Real Or Personal Property Of Another&lt;br/&gt;"/><marker lat="40.4274771168228" lng="-79.969817626401067" zone="Zone 3" incidentdate="2014-11-01" incidenttime="16:09:00" incidentnumber="14217780" address="2500 block E Carson St" type="OFFENSE" age="" gender="" description="*********************************************** &lt;br/&gt;5505, Public Drunkenness&lt;br/&gt;"/><marker lat="40.428834925885639" lng="-79.982047583109136" zone="Zone 3" incidentdate="2014-11-01" incidenttime="00:54:00" incidentnumber="14217359" address="S 17th St &amp; E Carson St" type="OFFENSE" age="" gender="" description="*********************************************** &lt;br/&gt;7513, Restriction on Alcoholic Beverages - Open Container&lt;br/&gt;"/><marker lat="40.468707151284001" lng="-79.962290675901343" zone="Zone 2" incidentdate="2014-11-01" incidenttime="02:27:00" incidentnumber="14217437" address="40th St &amp; Butler St" type="OFFENSE" age="" gender="" description="*********************************************** &lt;br/&gt;9999, 9999 - (Misc. Incident):&lt;br/&gt;"/><marker lat="40.428726365881886" lng="-79.987518246307118" zone="Zone 3" incidentdate="2014-11-01" incidenttime="16:30:00" incidentnumber="14217803" address="S 11th St &amp; E Carson St" type="OFFENSE" age="" gender="" description="*********************************************** &lt;br/&gt;5505, Public Drunkenness&lt;br/&gt;"/><marker lat="40.433029344782589" lng="-79.95627991999838" zone="Zone 4" incidentdate="2014-11-01" incidenttime="01:00:00" incidentnumber="14217366" address="500 block Cato St" type="OFFENSE" age="" gender="" description="*********************************************** &lt;br/&gt;5503, Disorderly Conduct.&lt;br/&gt;"/><marker lat="40.45486727075599" lng="-79.925291736915867" zone="Zone 3" incidentdate="2014-11-01" incidenttime="00:35:00" incidentnumber="14217335" address="1200 block Carson St" type="OFFENSE" age="" gender="" description="*********************************************** &lt;br/&gt;3304(a)(5), CRIMINAL MISCHIEF - Intentionally Damages Real Or Personal Property Of Another&lt;br/&gt;5104, Resisting Arrest or Other Law Enforcement.&lt;br/&gt;5503(a)(4), DISORDERLY CONDUCT - HAZARDOUS/PHYS. OFF&lt;br/&gt;5505, Public Drunkenness&lt;br/&gt;3304, Criminal Mischief.&lt;br/&gt;"/><marker lat="40.464682497559537" lng="-79.923347918547037" zone="Zone 5" incidentdate="2014-11-01" incidenttime="17:30:00" incidentnumber="14217821" address="N Highland Ave &amp; Rippey St" type="OFFENSE" age="" gender="" description="*********************************************** &lt;br/&gt;2701, Simple Assault.&lt;br/&gt;"/><marker lat="40.454038272737556" lng="-79.867341042290406" zone="Zone 5" incidentdate="2014-11-01" incidenttime="13:00:00" incidentnumber="14217722" address="2200 block Wilner Dr" type="OFFENSE" age="" gender="" description="*********************************************** &lt;br/&gt;3502, Burglary.&lt;br/&gt;"/><marker lat="40.461918393975949" lng="-79.952912809533046" zone="Zone 5" incidentdate="2014-11-01" incidenttime="12:27:00" incidentnumber="14217808" address="400 block Ella St" type="OFFENSE" age="" gender="" description="*********************************************** &lt;br/&gt;9999, 9999 - (Misc. Incident):&lt;br/&gt;, Enhanced&lt;br/&gt;"/><marker lat="40.439534165811146" lng="-79.99836772444668" zone="Zone 2" incidentdate="2014-11-01" incidenttime="10:26:00" incidentnumber="14217637" address="400 block 5th Ave" type="OFFENSE" age="" gender="" description="*********************************************** &lt;br/&gt;3929, Retail Theft.&lt;br/&gt;"/><marker lat="40.442064583857075" lng="-80.031846973128282" zone="Zone 6" incidentdate="2014-11-01" incidenttime="11:35:00" incidentnumber="14217657" address="300 block S Main St" type="OFFENSE" age="" gender="" description="*********************************************** &lt;br/&gt;9489, Found Property&lt;br/&gt;"/><marker lat="40.443580942147605" lng="-79.979979097296493" zone="Zone 2" incidentdate="2014-11-01" incidenttime="16:45:00" incidentnumber="14217899" address="2000 block Centre Ave" type="OFFENSE" age="" gender="" description="*********************************************** &lt;br/&gt;9497, Aided Case&lt;br/&gt;"/><marker lat="40.44799942333826" lng="-79.988692730605138" zone="Zone 5" incidentdate="2014-11-01" incidenttime="06:20:00" incidentnumber="14217549" address="6300 block Penn Ave" type="OFFENSE" age="" gender="" description="*********************************************** &lt;br/&gt;3921(a), Theft by Unlawful Taking or Disposition - Movable item&lt;br/&gt;"/><marker lat="40.450595515764789" lng="-80.013415244301456" zone="Zone 1" incidentdate="2014-11-01" incidenttime="15:15:00" incidentnumber="14217757" address="Brighton Rd &amp; Ridge Ave" type="OFFENSE" age="" gender="" description="*********************************************** &lt;br/&gt;13(a)(16), Possession of Controlled Substance&lt;br/&gt;3802(d)(2), DUI - Drug - Impaired Ability&lt;br/&gt;4304(a)(1), Endangering Welfare of Children - Course of Conduct Enhanced&lt;br/&gt;"/><marker lat="40.428815176198341" lng="-79.983424931589681" zone="Zone 3" incidentdate="2014-11-01" incidenttime="02:01:00" incidentnumber="14217415" address="E Carson St &amp; S 15th St" type="OFFENSE" age="" gender="" description="*********************************************** &lt;br/&gt;601.08(a), Alcohol or Liquor Consumption on Streets or Sidewalks&lt;br/&gt;"/><marker lat="40.452745311658013" lng="-79.936727262344533" zone="Zone 4" incidentdate="2014-11-01" incidenttime="01:37:00" incidentnumber="14217395" address="S Aiken Ave &amp; Ellsworth Ave" type="OFFENSE" age="" gender="" description="*********************************************** &lt;br/&gt;3745, Accidents Involving Damage to Unattended Veh.or Prop.&lt;br/&gt;"/><marker lat="40.441391902103199" lng="-79.958100619016861" zone="Zone 4" incidentdate="2014-11-01" incidenttime="02:00:00" incidentnumber="14217423" address="200 block Atwood St" type="OFFENSE" age="" gender="" description="*********************************************** &lt;br/&gt;3929, Retail Theft.&lt;br/&gt;5505, Public Drunkenness&lt;br/&gt;"/><marker lat="40.468714702119144" lng="-79.927005027242316" zone="Zone 5" incidentdate="2014-11-01" incidenttime="19:37:00" incidentnumber="14217912" address="600 block N Negley Ave" type="OFFENSE" age="" gender="" description="*********************************************** &lt;br/&gt;908, Prohibited Offensive Weapons.&lt;br/&gt;2701, Simple Assault.&lt;br/&gt;"/><marker lat="40.46576196782835" lng="-79.995186532688805" zone="Zone 1" incidentdate="2014-11-01" incidenttime="15:30:00" incidentnumber="14217820" address="Woessner Ave" type="OFFENSE" age="" gender="" description="*********************************************** &lt;br/&gt;3745, Accidents Involving Damage to Unattended Veh.or Prop.&lt;br/&gt;"/><marker lat="40.430029464019185" lng="-79.988643041572175" zone="Zone 3" incidentdate="2014-11-01" incidenttime="03:01:00" incidentnumber="14217461" address="S 10TH St &amp; MURIEL St" type="OFFENSE" age="" gender="" description="*********************************************** &lt;br/&gt;4302, Periods for Requiring Lighted Lamps.&lt;br/&gt;4581, Restraint Systems.&lt;br/&gt;3802(a)(1), DUI - General Impairment&lt;br/&gt;"/><marker lat="40.416798045904201" lng="-80.030328077628155" zone="Zone 6" incidentdate="2014-11-01" incidenttime="15:55:00" incidentnumber="14217775" address="1300 block Banksville Rd" type="OFFENSE" age="" gender="" description="*********************************************** &lt;br/&gt;9999, 9999 - (Misc. Incident):&lt;br/&gt;"/><marker lat="40.423701811107328" lng="-79.997552630724996" zone="Zone 3" incidentdate="2014-11-01" incidenttime="17:30:00" incidentnumber="14217892" address="Beltzhoover Ave" type="OFFENSE" age="" gender="" description="*********************************************** &lt;br/&gt;3745, Accidents Involving Damage to Unattended Veh.or Prop.&lt;br/&gt;"/><marker lat="40.456635323771728" lng="-79.997629051365578" zone="Zone 1" incidentdate="2014-11-01" incidenttime="09:23:00" incidentnumber="14217610" address="800 block Tripoli St" type="OFFENSE" age="" gender="" description="*********************************************** &lt;br/&gt;9488, False  Burglar Alarm&lt;br/&gt;"/><marker lat="40.462757960390562" lng="-79.897548766257913" zone="Zone 5" incidentdate="2014-11-01" incidenttime="12:14:00" incidentnumber="14217683" address="N Lang Ave &amp; Upland St" type="OFFENSE" age="" gender="" description="*********************************************** &lt;br/&gt;13(a)(16), Possession of Controlled Substance&lt;br/&gt;3323, Stop Signs and Yield Signs.&lt;br/&gt;"/><marker lat="40.43090576959154" lng="-80.010820921340326" zone="Zone 3" incidentdate="2014-11-01" incidenttime="04:50:00" incidentnumber="14217523" address="300 block Grace St" type="OFFENSE" age="" gender="" description="*********************************************** &lt;br/&gt;3503, Criminal Trespass&lt;br/&gt;"/><marker lat="40.400793615623229" lng="-79.937234111578988" zone="Zone 1" incidentdate="2014-11-01" incidenttime="05:53:00" incidentnumber="14217541" address="Allegheny Center" type="OFFENSE" age="" gender="" description="*********************************************** &lt;br/&gt;2701, Simple Assault.&lt;br/&gt;"/><marker lat="40.44956618746032" lng="-79.987646691015016" zone="Zone 2" incidentdate="2014-11-01" incidenttime="01:35:00" incidentnumber="14217472" address="1600 block Smallman St" type="OFFENSE" age="" gender="" description="*********************************************** &lt;br/&gt;3745, Accidents Involving Damage to Unattended Veh.or Prop.&lt;br/&gt;"/><marker lat="40.445946056684924" lng="-80.040016959012945" zone="Zone 6" incidentdate="2014-11-01" incidenttime="03:21:00" incidentnumber="14217470" address="700 block Rudolph St" type="OFFENSE" age="" gender="" description="*********************************************** &lt;br/&gt;2701, Simple Assault.&lt;br/&gt;2705, Recklessly Endangering Another Person.&lt;br/&gt;"/><marker lat="40.456515048695316" lng="-80.016515559088219" zone="Zone 1" incidentdate="2014-11-01" incidenttime="13:50:00" incidentnumber="14217731" address="1500 block Brighton Pl" type="OFFENSE" age="" gender="" description="*********************************************** &lt;br/&gt;2701, Simple Assault.&lt;br/&gt;"/><marker lat="40.438690074284047" lng="-79.997267035100052" zone="Zone 2" incidentdate="2014-11-01" incidenttime="09:32:00" incidentnumber="14217612" address="Grant St &amp; Forbes Ave" type="OFFENSE" age="" gender="" description="*********************************************** &lt;br/&gt;3304, Criminal Mischief.&lt;br/&gt;2701, Simple Assault.&lt;br/&gt;3934, Theft from Vehicle&lt;br/&gt;"/><marker lat="40.436180549657671" lng="-79.919025770995219" zone="Zone 4" incidentdate="2014-11-01" incidenttime="09:00:00" incidentnumber="14217600" address="6300 block Bartlett St" type="OFFENSE" age="" gender="" description="*********************************************** &lt;br/&gt;3502, Burglary.&lt;br/&gt;"/><marker lat="40.429912956583365" lng="-79.95398397967142" zone="Zone 4" incidentdate="2014-11-01" incidenttime="01:13:00" incidentnumber="14217383" address="3200 block Dawson St" type="OFFENSE" age="" gender="" description="*********************************************** &lt;br/&gt;3304, Criminal Mischief.&lt;br/&gt;"/><marker lat="40.46576196782835" lng="-79.995186532688805" zone="Zone 1" incidentdate="2014-11-01" incidenttime="10:36:00" incidentnumber="14217588" address="Woessner Ave" type="OFFENSE" age="" gender="" description="*********************************************** &lt;br/&gt;9999, 9999 - (Misc. Incident):&lt;br/&gt;"/><marker lat="40.466760003040491" lng="-79.925205131844692" zone="Zone 5" incidentdate="2014-11-01" incidenttime="18:47:00" incidentnumber="14217890" address="500 block N Euclid Ave" type="OFFENSE" age="" gender="" description="*********************************************** &lt;br/&gt;3304, Criminal Mischief.&lt;br/&gt;"/><marker lat="40.450469327653117" lng="-80.016421323674152" zone="Zone 1" incidentdate="2014-11-01" incidenttime="14:45:00" incidentnumber="14217723" address="900 block Ridge Ave" type="OFFENSE" age="" gender="" description="*********************************************** &lt;br/&gt;3304, Criminal Mischief.&lt;br/&gt;3934, Theft from Vehicle&lt;br/&gt;4106, Access Device Fraud&lt;br/&gt;"/><marker lat="40.43090576959154" lng="-80.010820921340326" zone="Zone 3" incidentdate="2014-11-01" incidenttime="03:32:00" incidentnumber="14217463" address="300 block GRACE St" type="OFFENSE" age="" gender="" description="*********************************************** &lt;br/&gt;2702, Aggravated Assault.&lt;br/&gt;4912, Impersonating a Public Servant.&lt;br/&gt;5503, Disorderly Conduct.&lt;br/&gt;5505, Public Drunkenness&lt;br/&gt;9501, Bench Warrant&lt;br/&gt;5126, Flight to Avoid Apprehension, Trial or Punishment.&lt;br/&gt;5104, Resisting Arrest or Other Law Enforcement.&lt;br/&gt;5121, Escape.&lt;br/&gt;5506, Loitering and Prowling at Night&lt;br/&gt;"/><marker lat="40.450200207420167" lng="-80.056230624856667" zone="Zone 6" incidentdate="2014-11-01" incidenttime="00:37:00" incidentnumber="14217343" address="1200 block Straka St" type="OFFENSE" age="" gender="" description="*********************************************** &lt;br/&gt;9488, False  Burglar Alarm&lt;br/&gt;"/><marker lat="40.46576196782835" lng="-79.995186532688805" zone="Zone 1" incidentdate="2014-11-01" incidenttime="11:35:00" incidentnumber="14217665" address="General Robinson St W &amp; Tony Dorsett" type="OFFENSE" age="" gender="" description="*********************************************** &lt;br/&gt;5507, Obstructing Highways and Passages.&lt;br/&gt;"/><marker lat="40.431491942560918" lng="-80.001881899813199" zone="Zone 3" incidentdate="2014-11-01" incidenttime="00:10:00" incidentnumber="14217308" address="200 block Station Square Dr W" type="OFFENSE" age="" gender="" description="*********************************************** &lt;br/&gt;2702, Aggravated Assault.&lt;br/&gt;2706, Terroristic Threats.&lt;br/&gt;5503, Disorderly Conduct.&lt;br/&gt;5505, Public Drunkenness&lt;br/&gt;"/><marker lat="40.419107541785827" lng="-79.997313679378507" zone="Zone 3" incidentdate="2014-11-01" incidenttime="03:34:00" incidentnumber="14217487" address="Beltzhoover Ave &amp; Freeland St" type="OFFENSE" age="" gender="" description="*********************************************** &lt;br/&gt;3743, Accidents Involving Damage to Attended Veh. or Property&lt;br/&gt;"/><marker lat="40.455023520372684" lng="-79.885909186300637" zone="Zone 5" incidentdate="2014-11-01" incidenttime="03:20:00" incidentnumber="14217490" address="7900 block Frankstown Ave" type="OFFENSE" age="" gender="" description="*********************************************** &lt;br/&gt;3921(a), Theft by Unlawful Taking or Disposition - Movable item&lt;br/&gt;"/><marker lat="40.410251409397553" lng="-80.008103050743202" zone="Zone 6" incidentdate="2014-11-01" incidenttime="16:58:00" incidentnumber="14217790" address="400 block Cadet Ave" type="OFFENSE" age="" gender="" description="*********************************************** &lt;br/&gt;9497, Aided Case&lt;br/&gt;"/><marker lat="40.448885490296938" lng="-79.98750584314844" zone="Zone 5" incidentdate="2014-11-01" incidenttime="10:32:00" incidentnumber="14217627" address="Penn Ave" type="OFFENSE" age="" gender="" description="*********************************************** &lt;br/&gt;3929, Retail Theft.&lt;br/&gt;"/><marker lat="40.463105774488326" lng="-79.904503264888604" zone="Zone 5" incidentdate="2014-11-01" incidenttime="15:30:00" incidentnumber="14217971" address="6700 block Atwell St" type="OFFENSE" age="" gender="" description="*********************************************** &lt;br/&gt;3921, Theft by Unlawful Taking or Disposition.&lt;br/&gt;"/><marker lat="40.428684832699354" lng="-79.983306706238423" zone="Zone 3" incidentdate="2014-11-01" incidenttime="00:45:00" incidentnumber="14217341" address="1500 block E Carson St" type="OFFENSE" age="" gender="" description="*********************************************** &lt;br/&gt;3503.B1I, DEF. TRESPASS ACTUAL COMMUNICATION&lt;br/&gt;5503, Disorderly Conduct.&lt;br/&gt;"/><marker lat="40.411403490202211" lng="-79.944206711069597" zone="Zone 4" incidentdate="2014-11-01" incidenttime="17:15:00" incidentnumber="14217825" address="Osprey Way &amp; Hazelwood Ave" type="OFFENSE" age="" gender="" description="*********************************************** &lt;br/&gt;13(a)(16), Possession of Controlled Substance&lt;br/&gt;1543, Driving While Operating Privilege is Suspended or Revoked.&lt;br/&gt;13(a)(30), Possession w/ Intent to Del. Controlled Substance&lt;br/&gt;3928, Unauthorized Use of Automobile and Other Vehicles.&lt;br/&gt;5126, Flight to Avoid Apprehension, Trial or Punishment.&lt;br/&gt;3112, Traffic-Control Signals.&lt;br/&gt;3361, Driving Vehicle at Safe Speed.&lt;br/&gt;3736, Reckless Driving&lt;br/&gt;3733, Fleeing or Attempting to Elude Police Officer&lt;br/&gt;13(a)(31), Marijuana: Possession Small Amount&lt;br/&gt;"/><marker lat="40.428131277738437" lng="-79.980832811884397" zone="Zone 3" incidentdate="2014-11-01" incidenttime="04:56:00" incidentnumber="14217526" address="100 block S 18th St" type="OFFENSE" age="" gender="" description="*********************************************** &lt;br/&gt;2709(a)(1), Harassment by Physical Contact, or Attempts or Threats&lt;br/&gt;"/><marker lat="40.459241184494772" lng="-80.005548013998464" zone="Zone 1" incidentdate="2014-11-01" incidenttime="16:26:00" incidentnumber="14217793" address="1300 block Sandusky St N" type="OFFENSE" age="" gender="" description="*********************************************** &lt;br/&gt;3503, Criminal Trespass&lt;br/&gt;"/><marker lat="40.441391902103199" lng="-79.958100619016861" zone="Zone 4" incidentdate="2014-11-01" incidenttime="01:58:00" incidentnumber="14217376" address="200 block Atwood St" type="OFFENSE" age="" gender="" description="*********************************************** &lt;br/&gt;4914, False Identification to Law Enforcement Authorities&lt;br/&gt;4106, Access Device Fraud&lt;br/&gt;"/><marker lat="40.446867779409757" lng="-80.020757813868244" zone="Zone 1" incidentdate="2014-11-01" incidenttime="01:30:00" incidentnumber="14217394" address="700 block Casino Dr" type="OFFENSE" age="" gender="" description="*********************************************** &lt;br/&gt;3743, Accidents Involving Damage to Attended Veh. or Property&lt;br/&gt;"/><marker lat="40.46576196782835" lng="-79.995186532688805" zone="Zone 1" incidentdate="2014-11-01" incidenttime="11:45:00" incidentnumber="14217684" address="General Robinson St W &amp; Tony Dorsett" type="OFFENSE" age="" gender="" description="*********************************************** &lt;br/&gt;9489, Found Property&lt;br/&gt;"/><marker lat="40.464230665158951" lng="-79.957658312900548" zone="Zone 5" incidentdate="2014-11-01" incidenttime="00:00:00" incidentnumber="14217791" address="4000 block Mintwood St" type="OFFENSE" age="" gender="" description="*********************************************** &lt;br/&gt;3921(a), Theft by Unlawful Taking or Disposition - Movable item&lt;br/&gt;"/><marker lat="40.437991570763728" lng="-80.05391307421425" zone="Zone 6" incidentdate="2014-11-01" incidenttime="18:35:00" incidentnumber="14217809" address="1300 block Crafton Blvd" type="OFFENSE" age="" gender="" description="*********************************************** &lt;br/&gt;9123, Miscellaneous Fire Other Investigation to Continue&lt;br/&gt;"/><marker lat="40.443535618440194" lng="-79.952136107495008" zone="Zone 4" incidentdate="2014-11-01" incidenttime="02:10:00" incidentnumber="14217509" address="Forbes Ave &amp; Schenley Dr" type="OFFENSE" age="" gender="" description="*********************************************** &lt;br/&gt;3921(a), Theft by Unlawful Taking or Disposition - Movable item&lt;br/&gt;"/><marker lat="40.462687625856567" lng="-79.945581428298297" zone="Zone 5" incidentdate="2014-11-01" incidenttime="14:20:00" incidentnumber="14217738" address="Friendship Ave &amp; S Millvale Ave" type="OFFENSE" age="" gender="" description="*********************************************** &lt;br/&gt;13(a)(16), Possession of Controlled Substance&lt;br/&gt;13(a)(32), Paraphernalia - Use or Possession&lt;br/&gt;"/><marker lat="40.460261890633461" lng="-79.909053546857535" zone="Zone 5" incidentdate="2014-11-01" incidenttime="15:00:00" incidentnumber="14217779" address="Finley St &amp; Meadow St" type="OFFENSE" age="" gender="" description="*********************************************** &lt;br/&gt;3745, Accidents Involving Damage to Unattended Veh.or Prop.&lt;br/&gt;"/><marker lat="40.464911665690146" lng="-79.983761183267944" zone="Zone 1" incidentdate="2014-11-01" incidenttime="00:30:00" incidentnumber="14217324" address="1700 block Harpster St" type="OFFENSE" age="" gender="" description="*********************************************** &lt;br/&gt;9999, 9999 - (Misc. Incident):&lt;br/&gt;"/><marker lat="40.486360467050552" lng="-79.947747628407683" zone="Zone 2" incidentdate="2014-11-01" incidenttime="03:02:00" incidentnumber="14217460" address="57th St" type="OFFENSE" age="" gender="" description="*********************************************** &lt;br/&gt;3304, Criminal Mischief.&lt;br/&gt;3503, Criminal Trespass&lt;br/&gt;5505, Public Drunkenness&lt;br/&gt;"/><marker lat="40.452197645529921" lng="-79.870631957697753" zone="Zone 5" incidentdate="2014-11-01" incidenttime="19:53:00" incidentnumber="14217917" address="2000 block Frankella Ave" type="OFFENSE" age="" gender="" description="*********************************************** &lt;br/&gt;3304, Criminal Mischief.&lt;br/&gt;"/><marker lat="40.440280966182222" lng="-79.993432845850279" zone="Zone 2" incidentdate="2014-11-01" incidenttime="12:40:00" incidentnumber="14217716" address="2600 block Centre Ave" type="OFFENSE" age="" gender="" description="*********************************************** &lt;br/&gt;3921, Theft by Unlawful Taking or Disposition.&lt;br/&gt;"/><marker lat="40.43090576959154" lng="-80.010820921340326" zone="Zone 3" incidentdate="2014-11-01" incidenttime="05:00:00" incidentnumber="14217523" address="300 block Grace St" type="ARREST" age="26" gender="" description="*********************************************** &lt;br/&gt;3503, Criminal Trespass&lt;br/&gt;"/><marker lat="40.439534165811146" lng="-79.99836772444668" zone="Zone 2" incidentdate="2014-11-01" incidenttime="10:26:00" incidentnumber="14217637" address="400 block 5th Ave" type="ARREST" age="26" gender="M" description="*********************************************** &lt;br/&gt;3929, Retail Theft.&lt;br/&gt;"/><marker lat="40.459241184494772" lng="-80.005548013998464" zone="Zone 1" incidentdate="2014-11-01" incidenttime="16:26:00" incidentnumber="14217793" address="1300 block Sandusky St N" type="ARREST" age="26" gender="F" description="*********************************************** &lt;br/&gt;3503, Criminal Trespass&lt;br/&gt;"/><marker lat="40.462757960390562" lng="-79.897548766257913" zone="Zone 5" incidentdate="2014-11-01" incidenttime="12:14:00" incidentnumber="14217683" address="N Lang Ave &amp; Upland St" type="ARREST" age="26" gender="M" description="*********************************************** &lt;br/&gt;13(a)(16), Possession of Controlled Substance&lt;br/&gt;3323, Stop Signs and Yield Signs.&lt;br/&gt;"/><marker lat="40.431491942560918" lng="-80.001881899813199" zone="Zone 3" incidentdate="2014-11-01" incidenttime="00:10:00" incidentnumber="14217308" address="200 block Station Square Dr W" type="ARREST" age="" gender="M" description="*********************************************** &lt;br/&gt;2702, Aggravated Assault.&lt;br/&gt;2706, Terroristic Threats.&lt;br/&gt;5503, Disorderly Conduct.&lt;br/&gt;5505, Public Drunkenness&lt;br/&gt;"/><marker lat="40.43090576959154" lng="-80.010820921340326" zone="Zone 3" incidentdate="2014-11-01" incidenttime="03:35:00" incidentnumber="14217463" address="300 block GRACE St" type="ARREST" age="47" gender="M" description="*********************************************** &lt;br/&gt;2702, Aggravated Assault.&lt;br/&gt;4912, Impersonating a Public Servant.&lt;br/&gt;5503, Disorderly Conduct.&lt;br/&gt;5505, Public Drunkenness&lt;br/&gt;9501, Bench Warrant&lt;br/&gt;5126, Flight to Avoid Apprehension, Trial or Punishment.&lt;br/&gt;5104, Resisting Arrest or Other Law Enforcement.&lt;br/&gt;5121, Escape.&lt;br/&gt;5506, Loitering and Prowling at Night&lt;br/&gt;"/><marker lat="40.411403490202211" lng="-79.944206711069597" zone="Zone 4" incidentdate="2014-11-01" incidenttime="17:15:00" incidentnumber="14217825" address="Osprey Way &amp; Hazelwood Ave" type="ARREST" age="24" gender="M" description="*********************************************** &lt;br/&gt;13(a)(16), Possession of Controlled Substance&lt;br/&gt;1543, Driving While Operating Privilege is Suspended or Revoked.&lt;br/&gt;13(a)(30), Possession w/ Intent to Del. Controlled Substance&lt;br/&gt;3928, Unauthorized Use of Automobile and Other Vehicles.&lt;br/&gt;5126, Flight to Avoid Apprehension, Trial or Punishment.&lt;br/&gt;3112, Traffic-Control Signals.&lt;br/&gt;3361, Driving Vehicle at Safe Speed.&lt;br/&gt;3736, Reckless Driving&lt;br/&gt;3733, Fleeing or Attempting to Elude Police Officer&lt;br/&gt;13(a)(31), Marijuana: Possession Small Amount&lt;br/&gt;"/><marker lat="40.445946056684924" lng="-80.040016959012945" zone="Zone 6" incidentdate="2014-11-01" incidenttime="03:52:00" incidentnumber="14217470" address="700 block Rudolph St" type="ARREST" age="25" gender="F" description="*********************************************** &lt;br/&gt;2701, Simple Assault.&lt;br/&gt;2705, Recklessly Endangering Another Person.&lt;br/&gt;"/><marker lat="40.487823540011732" lng="-79.897614208935366" zone="Zone 5" incidentdate="2014-11-01" incidenttime="17:25:00" incidentnumber="14217837" address="800 block Freeport Rd" type="ARREST" age="33" gender="F" description="*********************************************** &lt;br/&gt;3929, Retail Theft.&lt;br/&gt;3503.B1I, DEF. TRESPASS ACTUAL COMMUNICATION&lt;br/&gt;"/><marker lat="40.486360467050552" lng="-79.947747628407683" zone="Zone 2" incidentdate="2014-11-01" incidenttime="03:46:00" incidentnumber="14217460" address="57th St" type="ARREST" age="24" gender="M" description="*********************************************** &lt;br/&gt;3304, Criminal Mischief.&lt;br/&gt;3503, Criminal Trespass&lt;br/&gt;5505, Public Drunkenness&lt;br/&gt;"/><marker lat="40.400793615623229" lng="-79.937234111578988" zone="Zone 1" incidentdate="2014-11-01" incidenttime="06:24:00" incidentnumber="14217541" address="Allegheny Center" type="ARREST" age="30" gender="M" description="*********************************************** &lt;br/&gt;2701, Simple Assault.&lt;br/&gt;"/><marker lat="40.450595515764789" lng="-80.013415244301456" zone="Zone 1" incidentdate="2014-11-01" incidenttime="15:15:00" incidentnumber="14217757" address="Brighton Rd &amp; Ridge Ave" type="ARREST" age="27" gender="F" description="*********************************************** &lt;br/&gt;13(a)(16), Possession of Controlled Substance&lt;br/&gt;3802(d)(2), DUI - Drug - Impaired Ability&lt;br/&gt;4304(a)(1), Endangering Welfare of Children - Course of Conduct Enhanced&lt;br/&gt;"/><marker lat="40.457644669440079" lng="-80.056984913637734" zone="Zone 6" incidentdate="2014-11-01" incidenttime="01:30:00" incidentnumber="14217382" address="3200 block Ashlyn St" type="ARREST" age="19" gender="M" description="*********************************************** &lt;br/&gt;6308(a), Underage Purchase, Consume, Possessed or Transport Liquor&lt;br/&gt;3718(a), Minor Prohib from Operating w/ Alcohol in System&lt;br/&gt;3745, Accidents Involving Damage to Unattended Veh.or Prop.&lt;br/&gt;3802(a)(1), DUI - General Impairment&lt;br/&gt;"/><marker lat="40.428684832699354" lng="-79.983306706238423" zone="Zone 3" incidentdate="2014-11-01" incidenttime="00:45:00" incidentnumber="14217341" address="1500 block E Carson St" type="ARREST" age="29" gender="M" description="*********************************************** &lt;br/&gt;3503.B1I, DEF. TRESPASS ACTUAL COMMUNICATION&lt;br/&gt;5503, Disorderly Conduct.&lt;br/&gt;"/><marker lat="40.411403490202211" lng="-79.944206711069597" zone="Zone 4" incidentdate="2014-11-01" incidenttime="17:15:00" incidentnumber="14217825" address="Osprey Way &amp; Hazelwood Ave" type="ARREST" age="29" gender="M" description="*********************************************** &lt;br/&gt;13(a)(16), Possession of Controlled Substance&lt;br/&gt;1543, Driving While Operating Privilege is Suspended or Revoked.&lt;br/&gt;13(a)(30), Possession w/ Intent to Del. Controlled Substance&lt;br/&gt;3928, Unauthorized Use of Automobile and Other Vehicles.&lt;br/&gt;5126, Flight to Avoid Apprehension, Trial or Punishment.&lt;br/&gt;3112, Traffic-Control Signals.&lt;br/&gt;3361, Driving Vehicle at Safe Speed.&lt;br/&gt;3736, Reckless Driving&lt;br/&gt;3733, Fleeing or Attempting to Elude Police Officer&lt;br/&gt;13(a)(31), Marijuana: Possession Small Amount&lt;br/&gt;"/><marker lat="40.459241184494772" lng="-80.005548013998464" zone="Zone 1" incidentdate="2014-11-01" incidenttime="16:26:00" incidentnumber="14217793" address="1300 block Sandusky St N" type="ARREST" age="27" gender="M" description="*********************************************** &lt;br/&gt;3503, Criminal Trespass&lt;br/&gt;"/><marker lat="40.448885490296938" lng="-79.98750584314844" zone="Zone 5" incidentdate="2014-11-01" incidenttime="10:32:00" incidentnumber="14217627" address="Penn Ave" type="ARREST" age="48" gender="F" description="*********************************************** &lt;br/&gt;3929, Retail Theft.&lt;br/&gt;"/><marker lat="40.455876321777623" lng="-79.938275604820149" zone="Zone 4" incidentdate="2014-11-01" incidenttime="18:58:00" incidentnumber="14217884" address="5400 block Centre Ave" type="ARREST" age="32" gender="M" description="*********************************************** &lt;br/&gt;13(a)(31), Marijuana: Possession Small Amount&lt;br/&gt;13(a)(16), Possession of Controlled Substance&lt;br/&gt;13(a)(30), Possession w/ Intent to Del. Controlled Substance&lt;br/&gt;5503(a)(4), DISORDERLY CONDUCT - HAZARDOUS/PHYS. OFF&lt;br/&gt;13(a)(32), Paraphernalia - Use or Possession&lt;br/&gt;5123, Contraband.&lt;br/&gt;3304(a)(5), CRIMINAL MISCHIEF - Intentionally Damages Real Or Personal Property Of Another&lt;br/&gt;"/><marker lat="40.460594319900963" lng="-79.922716789802806" zone="Zone 5" incidentdate="2014-11-01" incidenttime="16:55:00" incidentnumber="14217831" address="6200 block Penn Ave" type="ARREST" age="55" gender="M" description="*********************************************** &lt;br/&gt;3929, Retail Theft.&lt;br/&gt;"/><marker lat="40.459241184494772" lng="-80.005548013998464" zone="Zone 1" incidentdate="2014-11-01" incidenttime="16:26:00" incidentnumber="14217793" address="1300 block Sandusky St N" type="ARREST" age="38" gender="F" description="*********************************************** &lt;br/&gt;3503, Criminal Trespass&lt;br/&gt;"/><marker lat="40.428648587693665" lng="-79.984030978724903" zone="Zone 3" incidentdate="2014-11-01" incidenttime="01:23:00" incidentnumber="14217397" address="1400 block E Carson St" type="ARREST" age="30" gender="M" description="*********************************************** &lt;br/&gt;2701, Simple Assault.&lt;br/&gt;"/><marker lat="40.429319862415177" lng="-79.981997147629315" zone="Zone 3" incidentdate="2014-11-01" incidenttime="02:42:00" incidentnumber="14217438" address="Wrights Way &amp; S 17th St" type="ARREST" age="27" gender="M" description="*********************************************** &lt;br/&gt;2701, Simple Assault.&lt;br/&gt;5503(a)(1), DISORDERLY CONDUCT - ENGAGE IN FIGHTING&lt;br/&gt;"/><marker lat="40.46576196782835" lng="-79.995186532688805" zone="Zone 1" incidentdate="2014-11-01" incidenttime="12:26:00" incidentnumber="13242456" address="General Robinson St W &amp; Mazeroski Wa" type="ARREST" age="51" gender="M" description="*********************************************** &lt;br/&gt;3925, Receiving Stolen Property.&lt;br/&gt;"/><marker lat="40.438690074284047" lng="-79.997267035100052" zone="Zone 2" incidentdate="2014-11-01" incidenttime="09:45:00" incidentnumber="14217612" address="Grant St &amp; Forbes Ave" type="ARREST" age="50" gender="M" description="*********************************************** &lt;br/&gt;3304, Criminal Mischief.&lt;br/&gt;2701, Simple Assault.&lt;br/&gt;3934, Theft from Vehicle&lt;br/&gt;"/><marker lat="40.462687625856567" lng="-79.945581428298297" zone="Zone 5" incidentdate="2014-11-01" incidenttime="14:30:00" incidentnumber="14217738" address="Friendship Ave &amp; S Millvale Ave" type="ARREST" age="36" gender="F" description="*********************************************** &lt;br/&gt;13(a)(16), Possession of Controlled Substance&lt;br/&gt;13(a)(32), Paraphernalia - Use or Possession&lt;br/&gt;"/><marker lat="40.46576196782835" lng="-79.995186532688805" zone="Zone 1" incidentdate="2014-11-01" incidenttime="12:26:00" incidentnumber="13241680" address="General Robinson St W &amp; Mazeroski Wa" type="ARREST" age="51" gender="M" description="*********************************************** &lt;br/&gt;3925, Receiving Stolen Property.&lt;br/&gt;"/><marker lat="40.441391902103199" lng="-79.958100619016861" zone="Zone 4" incidentdate="2014-11-01" incidenttime="01:58:00" incidentnumber="14217376" address="200 block Atwood St" type="ARREST" age="34" gender="M" description="*********************************************** &lt;br/&gt;4914, False Identification to Law Enforcement Authorities&lt;br/&gt;4106, Access Device Fraud&lt;br/&gt;"/><marker lat="40.45486727075599" lng="-79.925291736915867" zone="Zone 3" incidentdate="2014-11-01" incidenttime="00:40:00" incidentnumber="14217335" address="1200 block Carson St" type="ARREST" age="26" gender="M" description="*********************************************** &lt;br/&gt;3304(a)(5), CRIMINAL MISCHIEF - Intentionally Damages Real Or Personal Property Of Another&lt;br/&gt;5104, Resisting Arrest or Other Law Enforcement.&lt;br/&gt;5503(a)(4), DISORDERLY CONDUCT - HAZARDOUS/PHYS. OFF&lt;br/&gt;5505, Public Drunkenness&lt;br/&gt;3304, Criminal Mischief.&lt;br/&gt;"/><marker lat="40.430029464019185" lng="-79.988643041572175" zone="Zone 3" incidentdate="2014-11-01" incidenttime="03:09:00" incidentnumber="14217461" address="S 10TH St &amp; MURIEL St" type="ARREST" age="22" gender="F" description="*********************************************** &lt;br/&gt;4302, Periods for Requiring Lighted Lamps.&lt;br/&gt;4581, Restraint Systems.&lt;br/&gt;3802(a)(1), DUI - General Impairment&lt;br/&gt;"/><marker lat="40.428684832699354" lng="-79.983306706238423" zone="Zone 3" incidentdate="2014-11-01" incidenttime="01:34:00" incidentnumber="14217391" address="1500 block E Carson St" type="ARREST" age="22" gender="M" description="*********************************************** &lt;br/&gt;2701, Simple Assault.&lt;br/&gt;5503(a)(1), DISORDERLY CONDUCT - ENGAGE IN FIGHTING&lt;br/&gt;5104, Resisting Arrest or Other Law Enforcement.&lt;br/&gt;5505, Public Drunkenness&lt;br/&gt;"/><marker lat="40.464682497559537" lng="-79.923347918547037" zone="Zone 5" incidentdate="2014-11-01" incidenttime="17:30:00" incidentnumber="14217821" address="N Highland Ave &amp; Rippey St" type="ARREST" age="45" gender="M" description="*********************************************** &lt;br/&gt;2701, Simple Assault.&lt;br/&gt;"/><marker lat="40.400793615623229" lng="-79.937234111578988" zone="Zone 1" incidentdate="2014-11-01" incidenttime="06:24:00" incidentnumber="14217541" address="Allegheny Center" type="ARREST" age="27" gender="M" description="*********************************************** &lt;br/&gt;2701, Simple Assault.&lt;br/&gt;"/></markers>
