<?xml version="1.0"?>
<markers><marker lat="40.4378591" lng="-80.0539249" zone="Zone 6" incidentdate="2015-12-12" incidenttime="11:37:00" incidentnumber="15208514" address="1800 block Noblestown Rd" type="OFFENSE" age="" gender="" description="*********************************************** &lt;br/&gt;9015, Failure To Appear/Arrest on Attachment Order&lt;br/&gt;3304(a)(5), CRIMINAL MISCHIEF - Intentionally Damages Real Or Personal Property Of Another&lt;br/&gt;2701(a)(1), Simple Assault - Intent., Know., Reckless.Cause Bod. Injury&lt;br/&gt;"/><marker lat="40.482879021356389" lng="-80.04453300763744" zone="Zone 1" incidentdate="2015-12-12" incidenttime="00:08:00" incidentnumber="15236989" address="2000 block Termon Ave" type="OFFENSE" age="" gender="" description="*********************************************** &lt;br/&gt;029, Missing Juvenile&lt;br/&gt;"/><marker lat="40.438056227784742" lng="-79.922984272883284" zone="Zone 4" incidentdate="2015-12-12" incidenttime="17:40:00" incidentnumber="15237460" address="Forbes Ave &amp; Murray Ave" type="OFFENSE" age="" gender="" description="*********************************************** &lt;br/&gt;1501(A), Valid Drivers License Required&lt;br/&gt;"/><marker lat="40.444136782158047" lng="-80.000993475333104" zone="Zone 2" incidentdate="2015-12-12" incidenttime="15:00:00" incidentnumber="15237361" address="100 block 7th St" type="OFFENSE" age="" gender="" description="*********************************************** &lt;br/&gt;3745, Accidents Involving Damage to Unattended Veh.or Prop.&lt;br/&gt;"/><marker lat="40.426629192405649" lng="-79.950020484556703" zone="Zone 4" incidentdate="2015-12-12" incidenttime="06:14:00" incidentnumber="15237145" address="3800 block Acorn St" type="OFFENSE" age="" gender="" description="*********************************************** &lt;br/&gt;3921, Theft by Unlawful Taking or Disposition.&lt;br/&gt;"/><marker lat="40.399184649147095" lng="-80.025493435297477" zone="Zone 6" incidentdate="2015-12-12" incidenttime="00:07:00" incidentnumber="15236969" address="2500 block West Liberty Ave" type="OFFENSE" age="" gender="" description="*********************************************** &lt;br/&gt;5505, Public Drunkenness&lt;br/&gt;"/><marker lat="40.45003690130666" lng="-79.886832737393405" zone="Zone 5" incidentdate="2015-12-12" incidenttime="02:48:00" incidentnumber="15237111" address="Tioga St &amp; Rosedale St" type="OFFENSE" age="" gender="" description="*********************************************** &lt;br/&gt;3736, Reckless Driving&lt;br/&gt;2701, Simple Assault.&lt;br/&gt;2709.1, Stalking Conduct or Repeatedly Acts Including Follows&lt;br/&gt;2706, Terroristic Threats.&lt;br/&gt;3733, Fleeing or Attempting to Elude Police Officer&lt;br/&gt;2709(b), Stalking&lt;br/&gt;"/><marker lat="40.44520202305484" lng="-79.97398402697408" zone="Zone 2" incidentdate="2015-12-12" incidenttime="09:35:00" incidentnumber="15237193" address="Centre Ave &amp; Soho St" type="OFFENSE" age="" gender="" description="*********************************************** &lt;br/&gt;13(a)(31), Marijuana: Possession Small Amount&lt;br/&gt;1543, Driving While Operating Privilege is Suspended or Revoked.&lt;br/&gt;4303, General Lighting Requirements.&lt;br/&gt;"/><marker lat="40.453881093138619" lng="-79.873029877694393" zone="Zone 5" incidentdate="2015-12-12" incidenttime="20:43:00" incidentnumber="15237568" address="2200 block East Hills Dr" type="OFFENSE" age="" gender="" description="*********************************************** &lt;br/&gt;3502, Burglary.&lt;br/&gt;"/><marker lat="40.433029344782589" lng="-79.95627991999838" zone="Zone 4" incidentdate="2015-12-12" incidenttime="10:00:00" incidentnumber="15237366" address="500 block Cato St" type="OFFENSE" age="" gender="" description="*********************************************** &lt;br/&gt;3502, Burglary.&lt;br/&gt;"/><marker lat="40.4283102180068" lng="-79.977507484026688" zone="Zone 3" incidentdate="2015-12-12" incidenttime="18:10:00" incidentnumber="15237482" address="2000 block E Carson St" type="OFFENSE" age="" gender="" description="*********************************************** &lt;br/&gt;4101, Forgery.&lt;br/&gt;"/><marker lat="40.454365192078292" lng="-80.061718435263586" zone="Zone 6" incidentdate="2015-12-12" incidenttime="11:57:00" incidentnumber="15237267" address="1100 block Sutherland St" type="OFFENSE" age="" gender="" description="*********************************************** &lt;br/&gt;5503(a)(2), DISORDERLY CONDUCT - UNREASONABLE NOISE&lt;br/&gt;"/><marker lat="40.437148696000165" lng="-79.951347261822207" zone="Zone 4" incidentdate="2015-12-12" incidenttime="16:00:00" incidentnumber="15237396" address="Oakland Sq &amp; Parkview Ave" type="OFFENSE" age="" gender="" description="*********************************************** &lt;br/&gt;3934, Theft from Vehicle&lt;br/&gt;"/><marker lat="40.442778400156911" lng="-80.052071573455507" zone="Zone 6" incidentdate="2015-12-12" incidenttime="06:57:00" incidentnumber="15237151" address="Steuben St &amp; Logue St" type="OFFENSE" age="" gender="" description="*********************************************** &lt;br/&gt;3802(a)(1), DUI - General Impairment&lt;br/&gt;3802(b), DUI - High Rate of Alchol - BAC &gt;=.10% &lt;.16%&lt;br/&gt;"/><marker lat="40.423357062309741" lng="-79.97181088687411" zone="Zone 3" incidentdate="2015-12-12" incidenttime="13:00:00" incidentnumber="15237296" address="2500 block Leticoe St" type="OFFENSE" age="" gender="" description="*********************************************** &lt;br/&gt;3934, Theft from Vehicle&lt;br/&gt;"/><marker lat="40.471460910127306" lng="-79.959794982785183" zone="Zone 2" incidentdate="2015-12-12" incidenttime="07:09:00" incidentnumber="15237156" address="44th St &amp; Butler St" type="OFFENSE" age="" gender="" description="*********************************************** &lt;br/&gt;3701, Robbery.&lt;br/&gt;"/><marker lat="40.423181653741167" lng="-79.928733488981621" zone="Zone 4" incidentdate="2015-12-12" incidenttime="12:19:00" incidentnumber="15237275" address="4200 block Murray Ave" type="OFFENSE" age="" gender="" description="*********************************************** &lt;br/&gt;3929, Retail Theft.&lt;br/&gt;"/><marker lat="40.449028593273518" lng="-79.980850284032584" zone="Zone 2" incidentdate="2015-12-12" incidenttime="02:30:00" incidentnumber="15237075" address="900 block Memory Ln" type="OFFENSE" age="" gender="" description="*********************************************** &lt;br/&gt;3928, Unauthorized Use of Automobile and Other Vehicles.&lt;br/&gt;"/><marker lat="40.418030348656458" lng="-79.96690833400335" zone="Zone 3" incidentdate="2015-12-12" incidenttime="02:37:00" incidentnumber="15237060" address="Josephine St &amp; Salisbury St" type="OFFENSE" age="" gender="" description="*********************************************** &lt;br/&gt;1543, Driving While Operating Privilege is Suspended or Revoked.&lt;br/&gt;3802(a)(1), DUI - General Impairment&lt;br/&gt;6106, Firearms not to be Carried without a License.&lt;br/&gt;"/><marker lat="40.3297823" lng="-80.0336670" zone="Zone 1" incidentdate="2015-12-12" incidenttime="17:18:00" incidentnumber="15237440" address="East Ohio St &amp; East St" type="OFFENSE" age="" gender="" description="*********************************************** &lt;br/&gt;3714, Careless Driving&lt;br/&gt;3802(d)(2), DUI - Drug - Impaired Ability&lt;br/&gt;1501(A), Valid Drivers License Required&lt;br/&gt;"/><marker lat="40.428684832699354" lng="-79.983306706238423" zone="Zone 3" incidentdate="2015-12-12" incidenttime="01:57:00" incidentnumber="15237028" address="1500 block E Carson St" type="OFFENSE" age="" gender="" description="*********************************************** &lt;br/&gt;5503(a)(4), DISORDERLY CONDUCT - HAZARDOUS/PHYS. OFF&lt;br/&gt;3503(b.1), Criminal Trespass - Simple Trespasser&lt;br/&gt;"/><marker lat="40.44399023304031" lng="-80.002630134211415" zone="Zone 2" incidentdate="2015-12-12" incidenttime="02:50:00" incidentnumber="15237079" address="100 block 6th St" type="OFFENSE" age="" gender="" description="*********************************************** &lt;br/&gt;9999, 9999 - (Misc. Incident):&lt;br/&gt;"/><marker lat="40.475049895491679" lng="-79.93107695320181" zone="Zone 5" incidentdate="2015-12-12" incidenttime="12:15:00" incidentnumber="15237282" address="900 block Jancey St" type="OFFENSE" age="" gender="" description="*********************************************** &lt;br/&gt;3304, Criminal Mischief.&lt;br/&gt;"/><marker lat="40.464774823811233" lng="-79.942733938845166" zone="Zone 5" incidentdate="2015-12-12" incidenttime="19:12:00" incidentnumber="15237513" address="5100 block Penn Ave" type="OFFENSE" age="" gender="" description="*********************************************** &lt;br/&gt;3929, Retail Theft.&lt;br/&gt;"/><marker lat="40.4404011" lng="-79.9686840" zone="Zone 2" incidentdate="2015-12-12" incidenttime="00:30:00" incidentnumber="15236983" address="2400 block Allequippa St" type="OFFENSE" age="" gender="" description="*********************************************** &lt;br/&gt;4106, Access Device Fraud&lt;br/&gt;3924, Theft of Property Lost, Mislaid or Delivered by Mistake.&lt;br/&gt;"/><marker lat="40.42695519606621" lng="-80.005599666575392" zone="Zone 3" incidentdate="2015-12-12" incidenttime="16:30:00" incidentnumber="15237430" address="Bailey Ave" type="OFFENSE" age="" gender="" description="*********************************************** &lt;br/&gt;3921(a), Theft by Unlawful Taking or Disposition - Movable item&lt;br/&gt;"/><marker lat="40.46967960794337" lng="-80.03188665644052" zone="Zone 1" incidentdate="2015-12-12" incidenttime="17:40:00" incidentnumber="15237445" address="1400 block Dickson St" type="OFFENSE" age="" gender="" description="*********************************************** &lt;br/&gt;2701(b)(1), Simple Assault - Fight or Scuffle Entered by Mutual Consent&lt;br/&gt;5503(a)(1), DISORDERLY CONDUCT - ENGAGE IN FIGHTING&lt;br/&gt;"/><marker lat="40.428096152469237" lng="-79.972924883274374" zone="Zone 3" incidentdate="2015-12-12" incidenttime="16:50:00" incidentnumber="15237421" address="2300 block E Carson St" type="OFFENSE" age="" gender="" description="*********************************************** &lt;br/&gt;3745, Accidents Involving Damage to Unattended Veh.or Prop.&lt;br/&gt;"/><marker lat="40.448699979367696" lng="-79.989356149169026" zone="Zone 2" incidentdate="2015-12-12" incidenttime="01:28:00" incidentnumber="15237022" address="15th St &amp; Smallman St" type="OFFENSE" age="" gender="" description="*********************************************** &lt;br/&gt;9999, 9999 - (Misc. Incident):&lt;br/&gt;"/><marker lat="40.429737927441074" lng="-79.923485321015463" zone="Zone 4" incidentdate="2015-12-12" incidenttime="04:09:00" incidentnumber="15237115" address="Pocussett St &amp; Murray Ave" type="OFFENSE" age="" gender="" description="*********************************************** &lt;br/&gt;1543, Driving While Operating Privilege is Suspended or Revoked.&lt;br/&gt;3742, Accidents Involving Death or Personal Injury&lt;br/&gt;3802(a)(1), DUI - General Impairment&lt;br/&gt;3714, Careless Driving&lt;br/&gt;"/><marker lat="40.453148742143568" lng="-80.002615776516407" zone="Zone 1" incidentdate="2015-12-12" incidenttime="15:30:00" incidentnumber="15237449" address="Union Pl &amp; East Ohio St" type="OFFENSE" age="" gender="" description="*********************************************** &lt;br/&gt;9504, Lost Property&lt;br/&gt;"/><marker lat="40.470559349698817" lng="-79.994946939312101" zone="Zone 1" incidentdate="2015-12-12" incidenttime="00:41:00" incidentnumber="15236991" address="400 block East Commons" type="OFFENSE" age="" gender="" description="*********************************************** &lt;br/&gt;13(a)(16), Possession of Controlled Substance&lt;br/&gt;13(a)(30), Possession w/ Intent to Del. Controlled Substance&lt;br/&gt;4910, Tampering with or Fabricating Physical Evidence.&lt;br/&gt;"/><marker lat="40.413119709484427" lng="-79.93358968213532" zone="Zone 4" incidentdate="2015-12-12" incidenttime="19:16:00" incidentnumber="15237512" address="Flowers Ave &amp; Kilbourne St" type="OFFENSE" age="" gender="" description="*********************************************** &lt;br/&gt;13(a)(16), Possession of Controlled Substance&lt;br/&gt;13(a)(32), Paraphernalia - Use or Possession&lt;br/&gt;9501, Bench Warrant&lt;br/&gt;"/><marker lat="40.454307782768687" lng="-79.946518733076431" zone="Zone 5" incidentdate="2015-12-12" incidenttime="12:00:00" incidentnumber="15237357" address="4900 block Baum Blvd" type="OFFENSE" age="" gender="" description="*********************************************** &lt;br/&gt;9504, Lost Property&lt;br/&gt;"/><marker lat="40.449920330979076" lng="-79.974597253786143" zone="Zone 2" incidentdate="2015-12-12" incidenttime="22:10:00" incidentnumber="15237624" address="2400 block Chauncey Dr" type="OFFENSE" age="" gender="" description="*********************************************** &lt;br/&gt;029, Missing Juvenile&lt;br/&gt;"/><marker lat="40.459220430259037" lng="-79.910881573554278" zone="Zone 5" incidentdate="2015-12-12" incidenttime="08:00:00" incidentnumber="15237164" address="6600 block Frankstown Ave" type="OFFENSE" age="" gender="" description="*********************************************** &lt;br/&gt;2709(a)(1), Harassment by Physical Contact, or Attempts or Threats&lt;br/&gt;"/><marker lat="40.463244507649506" lng="-79.912095482430715" zone="Zone 5" incidentdate="2015-12-12" incidenttime="04:59:00" incidentnumber="15237133" address="500 block Paulson Ave" type="OFFENSE" age="" gender="" description="*********************************************** &lt;br/&gt;2701(a)(1), Simple Assault - Intent., Know., Reckless.Cause Bod. Injury&lt;br/&gt;"/><marker lat="40.366966384594306" lng="-79.915155906658242" zone="Zone 4" incidentdate="2015-12-12" incidenttime="17:31:00" incidentnumber="15237450" address="5700 block Lauder St" type="OFFENSE" age="" gender="" description="*********************************************** &lt;br/&gt;9497, Aided Case&lt;br/&gt;"/><marker lat="40.415588106902014" lng="-79.97775900326512" zone="Zone 3" incidentdate="2015-12-12" incidenttime="18:28:00" incidentnumber="15237488" address="2100 block Brent St" type="OFFENSE" age="" gender="" description="*********************************************** &lt;br/&gt;3301, Arson&lt;br/&gt;"/><marker lat="40.467375034401172" lng="-79.957944364123122" zone="Zone 6" incidentdate="2015-12-12" incidenttime="18:35:00" incidentnumber="15237494" address="300 block S Main St" type="OFFENSE" age="" gender="" description="*********************************************** &lt;br/&gt;9999, 9999 - (Misc. Incident):&lt;br/&gt;"/><marker lat="40.456564641128566" lng="-79.871361460228911" zone="Zone 5" incidentdate="2015-12-12" incidenttime="03:09:00" incidentnumber="15237087" address="2300 block East Hills Dr" type="OFFENSE" age="" gender="" description="*********************************************** &lt;br/&gt;2701, Simple Assault.&lt;br/&gt;"/><marker lat="40.441732921543291" lng="-80.006405498352649" zone="Zone 2" incidentdate="2015-12-12" incidenttime="23:07:00" incidentnumber="15237643" address="600 block Commonwealth Pl" type="OFFENSE" age="" gender="" description="*********************************************** &lt;br/&gt;5503, Disorderly Conduct.&lt;br/&gt;3503.B1I, DEF. TRESPASS ACTUAL COMMUNICATION&lt;br/&gt;"/><marker lat="40.456613245058954" lng="-79.997562076207217" zone="Zone 1" incidentdate="2015-12-12" incidenttime="02:57:00" incidentnumber="15237074" address="1000 block Madison Ave" type="OFFENSE" age="" gender="" description="*********************************************** &lt;br/&gt;9488, False  Burglar Alarm&lt;br/&gt;"/><marker lat="40.3983160" lng="-79.9354095" zone="Zone 4" incidentdate="2015-12-12" incidenttime="00:11:00" incidentnumber="15236970" address="E Carson St Ramp &amp; Glenwood Brg" type="OFFENSE" age="" gender="" description="*********************************************** &lt;br/&gt;3802(a)(1), DUI - General Impairment&lt;br/&gt;3714, Careless Driving&lt;br/&gt;3301, Arson&lt;br/&gt;"/><marker lat="40.409477138901771" lng="-79.942297716190595" zone="Zone 4" incidentdate="2015-12-12" incidenttime="12:33:00" incidentnumber="15237286" address="Glen Caladh St &amp; Gertrude St" type="OFFENSE" age="" gender="" description="*********************************************** &lt;br/&gt;3743, Accidents Involving Damage to Attended Veh. or Property&lt;br/&gt;"/><marker lat="40.454016520179565" lng="-79.895644292400064" zone="Zone 5" incidentdate="2015-12-12" incidenttime="21:11:00" incidentnumber="15237588" address="7300 block Hamilton Ave" type="OFFENSE" age="" gender="" description="*********************************************** &lt;br/&gt;9999, 9999 - (Misc. Incident):&lt;br/&gt;"/><marker lat="40.406666937135967" lng="-79.992200711115331" zone="Zone OSC" incidentdate="2015-12-12" incidenttime="01:20:00" incidentnumber="15237013" address="100 block Brownsville Rd" type="OFFENSE" age="" gender="" description="*********************************************** &lt;br/&gt;9999, 9999 - (Misc. Incident):&lt;br/&gt;"/><marker lat="40.409847601863099" lng="-79.99090162944519" zone="Zone 3" incidentdate="2015-12-12" incidenttime="07:05:00" incidentnumber="15237159" address="700 block Brownsville Rd" type="OFFENSE" age="" gender="" description="*********************************************** &lt;br/&gt;3921, Theft by Unlawful Taking or Disposition.&lt;br/&gt;"/><marker lat="40.395348754523361" lng="-79.989775418946678" zone="Zone 3" incidentdate="2015-12-12" incidenttime="02:25:00" incidentnumber="15237052" address="1900 block Mt Joseph St" type="OFFENSE" age="" gender="" description="*********************************************** &lt;br/&gt;3304, Criminal Mischief.&lt;br/&gt;"/><marker lat="40.426363826984982" lng="-80.007799480624698" zone="Zone 3" incidentdate="2015-12-12" incidenttime="16:36:00" incidentnumber="15237409" address="200 block Boggs Ave" type="OFFENSE" age="" gender="" description="*********************************************** &lt;br/&gt;9999, 9999 - (Misc. Incident):&lt;br/&gt;"/><marker lat="40.443610698976059" lng="-79.998043561602501" zone="Zone 2" incidentdate="2015-12-12" incidenttime="06:52:00" incidentnumber="15237152" address="900 block Penn Ave" type="OFFENSE" age="" gender="" description="*********************************************** &lt;br/&gt;3502, Burglary.&lt;br/&gt;"/><marker lat="40.428465808222732" lng="-79.978964991503105" zone="Zone 3" incidentdate="2015-12-12" incidenttime="02:40:00" incidentnumber="15237128" address="1900 block E Carson St" type="OFFENSE" age="" gender="" description="*********************************************** &lt;br/&gt;3304, Criminal Mischief.&lt;br/&gt;3921, Theft by Unlawful Taking or Disposition.&lt;br/&gt;3934, Theft from Vehicle&lt;br/&gt;903, Criminal Conspiracy.&lt;br/&gt;"/><marker lat="40.450901096519573" lng="-79.930622154707279" zone="Zone 5" incidentdate="2015-12-12" incidenttime="17:29:00" incidentnumber="15237442" address="900 block N Negley Ave" type="OFFENSE" age="" gender="" description="*********************************************** &lt;br/&gt;029, Missing Juvenile&lt;br/&gt;"/><marker lat="40.464967566706392" lng="-79.942857766143803" zone="Zone 5" incidentdate="2015-12-12" incidenttime="21:14:00" incidentnumber="15237592" address="Penn Ave &amp; N Winebiddle St" type="OFFENSE" age="" gender="" description="*********************************************** &lt;br/&gt;1501, Drivers Required to be Licensed.&lt;br/&gt;3802(a)(1), DUI - General Impairment&lt;br/&gt;"/><marker lat="40.463244507649506" lng="-79.912095482430715" zone="Zone 5" incidentdate="2015-12-12" incidenttime="06:04:00" incidentnumber="15237147" address="500 block Paulson Ave" type="OFFENSE" age="" gender="" description="*********************************************** &lt;br/&gt;13(a)(16), Possession of Controlled Substance&lt;br/&gt;13(a)(30), Possession w/ Intent to Del. Controlled Substance&lt;br/&gt;13(a)(31), Marijuana: Possession Small Amount&lt;br/&gt;13(a)(32), Paraphernalia - Use or Possession&lt;br/&gt;6105(a)(1), Persons not to possess, use, manufacture, control, sell or transfer firearms: Former convict enumerated in subsection (b)&lt;br/&gt;"/><marker lat="40.452019331633622" lng="-79.930925096466027" zone="Zone 4" incidentdate="2015-12-12" incidenttime="08:45:00" incidentnumber="15237179" address="5700 block Walnut St" type="OFFENSE" age="" gender="" description="*********************************************** &lt;br/&gt;3502, Burglary.&lt;br/&gt;"/><marker lat="40.406687634059274" lng="-79.945387250702737" zone="Zone 4" incidentdate="2015-12-12" incidenttime="13:00:00" incidentnumber="15237315" address="5100 block Lytle St" type="OFFENSE" age="" gender="" description="*********************************************** &lt;br/&gt;3921, Theft by Unlawful Taking or Disposition.&lt;br/&gt;"/><marker lat="40.450901096519573" lng="-79.930622154707279" zone="Zone 5" incidentdate="2015-12-12" incidenttime="22:41:00" incidentnumber="15237606" address="900 block N Negley Ave" type="OFFENSE" age="" gender="" description="*********************************************** &lt;br/&gt;029, Missing Juvenile&lt;br/&gt;"/><marker lat="40.44039795774286" lng="-79.962793539098925" zone="Zone 4" incidentdate="2015-12-12" incidenttime="04:13:00" incidentnumber="15237118" address="200 block Chesterfield Rd" type="OFFENSE" age="" gender="" description="*********************************************** &lt;br/&gt;3304(a)(5), CRIMINAL MISCHIEF - Intentionally Damages Real Or Personal Property Of Another&lt;br/&gt;3503.B1I, DEF. TRESPASS ACTUAL COMMUNICATION&lt;br/&gt;"/><marker lat="40.411115287863552" lng="-80.006028274962105" zone="Zone 3" incidentdate="2015-12-12" incidenttime="02:30:00" incidentnumber="15237072" address="Bausman St &amp; Saw Mill Run Blvd" type="OFFENSE" age="" gender="" description="*********************************************** &lt;br/&gt;3743, Accidents Involving Damage to Attended Veh. or Property&lt;br/&gt;"/><marker lat="40.475991792684219" lng="-79.998237934488159" zone="Zone 1" incidentdate="2015-12-12" incidenttime="03:15:00" incidentnumber="15237120" address="700 block Mt Pleasant Rd" type="OFFENSE" age="" gender="" description="*********************************************** &lt;br/&gt;9090, Recovered Firearm&lt;br/&gt;"/><marker lat="40.4406248" lng="-79.9958864" zone="Zone 1" incidentdate="2015-12-12" incidenttime="11:45:00" incidentnumber="15237236" address="East Ohio St &amp; 31st St Brg" type="OFFENSE" age="" gender="" description="*********************************************** &lt;br/&gt;9136, Commitment to Await Requisition&lt;br/&gt;"/><marker lat="40.482386011855226" lng="-80.00290703640357" zone="Zone 1" incidentdate="2015-12-12" incidenttime="05:15:00" incidentnumber="15237137" address="300 block Mt Pleasant Rd" type="OFFENSE" age="" gender="" description="*********************************************** &lt;br/&gt;13(a)(31), Marijuana: Possession Small Amount&lt;br/&gt;13(a)(32), Paraphernalia - Use or Possession&lt;br/&gt;607.03, Discharging Firearm or Airgun&lt;br/&gt;3925, Receiving Stolen Property.&lt;br/&gt;"/><marker lat="40.403531266030441" lng="-79.992305847397873" zone="Zone 3" incidentdate="2015-12-12" incidenttime="10:20:00" incidentnumber="15237233" address="100 block Minooka St" type="OFFENSE" age="" gender="" description="*********************************************** &lt;br/&gt;2709, Harassment (Non-Specific)&lt;br/&gt;"/><marker lat="40.460594319900963" lng="-79.922716789802806" zone="Zone 5" incidentdate="2015-12-12" incidenttime="19:30:00" incidentnumber="15237604" address="6200 block Penn Ave" type="OFFENSE" age="" gender="" description="*********************************************** &lt;br/&gt;13(a)(32), Paraphernalia - Use or Possession&lt;br/&gt;1543, Driving While Operating Privilege is Suspended or Revoked.&lt;br/&gt;3503.B1I, DEF. TRESPASS ACTUAL COMMUNICATION&lt;br/&gt;3354, Additional Parking Regulations.&lt;br/&gt;"/><marker lat="40.404939361855945" lng="-79.990899233620965" zone="Zone 3" incidentdate="2015-12-12" incidenttime="19:25:00" incidentnumber="15237614" address="1100 block Brownsville Rd" type="OFFENSE" age="" gender="" description="*********************************************** &lt;br/&gt;3921, Theft by Unlawful Taking or Disposition.&lt;br/&gt;"/><marker lat="40.455275849789821" lng="-79.892204131151161" zone="Zone 5" incidentdate="2015-12-12" incidenttime="23:03:00" incidentnumber="15237644" address="7500 block Bennett St" type="OFFENSE" age="" gender="" description="*********************************************** &lt;br/&gt;4304(a)(1) Enhanced, Welfare of Children - Course of Conduct&lt;br/&gt;"/><marker lat="40.399788878927772" lng="-80.043325511648376" zone="Zone 6" incidentdate="2015-12-12" incidenttime="17:21:00" incidentnumber="15237432" address="3100 block Banksville Ave" type="OFFENSE" age="" gender="" description="*********************************************** &lt;br/&gt;3802(a)(1), DUI - General Impairment&lt;br/&gt;3802(c), DUI - Highest Rate of Alcohol - BAC &gt;= .16%&lt;br/&gt;3743, Accidents Involving Damage to Attended Veh. or Property&lt;br/&gt;"/><marker lat="40.408859147762882" lng="-79.93835842196431" zone="Zone 4" incidentdate="2015-12-12" incidenttime="21:15:00" incidentnumber="15237596" address="5000 block Ampere St" type="OFFENSE" age="" gender="" description="*********************************************** &lt;br/&gt;3304, Criminal Mischief.&lt;br/&gt;"/><marker lat="40.456034149096979" lng="-79.899181661674433" zone="Zone 5" incidentdate="2015-12-12" incidenttime="10:15:00" incidentnumber="14237221" address="700 block N Lang Ave" type="OFFENSE" age="" gender="" description="*********************************************** &lt;br/&gt;3304, Criminal Mischief.&lt;br/&gt;"/><marker lat="40.459011372372338" lng="-80.006373190229326" zone="Zone 1" incidentdate="2015-12-12" incidenttime="16:40:00" incidentnumber="15237422" address="Loraine St &amp; Fountain St" type="OFFENSE" age="" gender="" description="*********************************************** &lt;br/&gt;13(a)(16), Possession of Controlled Substance&lt;br/&gt;13(a)(31), Marijuana: Possession Small Amount&lt;br/&gt;"/><marker lat="40.460594319900963" lng="-79.922716789802806" zone="Zone 5" incidentdate="2015-12-12" incidenttime="19:30:00" incidentnumber="15237604" address="6200 block Penn Ave" type="ARREST" age="32" gender="M" description="*********************************************** &lt;br/&gt;13(a)(32), Paraphernalia - Use or Possession&lt;br/&gt;1543, Driving While Operating Privilege is Suspended or Revoked.&lt;br/&gt;3503.B1I, DEF. TRESPASS ACTUAL COMMUNICATION&lt;br/&gt;3354, Additional Parking Regulations.&lt;br/&gt;"/><marker lat="40.4406248" lng="-79.9958864" zone="Zone 1" incidentdate="2015-12-12" incidenttime="11:25:00" incidentnumber="15237236" address="East Ohio St &amp; 31st St Brg" type="ARREST" age="30" gender="M" description="*********************************************** &lt;br/&gt;9136, Commitment to Await Requisition&lt;br/&gt;"/><marker lat="40.464967566706392" lng="-79.942857766143803" zone="Zone 5" incidentdate="2015-12-12" incidenttime="21:40:00" incidentnumber="15237592" address="Penn Ave &amp; N Winebiddle St" type="ARREST" age="33" gender="M" description="*********************************************** &lt;br/&gt;1501, Drivers Required to be Licensed.&lt;br/&gt;3802(a)(1), DUI - General Impairment&lt;br/&gt;"/><marker lat="40.463244507649506" lng="-79.912095482430715" zone="Zone 5" incidentdate="2015-12-12" incidenttime="05:01:00" incidentnumber="15237133" address="500 block Paulson Ave" type="ARREST" age="38" gender="M" description="*********************************************** &lt;br/&gt;2701(a)(1), Simple Assault - Intent., Know., Reckless.Cause Bod. Injury&lt;br/&gt;"/><marker lat="40.3983160" lng="-79.9354095" zone="Zone 4" incidentdate="2015-12-12" incidenttime="00:41:00" incidentnumber="15236970" address="E Carson St Ramp &amp; Glenwood Brg" type="ARREST" age="33" gender="F" description="*********************************************** &lt;br/&gt;3802(a)(1), DUI - General Impairment&lt;br/&gt;3714, Careless Driving&lt;br/&gt;3301, Arson&lt;br/&gt;"/><marker lat="40.3297823" lng="-80.0336670" zone="Zone 1" incidentdate="2015-12-12" incidenttime="17:20:00" incidentnumber="15237440" address="East Ohio St &amp; East St" type="ARREST" age="33" gender="M" description="*********************************************** &lt;br/&gt;3714, Careless Driving&lt;br/&gt;3802(d)(2), DUI - Drug - Impaired Ability&lt;br/&gt;1501(A), Valid Drivers License Required&lt;br/&gt;"/><marker lat="40.4378591" lng="-80.0539249" zone="Zone 6" incidentdate="2015-12-12" incidenttime="10:47:00" incidentnumber="15208514" address="1800 block Noblestown Rd" type="ARREST" age="24" gender="F" description="*********************************************** &lt;br/&gt;9015, Failure To Appear/Arrest on Attachment Order&lt;br/&gt;3304(a)(5), CRIMINAL MISCHIEF - Intentionally Damages Real Or Personal Property Of Another&lt;br/&gt;2701(a)(1), Simple Assault - Intent., Know., Reckless.Cause Bod. Injury&lt;br/&gt;"/><marker lat="40.463244507649506" lng="-79.912095482430715" zone="Zone 5" incidentdate="2015-12-12" incidenttime="06:05:00" incidentnumber="15237147" address="500 block Paulson Ave" type="ARREST" age="28" gender="M" description="*********************************************** &lt;br/&gt;13(a)(16), Possession of Controlled Substance&lt;br/&gt;13(a)(30), Possession w/ Intent to Del. Controlled Substance&lt;br/&gt;13(a)(31), Marijuana: Possession Small Amount&lt;br/&gt;13(a)(32), Paraphernalia - Use or Possession&lt;br/&gt;6105(a)(1), Persons not to possess, use, manufacture, control, sell or transfer firearms: Former convict enumerated in subsection (b)&lt;br/&gt;"/><marker lat="40.482386011855226" lng="-80.00290703640357" zone="Zone 1" incidentdate="2015-12-12" incidenttime="05:15:00" incidentnumber="15237137" address="300 block Mt Pleasant Rd" type="ARREST" age="21" gender="M" description="*********************************************** &lt;br/&gt;13(a)(31), Marijuana: Possession Small Amount&lt;br/&gt;13(a)(32), Paraphernalia - Use or Possession&lt;br/&gt;607.03, Discharging Firearm or Airgun&lt;br/&gt;3925, Receiving Stolen Property.&lt;br/&gt;"/><marker lat="40.442778400156911" lng="-80.052071573455507" zone="Zone 6" incidentdate="2015-12-12" incidenttime="06:57:00" incidentnumber="15237151" address="Steuben St &amp; Logue St" type="ARREST" age="21" gender="M" description="*********************************************** &lt;br/&gt;3802(a)(1), DUI - General Impairment&lt;br/&gt;3802(b), DUI - High Rate of Alchol - BAC &gt;=.10% &lt;.16%&lt;br/&gt;"/><marker lat="40.482386011855226" lng="-80.00290703640357" zone="Zone 1" incidentdate="2015-12-12" incidenttime="05:15:00" incidentnumber="15237137" address="300 block Mt Pleasant Rd" type="ARREST" age="27" gender="M" description="*********************************************** &lt;br/&gt;13(a)(31), Marijuana: Possession Small Amount&lt;br/&gt;13(a)(32), Paraphernalia - Use or Possession&lt;br/&gt;607.03, Discharging Firearm or Airgun&lt;br/&gt;3925, Receiving Stolen Property.&lt;br/&gt;"/><marker lat="40.438021475291286" lng="-79.923054287889642" zone="Zone 4" incidentdate="2015-12-12" incidenttime="19:16:00" incidentnumber="15212664" address="1700 block Murray Ave" type="ARREST" age="30" gender="M" description="*********************************************** &lt;br/&gt;3929, Retail Theft.&lt;br/&gt;"/><marker lat="40.421545693486237" lng="-80.024682613402248" zone="Zone 6" incidentdate="2015-12-12" incidenttime="13:20:00" incidentnumber="15126218" address="Tropical Ave &amp; Hollyford Pl" type="ARREST" age="39" gender="M" description="*********************************************** &lt;br/&gt;13(a)(16), Possession of Controlled Substance&lt;br/&gt;13(a)(30), Possession w/ Intent to Del. Controlled Substance&lt;br/&gt;13(a)(30)*, Delivery of Controlled Substance&lt;br/&gt;5123, Contraband.&lt;br/&gt;4101, Forgery.&lt;br/&gt;"/><marker lat="40.441732921543291" lng="-80.006405498352649" zone="Zone 2" incidentdate="2015-12-12" incidenttime="23:07:00" incidentnumber="15237643" address="600 block Commonwealth Pl" type="ARREST" age="" gender="M" description="*********************************************** &lt;br/&gt;5503, Disorderly Conduct.&lt;br/&gt;3503.B1I, DEF. TRESPASS ACTUAL COMMUNICATION&lt;br/&gt;"/><marker lat="40.44520202305484" lng="-79.97398402697408" zone="Zone 2" incidentdate="2015-12-12" incidenttime="09:35:00" incidentnumber="15237193" address="Centre Ave &amp; Soho St" type="ARREST" age="20" gender="M" description="*********************************************** &lt;br/&gt;13(a)(31), Marijuana: Possession Small Amount&lt;br/&gt;1543, Driving While Operating Privilege is Suspended or Revoked.&lt;br/&gt;4303, General Lighting Requirements.&lt;br/&gt;"/><marker lat="40.399788878927772" lng="-80.043325511648376" zone="Zone 6" incidentdate="2015-12-12" incidenttime="17:21:00" incidentnumber="15237432" address="3100 block Banksville Ave" type="ARREST" age="59" gender="M" description="*********************************************** &lt;br/&gt;3802(a)(1), DUI - General Impairment&lt;br/&gt;3802(c), DUI - Highest Rate of Alcohol - BAC &gt;= .16%&lt;br/&gt;3743, Accidents Involving Damage to Attended Veh. or Property&lt;br/&gt;"/><marker lat="40.418030348656458" lng="-79.96690833400335" zone="Zone 3" incidentdate="2015-12-12" incidenttime="03:10:00" incidentnumber="15237060" address="Josephine St &amp; Salisbury St" type="ARREST" age="33" gender="M" description="*********************************************** &lt;br/&gt;1543, Driving While Operating Privilege is Suspended or Revoked.&lt;br/&gt;3802(a)(1), DUI - General Impairment&lt;br/&gt;6106, Firearms not to be Carried without a License.&lt;br/&gt;"/><marker lat="40.45003690130666" lng="-79.886832737393405" zone="Zone 5" incidentdate="2015-12-12" incidenttime="04:25:00" incidentnumber="15237111" address="Tioga St &amp; Rosedale St" type="ARREST" age="24" gender="M" description="*********************************************** &lt;br/&gt;3736, Reckless Driving&lt;br/&gt;2701, Simple Assault.&lt;br/&gt;2709.1, Stalking Conduct or Repeatedly Acts Including Follows&lt;br/&gt;2706, Terroristic Threats.&lt;br/&gt;3733, Fleeing or Attempting to Elude Police Officer&lt;br/&gt;2709(b), Stalking&lt;br/&gt;"/><marker lat="40.413119709484427" lng="-79.93358968213532" zone="Zone 4" incidentdate="2015-12-12" incidenttime="19:16:00" incidentnumber="15237512" address="Flowers Ave &amp; Kilbourne St" type="ARREST" age="30" gender="M" description="*********************************************** &lt;br/&gt;13(a)(16), Possession of Controlled Substance&lt;br/&gt;13(a)(32), Paraphernalia - Use or Possession&lt;br/&gt;9501, Bench Warrant&lt;br/&gt;"/><marker lat="40.44520202305484" lng="-79.97398402697408" zone="Zone 2" incidentdate="2015-12-12" incidenttime="09:35:00" incidentnumber="15237193" address="Centre Ave &amp; Soho St" type="ARREST" age="21" gender="M" description="*********************************************** &lt;br/&gt;13(a)(31), Marijuana: Possession Small Amount&lt;br/&gt;1543, Driving While Operating Privilege is Suspended or Revoked.&lt;br/&gt;4303, General Lighting Requirements.&lt;br/&gt;"/><marker lat="40.46967960794337" lng="-80.03188665644052" zone="Zone 1" incidentdate="2015-12-12" incidenttime="17:37:00" incidentnumber="15237445" address="1400 block Dickson St" type="ARREST" age="19" gender="M" description="*********************************************** &lt;br/&gt;2701(b)(1), Simple Assault - Fight or Scuffle Entered by Mutual Consent&lt;br/&gt;5503(a)(1), DISORDERLY CONDUCT - ENGAGE IN FIGHTING&lt;br/&gt;"/><marker lat="40.455275849789821" lng="-79.892204131151161" zone="Zone 5" incidentdate="2015-12-12" incidenttime="23:33:00" incidentnumber="15237644" address="7500 block Bennett St" type="ARREST" age="19" gender="M" description="*********************************************** &lt;br/&gt;4304(a)(1) Enhanced, Welfare of Children - Course of Conduct&lt;br/&gt;"/><marker lat="40.438369941847732" lng="-79.986310041229473" zone="Zone 2" incidentdate="2015-12-12" incidenttime="02:34:00" incidentnumber="15053348" address="1400 block 5th Ave" type="ARREST" age="31" gender="F" description="*********************************************** &lt;br/&gt;2701, Simple Assault.&lt;br/&gt;"/><marker lat="40.46967960794337" lng="-80.03188665644052" zone="Zone 1" incidentdate="2015-12-12" incidenttime="17:37:00" incidentnumber="15237445" address="1400 block Dickson St" type="ARREST" age="26" gender="M" description="*********************************************** &lt;br/&gt;2701(b)(1), Simple Assault - Fight or Scuffle Entered by Mutual Consent&lt;br/&gt;5503(a)(1), DISORDERLY CONDUCT - ENGAGE IN FIGHTING&lt;br/&gt;"/><marker lat="40.459011372372338" lng="-80.006373190229326" zone="Zone 1" incidentdate="2015-12-12" incidenttime="16:45:00" incidentnumber="15237422" address="Loraine St &amp; Fountain St" type="ARREST" age="24" gender="M" description="*********************************************** &lt;br/&gt;13(a)(16), Possession of Controlled Substance&lt;br/&gt;13(a)(31), Marijuana: Possession Small Amount&lt;br/&gt;"/><marker lat="40.470559349698817" lng="-79.994946939312101" zone="Zone 1" incidentdate="2015-12-12" incidenttime="00:41:00" incidentnumber="15236991" address="400 block East Commons" type="ARREST" age="19" gender="M" description="*********************************************** &lt;br/&gt;13(a)(16), Possession of Controlled Substance&lt;br/&gt;13(a)(30), Possession w/ Intent to Del. Controlled Substance&lt;br/&gt;4910, Tampering with or Fabricating Physical Evidence.&lt;br/&gt;"/><marker lat="40.423181653741167" lng="-79.928733488981621" zone="Zone 4" incidentdate="2015-12-12" incidenttime="12:26:00" incidentnumber="15237275" address="4200 block Murray Ave" type="ARREST" age="59" gender="M" description="*********************************************** &lt;br/&gt;3929, Retail Theft.&lt;br/&gt;"/><marker lat="40.456564641128566" lng="-79.871361460228911" zone="Zone 5" incidentdate="2015-12-12" incidenttime="12:30:00" incidentnumber="15156695" address="2300 block East Hills Dr" type="ARREST" age="22" gender="M" description="*********************************************** &lt;br/&gt;13(a)(31), Marijuana: Possession Small Amount&lt;br/&gt;13(a)(32), Paraphernalia - Use or Possession&lt;br/&gt;9015, Failure To Appear/Arrest on Attachment Order&lt;br/&gt;4703, Operation of Vehicle without Official Certif. of Inspection&lt;br/&gt;4303, General Lighting Requirements.&lt;br/&gt;7513, Restriction on Alcoholic Beverages - Open Container&lt;br/&gt;"/></markers>
