<?xml version="1.0"?>
<markers><marker lat="40.475991792684219" lng="-79.998237934488159" zone="Zone 1" incidentdate="2016-02-13" incidenttime="02:42:00" incidentnumber="16026601" address="700 block Mt Pleasant Rd" type="OFFENSE" age="" gender="" description="*********************************************** &lt;br/&gt;9501, Bench Warrant&lt;br/&gt;2702, Aggravated Assault.&lt;br/&gt;2701, Simple Assault.&lt;br/&gt;"/><marker lat="40.454307782768687" lng="-79.946518733076431" zone="Zone 5" incidentdate="2016-02-13" incidenttime="16:24:00" incidentnumber="16026943" address="4900 block Baum Blvd" type="OFFENSE" age="" gender="" description="*********************************************** &lt;br/&gt;3929(a)(1), Retail Theft; takes possession of, carries away, or transfers displayed merchandise&lt;br/&gt;"/><marker lat="40.44046800326111" lng="-79.991530255174666" zone="Zone 2" incidentdate="2016-02-13" incidenttime="16:15:00" incidentnumber="16026877" address="Centre Ave &amp; Washington Pl" type="OFFENSE" age="" gender="" description="*********************************************** &lt;br/&gt;3304(a)(5), CRIMINAL MISCHIEF - Intentionally Damages Real Or Personal Property Of Another&lt;br/&gt;"/><marker lat="40.461205470859689" lng="-80.050595715016868" zone="Zone 6" incidentdate="2016-02-13" incidenttime="21:28:00" incidentnumber="16027046" address="Frustrum St &amp; Field Way" type="OFFENSE" age="" gender="" description="*********************************************** &lt;br/&gt;1543, Driving While Operating Privilege is Suspended or Revoked.&lt;br/&gt;3925, Receiving Stolen Property.&lt;br/&gt;"/><marker lat="40.40260970452362" lng="-80.029075273157829" zone="Zone 6" incidentdate="2016-02-13" incidenttime="02:20:00" incidentnumber="16026581" address="2300 block Los Angeles Ave" type="OFFENSE" age="" gender="" description="*********************************************** &lt;br/&gt;029, Missing Juvenile&lt;br/&gt;"/><marker lat="40.453414975118086" lng="-79.980193525732318" zone="Zone 2" incidentdate="2016-02-13" incidenttime="14:57:00" incidentnumber="16026837" address="2400 block Penn Ave" type="OFFENSE" age="" gender="" description="*********************************************** &lt;br/&gt;4914, False Identification to Law Enforcement Authorities&lt;br/&gt;4106, Access Device Fraud&lt;br/&gt;4101, Forgery.&lt;br/&gt;4120, Identity Theft&lt;br/&gt;"/><marker lat="40.428585203983602" lng="-79.981869007680203" zone="Zone 3" incidentdate="2016-02-13" incidenttime="02:42:00" incidentnumber="16026615" address="1700 block E Carson St" type="OFFENSE" age="" gender="" description="*********************************************** &lt;br/&gt;5503, Disorderly Conduct.&lt;br/&gt;5505, Public Drunkenness&lt;br/&gt;"/><marker lat="40.427214666666025" lng="-79.936985368296916" zone="Zone 4" incidentdate="2016-02-13" incidenttime="10:30:00" incidentnumber="16026733" address="4000 block Beechwood Blvd" type="OFFENSE" age="" gender="" description="*********************************************** &lt;br/&gt;9999, 9999 - (Misc. Incident):&lt;br/&gt;"/><marker lat="40.429708771598392" lng="-79.986451286179445" zone="Zone 3" incidentdate="2016-02-13" incidenttime="01:36:00" incidentnumber="16026567" address="S 12th St &amp; Bedford Sq" type="OFFENSE" age="" gender="" description="*********************************************** &lt;br/&gt;601.16, Public Urination And Defecation&lt;br/&gt;"/><marker lat="40.3819570" lng="-79.9203564" zone="Zone 4" incidentdate="2016-02-13" incidenttime="14:00:00" incidentnumber="16027011" address="700 block Beechland St" type="OFFENSE" age="" gender="" description="*********************************************** &lt;br/&gt;3921(a), Theft by Unlawful Taking or Disposition - Movable item&lt;br/&gt;"/><marker lat="40.397123531939101" lng="-79.9881756213681" zone="Zone 3" incidentdate="2016-02-13" incidenttime="17:51:00" incidentnumber="16026930" address="1800 block Brownsville Rd" type="OFFENSE" age="" gender="" description="*********************************************** &lt;br/&gt;3921, Theft by Unlawful Taking or Disposition.&lt;br/&gt;4914, False Identification to Law Enforcement Authorities&lt;br/&gt;5121, Escape.&lt;br/&gt;"/><marker lat="40.428799178836528" lng="-79.984145739682731" zone="Zone 3" incidentdate="2016-02-13" incidenttime="01:55:00" incidentnumber="16026577" address="S 14th St &amp; E Carson St" type="OFFENSE" age="" gender="" description="*********************************************** &lt;br/&gt;5505, Public Drunkenness&lt;br/&gt;601.16, Public Urination And Defecation&lt;br/&gt;"/><marker lat="40.482879021356389" lng="-80.04453300763744" zone="Zone 1" incidentdate="2016-02-13" incidenttime="13:20:00" incidentnumber="16026805" address="2000 block Termon Ave" type="OFFENSE" age="" gender="" description="*********************************************** &lt;br/&gt;029, Missing Juvenile&lt;br/&gt;"/><marker lat="40.417504115180527" lng="-79.980508802138502" zone="Zone 3" incidentdate="2016-02-13" incidenttime="00:49:00" incidentnumber="16026535" address="1900 block Arlington Ave" type="OFFENSE" age="" gender="" description="*********************************************** &lt;br/&gt;3802(a)(1), DUI - General Impairment&lt;br/&gt;3802(c), DUI - Highest Rate of Alcohol - BAC &gt;= .16%&lt;br/&gt;3743, Accidents Involving Damage to Attended Veh. or Property&lt;br/&gt;3714, Careless Driving&lt;br/&gt;"/><marker lat="40.428585203983602" lng="-79.981869007680203" zone="Zone 3" incidentdate="2016-02-13" incidenttime="02:42:00" incidentnumber="16026600" address="1700 block E Carson St" type="OFFENSE" age="" gender="" description="*********************************************** &lt;br/&gt;5505, Public Drunkenness&lt;br/&gt;"/><marker lat="40.428540979945623" lng="-79.982836452461768" zone="Zone 3" incidentdate="2016-02-13" incidenttime="01:45:00" incidentnumber="16026568" address="S 16th St &amp; Roland St" type="OFFENSE" age="" gender="" description="*********************************************** &lt;br/&gt;601.16, Public Urination And Defecation&lt;br/&gt;"/><marker lat="40.415959348032175" lng="-79.971670296201552" zone="Zone 3" incidentdate="2016-02-13" incidenttime="09:30:00" incidentnumber="16026753" address="200 block Clover St" type="OFFENSE" age="" gender="" description="*********************************************** &lt;br/&gt;3304, Criminal Mischief.&lt;br/&gt;"/><marker lat="40.450975576883621" lng="-79.954904054096801" zone="Zone 4" incidentdate="2016-02-13" incidenttime="00:01:00" incidentnumber="16026512" address="Centre Ave &amp; Bigelow Blvd" type="OFFENSE" age="" gender="" description="*********************************************** &lt;br/&gt;2705, Recklessly Endangering Another Person.&lt;br/&gt;2707, Propulsion of Missiles&lt;br/&gt;2702, Aggravated Assault.&lt;br/&gt;"/><marker lat="40.427460314830242" lng="-79.946781182023216" zone="Zone 4" incidentdate="2016-02-13" incidenttime="14:06:00" incidentnumber="16026830" address="400 block Saline St" type="OFFENSE" age="" gender="" description="*********************************************** &lt;br/&gt;9012, Non-Violent Domestic&lt;br/&gt;"/><marker lat="40.445217096451678" lng="-79.991821080278783" zone="Zone 2" incidentdate="2016-02-13" incidenttime="16:00:00" incidentnumber="16026865" address="12th St &amp; Liberty Ave" type="OFFENSE" age="" gender="" description="*********************************************** &lt;br/&gt;3921(a), Theft by Unlawful Taking or Disposition - Movable item&lt;br/&gt;"/><marker lat="40.395844588777514" lng="-79.988461120081979" zone="Zone 3" incidentdate="2016-02-13" incidenttime="04:15:00" incidentnumber="16026641" address="Copperfield Ave &amp; Westmont Ave" type="OFFENSE" age="" gender="" description="*********************************************** &lt;br/&gt;9999, 9999 - (Misc. Incident):&lt;br/&gt;"/><marker lat="40.44608960903679" lng="-79.893619929343828" zone="Zone 4" incidentdate="2016-02-13" incidenttime="18:40:00" incidentnumber="16026953" address="7700 block Penn Ave" type="OFFENSE" age="" gender="" description="*********************************************** &lt;br/&gt;3304(a)(5), CRIMINAL MISCHIEF - Intentionally Damages Real Or Personal Property Of Another&lt;br/&gt;2709(a)(1), Harassment by Physical Contact, or Attempts or Threats&lt;br/&gt;"/><marker lat="40.484454877545488" lng="-80.040477404897274" zone="Zone 1" incidentdate="2016-02-13" incidenttime="00:03:00" incidentnumber="16026511" address="3800 block California Ave" type="OFFENSE" age="" gender="" description="*********************************************** &lt;br/&gt;3745, Accidents Involving Damage to Unattended Veh.or Prop.&lt;br/&gt;"/><marker lat="40.418739100548819" lng="-79.990665428290484" zone="Zone 3" incidentdate="2016-02-13" incidenttime="07:00:00" incidentnumber="16026682" address="900 block Lillian Way" type="OFFENSE" age="" gender="" description="*********************************************** &lt;br/&gt;3745, Accidents Involving Damage to Unattended Veh.or Prop.&lt;br/&gt;"/><marker lat="40.437846371119946" lng="-79.922805918036218" zone="Zone 4" incidentdate="2016-02-13" incidenttime="07:16:00" incidentnumber="16026676" address="5800 block Forbes Ave" type="OFFENSE" age="" gender="" description="*********************************************** &lt;br/&gt;3743, Accidents Involving Damage to Attended Veh. or Property&lt;br/&gt;"/><marker lat="40.475243138053401" lng="-80.027385031391674" zone="Zone 1" incidentdate="2016-02-13" incidenttime="13:45:00" incidentnumber="16026819" address="3200 block Central Ave" type="OFFENSE" age="" gender="" description="*********************************************** &lt;br/&gt;9488, False  Burglar Alarm&lt;br/&gt;"/><marker lat="40.4439413" lng="-80.0803367" zone="Zone 6" incidentdate="2016-02-13" incidenttime="03:25:00" incidentnumber="16026602" address="2100 block Roswell Dr" type="OFFENSE" age="" gender="" description="*********************************************** &lt;br/&gt;9488, False  Burglar Alarm&lt;br/&gt;"/><marker lat="40.4196090" lng="-79.9271419" zone="Zone 4" incidentdate="2016-02-13" incidenttime="12:33:00" incidentnumber="16026787" address="4400 block Browns Hill Rd" type="OFFENSE" age="" gender="" description="*********************************************** &lt;br/&gt;3743, Accidents Involving Damage to Attended Veh. or Property&lt;br/&gt;"/><marker lat="40.428648587693665" lng="-79.984030978724903" zone="Zone 3" incidentdate="2016-02-13" incidenttime="02:30:00" incidentnumber="16026598" address="1400 block E Carson St" type="OFFENSE" age="" gender="" description="*********************************************** &lt;br/&gt;601.16, Public Urination And Defecation&lt;br/&gt;"/><marker lat="40.455023520372684" lng="-79.885909186300637" zone="Zone 5" incidentdate="2016-02-13" incidenttime="15:40:00" incidentnumber="16026858" address="7900 block Frankstown Ave" type="OFFENSE" age="" gender="" description="*********************************************** &lt;br/&gt;3921, Theft by Unlawful Taking or Disposition.&lt;br/&gt;2701, Simple Assault.&lt;br/&gt;"/><marker lat="40.480403073330407" lng="-79.954224549032361" zone="Zone 2" incidentdate="2016-02-13" incidenttime="14:20:00" incidentnumber="16026853" address="5200 block Butler St" type="OFFENSE" age="" gender="" description="*********************************************** &lt;br/&gt;3921(a), Theft by Unlawful Taking or Disposition - Movable item&lt;br/&gt;"/><marker lat="40.465157804159951" lng="-79.922171643415098" zone="Zone 5" incidentdate="2016-02-13" incidenttime="17:07:00" incidentnumber="16026902" address="400 block N Highland Ave" type="OFFENSE" age="" gender="" description="*********************************************** &lt;br/&gt;3929, Retail Theft.&lt;br/&gt;"/><marker lat="40.468765965019472" lng="-79.986037442288932" zone="Zone 1" incidentdate="2016-02-13" incidenttime="23:39:00" incidentnumber="16027072" address="1900 block Gebhart St" type="OFFENSE" age="" gender="" description="*********************************************** &lt;br/&gt;9501, Bench Warrant&lt;br/&gt;"/><marker lat="40.426001318119731" lng="-79.916861921044571" zone="Zone 4" incidentdate="2016-02-13" incidenttime="14:40:00" incidentnumber="16026849" address="Beechwood Blvd &amp; Monitor St" type="OFFENSE" age="" gender="" description="*********************************************** &lt;br/&gt;3743, Accidents Involving Damage to Attended Veh. or Property&lt;br/&gt;"/><marker lat="40.428585203983602" lng="-79.981869007680203" zone="Zone 3" incidentdate="2016-02-13" incidenttime="01:45:00" incidentnumber="16026552" address="1700 block E Carson St" type="OFFENSE" age="" gender="" description="*********************************************** &lt;br/&gt;2701, Simple Assault.&lt;br/&gt;"/><marker lat="40.428525305474778" lng="-79.98215432359406" zone="Zone 3" incidentdate="2016-02-13" incidenttime="02:00:00" incidentnumber="16026582" address="100 block S 17th St" type="OFFENSE" age="" gender="" description="*********************************************** &lt;br/&gt;601.16, Public Urination And Defecation&lt;br/&gt;"/><marker lat="40.44490518577846" lng="-79.99377796067661" zone="Zone 2" incidentdate="2016-02-13" incidenttime="10:25:00" incidentnumber="16026712" address="1100 block Penn Ave" type="OFFENSE" age="" gender="" description="*********************************************** &lt;br/&gt;9488, False  Burglar Alarm&lt;br/&gt;"/><marker lat="40.429708771598392" lng="-79.986451286179445" zone="Zone 3" incidentdate="2016-02-13" incidenttime="00:12:00" incidentnumber="16026516" address="S 12th St &amp; Bedford Sq" type="OFFENSE" age="" gender="" description="*********************************************** &lt;br/&gt;601.16, Public Urination And Defecation&lt;br/&gt;"/><marker lat="40.465157804159951" lng="-79.922171643415098" zone="Zone 5" incidentdate="2016-02-13" incidenttime="18:05:00" incidentnumber="16026949" address="400 block N Highland Ave" type="OFFENSE" age="" gender="" description="*********************************************** &lt;br/&gt;2709(a)(1), Harassment by Physical Contact, or Attempts or Threats&lt;br/&gt;"/><marker lat="40.461789929179346" lng="-79.987606860774562" zone="Zone 1" incidentdate="2016-02-13" incidenttime="05:07:00" incidentnumber="16026650" address="1400 block Spring Garden Ave" type="OFFENSE" age="" gender="" description="*********************************************** &lt;br/&gt;9488, False  Burglar Alarm&lt;br/&gt;"/><marker lat="40.458241968092587" lng="-79.989777229371612" zone="Zone 1" incidentdate="2016-02-13" incidenttime="09:00:00" incidentnumber="16026715" address="Goettmann St &amp; Basin St" type="OFFENSE" age="" gender="" description="*********************************************** &lt;br/&gt;3304, Criminal Mischief.&lt;br/&gt;3934, Theft from Vehicle&lt;br/&gt;"/><marker lat="40.440479716215464" lng="-79.965333815773448" zone="Zone 4" incidentdate="2016-02-13" incidenttime="01:21:00" incidentnumber="16026579" address="200 block Robinson St" type="OFFENSE" age="" gender="" description="*********************************************** &lt;br/&gt;3701, Robbery.&lt;br/&gt;"/><marker lat="40.441923779784247" lng="-80.001794396078409" zone="Zone 2" incidentdate="2016-02-13" incidenttime="07:50:00" incidentnumber="16026683" address="Liberty Ave &amp; 6th St" type="OFFENSE" age="" gender="" description="*********************************************** &lt;br/&gt;1543, Driving While Operating Privilege is Suspended or Revoked.&lt;br/&gt;3802(c), DUI - Highest Rate of Alcohol - BAC &gt;= .16%&lt;br/&gt;"/><marker lat="40.461789929179346" lng="-79.987606860774562" zone="Zone 1" incidentdate="2016-02-13" incidenttime="16:56:00" incidentnumber="16026894" address="1400 block Spring Garden Ave" type="OFFENSE" age="" gender="" description="*********************************************** &lt;br/&gt;9488, False  Burglar Alarm&lt;br/&gt;"/><marker lat="40.427045262917161" lng="-79.982227325183175" zone="Zone 3" incidentdate="2016-02-13" incidenttime="00:31:00" incidentnumber="16026524" address="S 17th St &amp; Jane St" type="OFFENSE" age="" gender="" description="*********************************************** &lt;br/&gt;601.16, Public Urination And Defecation&lt;br/&gt;"/><marker lat="40.430879395977193" lng="-80.001322478404902" zone="Zone 3" incidentdate="2016-02-13" incidenttime="15:30:00" incidentnumber="16026859" address="E Carson St &amp; Arlington Ave" type="OFFENSE" age="" gender="" description="*********************************************** &lt;br/&gt;3743, Accidents Involving Damage to Attended Veh. or Property&lt;br/&gt;"/><marker lat="40.440085617217491" lng="-79.998645938306552" zone="Zone 2" incidentdate="2016-02-13" incidenttime="19:10:00" incidentnumber="16026970" address="5th Ave &amp; Smithfield St" type="OFFENSE" age="" gender="" description="*********************************************** &lt;br/&gt;3743, Accidents Involving Damage to Attended Veh. or Property&lt;br/&gt;"/><marker lat="40.460410839084737" lng="-79.900141730333971" zone="Zone 5" incidentdate="2016-02-13" incidenttime="01:15:00" incidentnumber="16026556" address="1100 block N Murtland St" type="OFFENSE" age="" gender="" description="*********************************************** &lt;br/&gt;029, Missing Juvenile&lt;br/&gt;"/><marker lat="40.442273086548795" lng="-80.00411265495255" zone="Zone 2" incidentdate="2016-02-13" incidenttime="02:12:00" incidentnumber="16026587" address="500 block Penn Ave" type="OFFENSE" age="" gender="" description="*********************************************** &lt;br/&gt;3304, Criminal Mischief.&lt;br/&gt;3743, Accidents Involving Damage to Attended Veh. or Property&lt;br/&gt;"/><marker lat="40.428108422852553" lng="-79.977683898049875" zone="Zone 3" incidentdate="2016-02-13" incidenttime="00:50:00" incidentnumber="16026549" address="Carey Way &amp; S 20th St" type="OFFENSE" age="" gender="" description="*********************************************** &lt;br/&gt;601.08(a), Alcohol or Liquor Consumption on Streets or Sidewalks&lt;br/&gt;"/><marker lat="40.429890529977328" lng="-80.011218299736399" zone="Zone 3" incidentdate="2016-02-13" incidenttime="01:50:00" incidentnumber="16026574" address="300 block Belonda St" type="OFFENSE" age="" gender="" description="*********************************************** &lt;br/&gt;2709(a)(1), Harassment by Physical Contact, or Attempts or Threats&lt;br/&gt;"/><marker lat="40.482879021356389" lng="-80.04453300763744" zone="Zone 1" incidentdate="2016-02-13" incidenttime="13:20:00" incidentnumber="16026798" address="2000 block Termon Ave" type="OFFENSE" age="" gender="" description="*********************************************** &lt;br/&gt;029, Missing Juvenile&lt;br/&gt;"/><marker lat="40.463201027574804" lng="-80.019796273919852" zone="Zone 1" incidentdate="2016-02-13" incidenttime="13:50:00" incidentnumber="16026827" address="Strauss St &amp; N Charles St" type="OFFENSE" age="" gender="" description="*********************************************** &lt;br/&gt;3701, Robbery.&lt;br/&gt;"/><marker lat="40.427660096428085" lng="-79.977800791987505" zone="Zone 3" incidentdate="2016-02-13" incidenttime="07:30:00" incidentnumber="16026692" address="100 block S 20th St" type="OFFENSE" age="" gender="" description="*********************************************** &lt;br/&gt;3745, Accidents Involving Damage to Unattended Veh.or Prop.&lt;br/&gt;"/><marker lat="40.454837687599735" lng="-79.890318198845179" zone="Zone 5" incidentdate="2016-02-13" incidenttime="05:23:00" incidentnumber="16026652" address="7600 block Bennett St" type="OFFENSE" age="" gender="" description="*********************************************** &lt;br/&gt;13(a)(16), Possession of Controlled Substance&lt;br/&gt;13(a)(30), Possession w/ Intent to Del. Controlled Substance&lt;br/&gt;13(a)(32), Paraphernalia - Use or Possession&lt;br/&gt;9501, Bench Warrant&lt;br/&gt;4304(a)(1), Endangering Welfare of Children - Course of Conduct Enhanced&lt;br/&gt;4914, False Identification to Law Enforcement Authorities&lt;br/&gt;"/><marker lat="40.461789929179346" lng="-79.987606860774562" zone="Zone 1" incidentdate="2016-02-13" incidenttime="17:19:00" incidentnumber="16026907" address="1400 block Spring Garden Ave" type="OFFENSE" age="" gender="" description="*********************************************** &lt;br/&gt;9488, False  Burglar Alarm&lt;br/&gt;"/><marker lat="40.397123531939101" lng="-79.9881756213681" zone="Zone 3" incidentdate="2016-02-13" incidenttime="17:57:00" incidentnumber="16026930" address="1800 block Brownsville Rd" type="ARREST" age="23" gender="M" description="*********************************************** &lt;br/&gt;3921, Theft by Unlawful Taking or Disposition.&lt;br/&gt;4914, False Identification to Law Enforcement Authorities&lt;br/&gt;5121, Escape.&lt;br/&gt;"/><marker lat="40.454837687599735" lng="-79.890318198845179" zone="Zone 5" incidentdate="2016-02-13" incidenttime="05:46:00" incidentnumber="16026652" address="7600 block Bennett St" type="ARREST" age="55" gender="M" description="*********************************************** &lt;br/&gt;13(a)(16), Possession of Controlled Substance&lt;br/&gt;13(a)(30), Possession w/ Intent to Del. Controlled Substance&lt;br/&gt;13(a)(32), Paraphernalia - Use or Possession&lt;br/&gt;9501, Bench Warrant&lt;br/&gt;4304(a)(1), Endangering Welfare of Children - Course of Conduct Enhanced&lt;br/&gt;4914, False Identification to Law Enforcement Authorities&lt;br/&gt;"/><marker lat="40.465157804159951" lng="-79.922171643415098" zone="Zone 5" incidentdate="2016-02-13" incidenttime="17:39:00" incidentnumber="16026902" address="400 block N Highland Ave" type="ARREST" age="32" gender="F" description="*********************************************** &lt;br/&gt;3929, Retail Theft.&lt;br/&gt;"/><marker lat="40.475991792684219" lng="-79.998237934488159" zone="Zone 1" incidentdate="2016-02-13" incidenttime="03:19:00" incidentnumber="16026601" address="700 block Mt Pleasant Rd" type="ARREST" age="25" gender="F" description="*********************************************** &lt;br/&gt;9501, Bench Warrant&lt;br/&gt;2702, Aggravated Assault.&lt;br/&gt;2701, Simple Assault.&lt;br/&gt;"/><marker lat="40.429764885213586" lng="-79.981951688302857" zone="Zone 3" incidentdate="2016-02-13" incidenttime="02:15:00" incidentnumber="15239343" address="S 17th St &amp; Sidney St" type="ARREST" age="23" gender="M" description="*********************************************** &lt;br/&gt;2701, Simple Assault.&lt;br/&gt;3701, Robbery.&lt;br/&gt;"/><marker lat="40.454837687599735" lng="-79.890318198845179" zone="Zone 5" incidentdate="2016-02-13" incidenttime="05:47:00" incidentnumber="16026652" address="7600 block Bennett St" type="ARREST" age="27" gender="F" description="*********************************************** &lt;br/&gt;13(a)(16), Possession of Controlled Substance&lt;br/&gt;13(a)(30), Possession w/ Intent to Del. Controlled Substance&lt;br/&gt;13(a)(32), Paraphernalia - Use or Possession&lt;br/&gt;9501, Bench Warrant&lt;br/&gt;4304(a)(1), Endangering Welfare of Children - Course of Conduct Enhanced&lt;br/&gt;4914, False Identification to Law Enforcement Authorities&lt;br/&gt;"/><marker lat="40.452841769688419" lng="-79.891813206508516" zone="Zone 5" incidentdate="2016-02-13" incidenttime="05:46:00" incidentnumber="14184963" address="7500 block Mulford St" type="ARREST" age="55" gender="M" description="*********************************************** &lt;br/&gt;9999, 9999 - (Misc. Incident):&lt;br/&gt;3502, Burglary.&lt;br/&gt;13(a)(31), Marijuana: Possession Small Amount&lt;br/&gt;903, Criminal Conspiracy.&lt;br/&gt;907, Possessing Instruments of Crime.&lt;br/&gt;"/><marker lat="40.442092052039932" lng="-79.999423512399062" zone="Zone 2" incidentdate="2016-02-13" incidenttime="02:00:00" incidentnumber="16011615" address="600 block Wood St" type="ARREST" age="23" gender="M" description="*********************************************** &lt;br/&gt;2701, Simple Assault.&lt;br/&gt;"/><marker lat="40.441923779784247" lng="-80.001794396078409" zone="Zone 2" incidentdate="2016-02-13" incidenttime="08:36:00" incidentnumber="16026683" address="Liberty Ave &amp; 6th St" type="ARREST" age="42" gender="M" description="*********************************************** &lt;br/&gt;1543, Driving While Operating Privilege is Suspended or Revoked.&lt;br/&gt;3802(c), DUI - Highest Rate of Alcohol - BAC &gt;= .16%&lt;br/&gt;"/><marker lat="40.475991792684219" lng="-79.998237934488159" zone="Zone 1" incidentdate="2016-02-13" incidenttime="03:19:00" incidentnumber="15196260" address="700 block Mt Pleasant Rd" type="ARREST" age="44" gender="M" description="*********************************************** &lt;br/&gt;2701, Simple Assault.&lt;br/&gt;"/><marker lat="40.475991792684219" lng="-79.998237934488159" zone="Zone 1" incidentdate="2016-02-13" incidenttime="03:19:00" incidentnumber="16026601" address="700 block Mt Pleasant Rd" type="ARREST" age="44" gender="M" description="*********************************************** &lt;br/&gt;9501, Bench Warrant&lt;br/&gt;2702, Aggravated Assault.&lt;br/&gt;2701, Simple Assault.&lt;br/&gt;"/><marker lat="40.453414975118086" lng="-79.980193525732318" zone="Zone 2" incidentdate="2016-02-13" incidenttime="14:57:00" incidentnumber="16026837" address="2400 block Penn Ave" type="ARREST" age="23" gender="M" description="*********************************************** &lt;br/&gt;4914, False Identification to Law Enforcement Authorities&lt;br/&gt;4106, Access Device Fraud&lt;br/&gt;4101, Forgery.&lt;br/&gt;4120, Identity Theft&lt;br/&gt;"/><marker lat="40.473885381367339" lng="-79.904428581179701" zone="Zone 5" incidentdate="2016-02-13" incidenttime="09:05:00" incidentnumber="16023374" address="6900 block Lemington Ave" type="ARREST" age="34" gender="M" description="*********************************************** &lt;br/&gt;2701, Simple Assault.&lt;br/&gt;"/><marker lat="40.39458317783771" lng="-80.021692304865098" zone="Zone 6" incidentdate="2016-02-13" incidenttime="01:05:00" incidentnumber="16026501" address="700 block Brookline Blvd" type="ARREST" age="23" gender="M" description="*********************************************** &lt;br/&gt;3304, Criminal Mischief.&lt;br/&gt;3503, Criminal Trespass&lt;br/&gt;"/><marker lat="40.454837687599735" lng="-79.890318198845179" zone="Zone 5" incidentdate="2016-02-13" incidenttime="05:46:00" incidentnumber="16026652" address="7600 block Bennett St" type="ARREST" age="24" gender="M" description="*********************************************** &lt;br/&gt;13(a)(16), Possession of Controlled Substance&lt;br/&gt;13(a)(30), Possession w/ Intent to Del. Controlled Substance&lt;br/&gt;13(a)(32), Paraphernalia - Use or Possession&lt;br/&gt;9501, Bench Warrant&lt;br/&gt;4304(a)(1), Endangering Welfare of Children - Course of Conduct Enhanced&lt;br/&gt;4914, False Identification to Law Enforcement Authorities&lt;br/&gt;"/><marker lat="40.464774823811233" lng="-79.942733938845166" zone="Zone 5" incidentdate="2016-02-13" incidenttime="15:30:00" incidentnumber="16015029" address="5100 block Penn Ave" type="ARREST" age="60" gender="M" description="*********************************************** &lt;br/&gt;3929, Retail Theft.&lt;br/&gt;"/><marker lat="40.434696587775576" lng="-79.996300985228572" zone="Zone 2" incidentdate="2016-02-13" incidenttime="14:45:00" incidentnumber="16000038" address="600 block 1st Ave" type="ARREST" age="23" gender="M" description="*********************************************** &lt;br/&gt;2701, Simple Assault.&lt;br/&gt;"/><marker lat="40.462899959680286" lng="-79.936370611427421" zone="Zone 5" incidentdate="2016-02-13" incidenttime="19:30:00" incidentnumber="16023951" address="200 block N Graham St" type="ARREST" age="38" gender="F" description="*********************************************** &lt;br/&gt;13(a)(16), Possession of Controlled Substance&lt;br/&gt;13(a)(32), Paraphernalia - Use or Possession&lt;br/&gt;"/><marker lat="40.468765965019472" lng="-79.986037442288932" zone="Zone 1" incidentdate="2016-02-13" incidenttime="23:39:00" incidentnumber="16027072" address="1900 block Gebhart St" type="ARREST" age="30" gender="M" description="*********************************************** &lt;br/&gt;9501, Bench Warrant&lt;br/&gt;"/><marker lat="40.391283115096208" lng="-79.976978504341659" zone="Zone 3" incidentdate="2016-02-13" incidenttime="10:30:00" incidentnumber="15116201" address="400 block Kirk Ave" type="ARREST" age="22" gender="F" description="*********************************************** &lt;br/&gt;2701, Simple Assault.&lt;br/&gt;2701(a)(1), Simple Assault - Intent., Know., Reckless.Cause Bod. Injury&lt;br/&gt;"/><marker lat="40.434696587775576" lng="-79.996300985228572" zone="Zone 2" incidentdate="2016-02-13" incidenttime="14:45:00" incidentnumber="16000038" address="600 block 1st Ave" type="ARREST" age="36" gender="M" description="*********************************************** &lt;br/&gt;2701, Simple Assault.&lt;br/&gt;"/><marker lat="40.417504115180527" lng="-79.980508802138502" zone="Zone 3" incidentdate="2016-02-13" incidenttime="01:05:00" incidentnumber="16026535" address="1900 block Arlington Ave" type="ARREST" age="68" gender="M" description="*********************************************** &lt;br/&gt;3802(a)(1), DUI - General Impairment&lt;br/&gt;3802(c), DUI - Highest Rate of Alcohol - BAC &gt;= .16%&lt;br/&gt;3743, Accidents Involving Damage to Attended Veh. or Property&lt;br/&gt;3714, Careless Driving&lt;br/&gt;"/><marker lat="40.461205470859689" lng="-80.050595715016868" zone="Zone 6" incidentdate="2016-02-13" incidenttime="21:28:00" incidentnumber="16027046" address="Frustrum St &amp; Field Way" type="ARREST" age="54" gender="F" description="*********************************************** &lt;br/&gt;1543, Driving While Operating Privilege is Suspended or Revoked.&lt;br/&gt;3925, Receiving Stolen Property.&lt;br/&gt;"/></markers>
