<?xml version="1.0"?>
<markers><marker lat="40.482879021356389" lng="-80.04453300763744" zone="Zone 1" incidentdate="2015-05-30" incidenttime="18:30:00" incidentnumber="15097125" address="2000 block Termon Ave" type="OFFENSE" age="" gender="" description="*********************************************** &lt;br/&gt;029, Missing Juvenile&lt;br/&gt;"/><marker lat="40.456938679070994" lng="-79.999947636278463" zone="Zone 1" incidentdate="2015-05-30" incidenttime="04:55:00" incidentnumber="15096364" address="600 block W North Ave" type="OFFENSE" age="" gender="" description="*********************************************** &lt;br/&gt;9497, Aided Case&lt;br/&gt;"/><marker lat="40.452486528081174" lng="-79.999843372145506" zone="Zone 1" incidentdate="2015-05-30" incidenttime="14:15:00" incidentnumber="15096616" address="500 block Lockhart St" type="OFFENSE" age="" gender="" description="*********************************************** &lt;br/&gt;9999, 9999 - (Misc. Incident):&lt;br/&gt;"/><marker lat="40.482879021356389" lng="-80.04453300763744" zone="Zone 1" incidentdate="2015-05-30" incidenttime="18:30:00" incidentnumber="15097140" address="2000 block Termon Ave" type="OFFENSE" age="" gender="" description="*********************************************** &lt;br/&gt;029, Missing Juvenile&lt;br/&gt;"/><marker lat="40.448256630970178" lng="-80.014504903953679" zone="Zone 1" incidentdate="2015-05-30" incidenttime="19:40:00" incidentnumber="15096881" address="Art Rooney Ave &amp; Reedsdale St" type="OFFENSE" age="" gender="" description="*********************************************** &lt;br/&gt;5503(a)(4), DISORDERLY CONDUCT - HAZARDOUS/PHYS. OFF&lt;br/&gt;5104, Resisting Arrest or Other Law Enforcement.&lt;br/&gt;5505, Public Drunkenness&lt;br/&gt;"/><marker lat="40.469222816226129" lng="-80.030265846271092" zone="Zone 1" incidentdate="2015-05-30" incidenttime="20:30:00" incidentnumber="15096989" address="1300 block Woodland Ave" type="OFFENSE" age="" gender="" description="*********************************************** &lt;br/&gt;3921(a), Theft by Unlawful Taking or Disposition - Movable item&lt;br/&gt;"/><marker lat="40.448413339222157" lng="-80.003960216390709" zone="Zone 1" incidentdate="2015-05-30" incidenttime="16:55:00" incidentnumber="15096722" address="200 block Federal Ext N" type="OFFENSE" age="" gender="" description="*********************************************** &lt;br/&gt;5503(a)(1), DISORDERLY CONDUCT - ENGAGE IN FIGHTING&lt;br/&gt;"/><marker lat="40.45486563355756" lng="-80.013242291865367" zone="Zone 1" incidentdate="2015-05-30" incidenttime="17:30:00" incidentnumber="15096774" address="1200 block Mimosa Way" type="OFFENSE" age="" gender="" description="*********************************************** &lt;br/&gt;3921(a), Theft by Unlawful Taking or Disposition - Movable item&lt;br/&gt;"/><marker lat="40.451003452968095" lng="-80.005189077519901" zone="Zone 1" incidentdate="2015-05-30" incidenttime="14:10:00" incidentnumber="15096607" address="100 block South Commons" type="OFFENSE" age="" gender="" description="*********************************************** &lt;br/&gt;9129, Miscellaneous Investigation&lt;br/&gt;"/><marker lat="40.453539170738004" lng="-80.000575279128412" zone="Zone 1" incidentdate="2015-05-30" incidenttime="13:39:00" incidentnumber="15096587" address="500 block East Ohio St" type="OFFENSE" age="" gender="" description="*********************************************** &lt;br/&gt;903, Criminal Conspiracy.&lt;br/&gt;3929, Retail Theft.&lt;br/&gt;"/><marker lat="40.446166059953725" lng="-80.009888994199073" zone="Zone 1" incidentdate="2015-05-30" incidenttime="18:30:00" incidentnumber="15096810" address="Tony Dorsett Dr &amp; North Shore Dr" type="OFFENSE" age="" gender="" description="*********************************************** &lt;br/&gt;2702, Aggravated Assault.&lt;br/&gt;5503(a)(1), DISORDERLY CONDUCT - ENGAGE IN FIGHTING&lt;br/&gt;5505, Public Drunkenness&lt;br/&gt;5503(a)(3), DISORDERLY CONDUCT - OBSCENE LANG/GEST&lt;br/&gt;6308(a), Underage Purchase, Consume, Possessed or Transport Liquor&lt;br/&gt;"/><marker lat="40.4473455" lng="-80.0142135" zone="Zone 1" incidentdate="2015-05-30" incidenttime="21:42:00" incidentnumber="15096974" address="600 block Art Rooney Ave" type="OFFENSE" age="" gender="" description="*********************************************** &lt;br/&gt;5505, Public Drunkenness&lt;br/&gt;2701(a)(1), Simple Assault - Intent., Know., Reckless.Cause Bod. Injury&lt;br/&gt;"/><marker lat="40.484550069346753" lng="-80.035692783449747" zone="Zone 1" incidentdate="2015-05-30" incidenttime="17:35:00" incidentnumber="15096732" address="3800 block Brighton Rd" type="OFFENSE" age="" gender="" description="*********************************************** &lt;br/&gt;029, Missing Juvenile&lt;br/&gt;"/><marker lat="40.450892721440539" lng="-80.000843891836467" zone="Zone 1" incidentdate="2015-05-30" incidenttime="19:39:00" incidentnumber="15096872" address="300 block Cedar Ave" type="OFFENSE" age="" gender="" description="*********************************************** &lt;br/&gt;2709, Harassment (Non-Specific)&lt;br/&gt;"/><marker lat="40.446314652723053" lng="-80.016316228653437" zone="Zone 1" incidentdate="2015-05-30" incidenttime="22:22:00" incidentnumber="15097022" address="100 block Art Rooney Ave" type="OFFENSE" age="" gender="" description="*********************************************** &lt;br/&gt;2701, Simple Assault.&lt;br/&gt;"/><marker lat="40.446867779409757" lng="-80.020757813868244" zone="Zone 1" incidentdate="2015-05-30" incidenttime="01:30:00" incidentnumber="15096263" address="700 block Casino Dr" type="OFFENSE" age="" gender="" description="*********************************************** &lt;br/&gt;3934, Theft from Vehicle&lt;br/&gt;"/><marker lat="40.47794008604918" lng="-80.036043316036967" zone="Zone 1" incidentdate="2015-05-30" incidenttime="20:45:00" incidentnumber="15095372" address="Mc Clure Ave &amp; Hubbard St" type="OFFENSE" age="" gender="" description="*********************************************** &lt;br/&gt;2702, Aggravated Assault.&lt;br/&gt;"/><marker lat="40.446166059953725" lng="-80.009888994199073" zone="Zone 1" incidentdate="2015-05-30" incidenttime="18:50:00" incidentnumber="15096826" address="Tony Dorsett Dr &amp; North Shore Dr" type="OFFENSE" age="" gender="" description="*********************************************** &lt;br/&gt;5503, Disorderly Conduct.&lt;br/&gt;3503.B1I, DEF. TRESPASS ACTUAL COMMUNICATION&lt;br/&gt;5104, Resisting Arrest or Other Law Enforcement.&lt;br/&gt;5505, Public Drunkenness&lt;br/&gt;"/><marker lat="40.466877756870879" lng="-79.994177935104844" zone="Zone 1" incidentdate="2015-05-30" incidenttime="07:00:00" incidentnumber="15096424" address="100 block Rhine Pl" type="OFFENSE" age="" gender="" description="*********************************************** &lt;br/&gt;1543, Driving While Operating Privilege is Suspended or Revoked.&lt;br/&gt;3502, Burglary.&lt;br/&gt;3925, Receiving Stolen Property.&lt;br/&gt;3921, Theft by Unlawful Taking or Disposition.&lt;br/&gt;3304, Criminal Mischief.&lt;br/&gt;"/><marker lat="40.446314652723053" lng="-80.016316228653437" zone="Zone 1" incidentdate="2015-05-30" incidenttime="19:15:00" incidentnumber="15096864" address="100 block Art Rooney Ave" type="OFFENSE" age="" gender="" description="*********************************************** &lt;br/&gt;2709(a), Harassment.&lt;br/&gt;"/><marker lat="40.446314652723053" lng="-80.016316228653437" zone="Zone 1" incidentdate="2015-05-30" incidenttime="18:54:00" incidentnumber="15096824" address="100 block Art Rooney Ave" type="OFFENSE" age="" gender="" description="*********************************************** &lt;br/&gt;2702, Aggravated Assault.&lt;br/&gt;5503(a)(3), DISORDERLY CONDUCT - OBSCENE LANG/GEST&lt;br/&gt;5505, Public Drunkenness&lt;br/&gt;"/><marker lat="40.4486840" lng="-80.0023850" zone="Zone 1" incidentdate="2015-05-30" incidenttime="19:46:00" incidentnumber="15096874" address="General Robinson St W" type="OFFENSE" age="" gender="" description="*********************************************** &lt;br/&gt;2702, Aggravated Assault.&lt;br/&gt;6308(a), Underage Purchase, Consume, Possessed or Transport Liquor&lt;br/&gt;5503, Disorderly Conduct.&lt;br/&gt;5505, Public Drunkenness&lt;br/&gt;"/><marker lat="40.4472527" lng="-80.0103051" zone="Zone 1" incidentdate="2015-05-30" incidenttime="20:20:00" incidentnumber="15096910" address="General Robinson St W &amp; Tony Dorsett Dr" type="OFFENSE" age="" gender="" description="*********************************************** &lt;br/&gt;5503, Disorderly Conduct.&lt;br/&gt;3503.B1I, DEF. TRESPASS ACTUAL COMMUNICATION&lt;br/&gt;"/><marker lat="40.453470511792048" lng="-80.001533243378148" zone="Zone 1" incidentdate="2015-05-30" incidenttime="14:15:00" incidentnumber="15096608" address="400 block East Ohio St" type="OFFENSE" age="" gender="" description="*********************************************** &lt;br/&gt;9999, 9999 - (Misc. Incident):&lt;br/&gt;"/><marker lat="40.482879021356389" lng="-80.04453300763744" zone="Zone 1" incidentdate="2015-05-30" incidenttime="02:30:00" incidentnumber="15096293" address="2000 block Termon Ave" type="OFFENSE" age="" gender="" description="*********************************************** &lt;br/&gt;029, Missing Juvenile&lt;br/&gt;"/><marker lat="40.455504998738647" lng="-80.007850467221047" zone="Zone 1" incidentdate="2015-05-30" incidenttime="19:00:00" incidentnumber="15096834" address="100 block North Shore Dr" type="OFFENSE" age="" gender="" description="*********************************************** &lt;br/&gt;601.16, Public Urination And Defecation&lt;br/&gt;"/><marker lat="40.4539247715024" lng="-79.997839351546148" zone="Zone 1" incidentdate="2015-05-30" incidenttime="09:50:00" incidentnumber="15096439" address="East St &amp; East Ohio St" type="OFFENSE" age="" gender="" description="*********************************************** &lt;br/&gt;5505, Public Drunkenness&lt;br/&gt;"/><marker lat="40.481062354176309" lng="-80.037922044038851" zone="Zone 1" incidentdate="2015-05-30" incidenttime="12:32:00" incidentnumber="15096550" address="1500 block Davis Ave" type="OFFENSE" age="" gender="" description="*********************************************** &lt;br/&gt;94951, Attempted Suicide&lt;br/&gt;"/><marker lat="40.455273086676286" lng="-80.008870414965187" zone="Zone 1" incidentdate="2015-05-30" incidenttime="19:30:00" incidentnumber="15096856" address="200 block North Shore Dr" type="OFFENSE" age="" gender="" description="*********************************************** &lt;br/&gt;5503, Disorderly Conduct.&lt;br/&gt;"/><marker lat="40.4472527" lng="-80.0103051" zone="Zone 1" incidentdate="2015-05-30" incidenttime="20:20:00" incidentnumber="15096910" address="General Robinson St W &amp; Tony Dorsett Dr" type="ARREST" age="20" gender="M" description="*********************************************** &lt;br/&gt;5503, Disorderly Conduct.&lt;br/&gt;3503.B1I, DEF. TRESPASS ACTUAL COMMUNICATION&lt;br/&gt;"/><marker lat="40.47794008604918" lng="-80.036043316036967" zone="Zone 1" incidentdate="2015-05-30" incidenttime="21:00:00" incidentnumber="15095372" address="Mc Clure Ave &amp; Hubbard St" type="ARREST" age="35" gender="M" description="*********************************************** &lt;br/&gt;2702, Aggravated Assault.&lt;br/&gt;"/><marker lat="40.446314652723053" lng="-80.016316228653437" zone="Zone 1" incidentdate="2015-05-30" incidenttime="18:54:00" incidentnumber="15096824" address="100 block Art Rooney Ave" type="ARREST" age="22" gender="M" description="*********************************************** &lt;br/&gt;2702, Aggravated Assault.&lt;br/&gt;5503(a)(3), DISORDERLY CONDUCT - OBSCENE LANG/GEST&lt;br/&gt;5505, Public Drunkenness&lt;br/&gt;"/><marker lat="40.448256630970178" lng="-80.014504903953679" zone="Zone 1" incidentdate="2015-05-30" incidenttime="19:40:00" incidentnumber="15096881" address="Art Rooney Ave &amp; Reedsdale St" type="ARREST" age="22" gender="M" description="*********************************************** &lt;br/&gt;5503(a)(4), DISORDERLY CONDUCT - HAZARDOUS/PHYS. OFF&lt;br/&gt;5104, Resisting Arrest or Other Law Enforcement.&lt;br/&gt;5505, Public Drunkenness&lt;br/&gt;"/><marker lat="40.456515048695316" lng="-80.016515559088219" zone="Zone 1" incidentdate="2015-05-30" incidenttime="10:15:00" incidentnumber="15096062" address="1500 block Brighton Rd" type="ARREST" age="26" gender="M" description="*********************************************** &lt;br/&gt;4304(a)(1), Endangering Welfare of Children - Course of Conduct Enhanced&lt;br/&gt;2706, Terroristic Threats.&lt;br/&gt;2705, Recklessly Endangering Another Person.&lt;br/&gt;"/><marker lat="40.446166059953725" lng="-80.009888994199073" zone="Zone 1" incidentdate="2015-05-30" incidenttime="18:50:00" incidentnumber="15096826" address="Tony Dorsett Dr &amp; North Shore Dr" type="ARREST" age="27" gender="M" description="*********************************************** &lt;br/&gt;5503, Disorderly Conduct.&lt;br/&gt;3503.B1I, DEF. TRESPASS ACTUAL COMMUNICATION&lt;br/&gt;5104, Resisting Arrest or Other Law Enforcement.&lt;br/&gt;5505, Public Drunkenness&lt;br/&gt;"/><marker lat="40.466877756870879" lng="-79.994177935104844" zone="Zone 1" incidentdate="2015-05-30" incidenttime="09:30:00" incidentnumber="15096424" address="100 block Rhine Pl" type="ARREST" age="39" gender="M" description="*********************************************** &lt;br/&gt;1543, Driving While Operating Privilege is Suspended or Revoked.&lt;br/&gt;3502, Burglary.&lt;br/&gt;3925, Receiving Stolen Property.&lt;br/&gt;3921, Theft by Unlawful Taking or Disposition.&lt;br/&gt;3304, Criminal Mischief.&lt;br/&gt;"/><marker lat="40.446314652723053" lng="-80.016316228653437" zone="Zone 1" incidentdate="2015-05-30" incidenttime="22:22:00" incidentnumber="15097022" address="100 block Art Rooney Ave" type="ARREST" age="24" gender="M" description="*********************************************** &lt;br/&gt;2701, Simple Assault.&lt;br/&gt;"/><marker lat="40.446166059953725" lng="-80.009888994199073" zone="Zone 1" incidentdate="2015-05-30" incidenttime="18:30:00" incidentnumber="15096810" address="Tony Dorsett Dr &amp; North Shore Dr" type="ARREST" age="20" gender="M" description="*********************************************** &lt;br/&gt;2702, Aggravated Assault.&lt;br/&gt;5503(a)(1), DISORDERLY CONDUCT - ENGAGE IN FIGHTING&lt;br/&gt;5505, Public Drunkenness&lt;br/&gt;5503(a)(3), DISORDERLY CONDUCT - OBSCENE LANG/GEST&lt;br/&gt;6308(a), Underage Purchase, Consume, Possessed or Transport Liquor&lt;br/&gt;"/><marker lat="40.4486840" lng="-80.0023850" zone="Zone 1" incidentdate="2015-05-30" incidenttime="19:52:00" incidentnumber="15096874" address="General Robinson St W" type="ARREST" age="20" gender="M" description="*********************************************** &lt;br/&gt;2702, Aggravated Assault.&lt;br/&gt;6308(a), Underage Purchase, Consume, Possessed or Transport Liquor&lt;br/&gt;5503, Disorderly Conduct.&lt;br/&gt;5505, Public Drunkenness&lt;br/&gt;"/><marker lat="40.4473455" lng="-80.0142135" zone="Zone 1" incidentdate="2015-05-30" incidenttime="21:50:00" incidentnumber="15096974" address="600 block Art Rooney Ave" type="ARREST" age="30" gender="M" description="*********************************************** &lt;br/&gt;5505, Public Drunkenness&lt;br/&gt;2701(a)(1), Simple Assault - Intent., Know., Reckless.Cause Bod. Injury&lt;br/&gt;"/></markers>
