<?xml version="1.0"?>
<markers><marker lat="40.465943396572442" lng="-79.939607844547595" zone="Zone 5" incidentdate="2015-10-03" incidenttime="16:45:00" incidentnumber="15189332" address="5200 block Broad St" type="OFFENSE" age="" gender="" description="*********************************************** &lt;br/&gt;13(a)(31), Marijuana: Possession Small Amount&lt;br/&gt;13(a)(31)*, Hashish - Possession Small Amount&lt;br/&gt;"/><marker lat="40.458148368813362" lng="-79.963906153751225" zone="Zone 2" incidentdate="2015-10-03" incidenttime="03:00:00" incidentnumber="15188976" address="1100 block Herron Ave" type="OFFENSE" age="" gender="" description="*********************************************** &lt;br/&gt;9497, Aided Case&lt;br/&gt;"/><marker lat="40.481583309275557" lng="-80.034945863177782" zone="Zone 1" incidentdate="2015-10-03" incidenttime="09:45:00" incidentnumber="15189108" address="1300 block Davis Ave" type="OFFENSE" age="" gender="" description="*********************************************** &lt;br/&gt;9999, 9999 - (Misc. Incident):&lt;br/&gt;"/><marker lat="40.441650742650353" lng="-79.999451753561061" zone="Zone 2" incidentdate="2015-10-03" incidenttime="19:30:00" incidentnumber="15189379" address="300 block 6th Ave" type="OFFENSE" age="" gender="" description="*********************************************** &lt;br/&gt;5123, Contraband.&lt;br/&gt;13(a)(16), Possession of Controlled Substance&lt;br/&gt;3929(a)(2), Retail Theft; alters  transfers  or removes label  price tag&lt;br/&gt;"/><marker lat="40.44607162104321" lng="-79.904200595251737" zone="Zone 4" incidentdate="2015-10-03" incidenttime="17:55:00" incidentnumber="15189362" address="400 block N Homewood Ave" type="OFFENSE" age="" gender="" description="*********************************************** &lt;br/&gt;2709(a)(1), Harassment by Physical Contact, or Attempts or Threats&lt;br/&gt;"/><marker lat="40.469222816226129" lng="-80.030265846271092" zone="Zone 1" incidentdate="2015-10-03" incidenttime="05:23:00" incidentnumber="15189058" address="1300 block Woodland Ave" type="OFFENSE" age="" gender="" description="*********************************************** &lt;br/&gt;9498, 302 (Mental)&lt;br/&gt;"/><marker lat="40.450083821549214" lng="-80.053079992828629" zone="Zone 6" incidentdate="2015-10-03" incidenttime="13:43:00" incidentnumber="15189258" address="700 block Fairston St" type="OFFENSE" age="" gender="" description="*********************************************** &lt;br/&gt;9093, Indirect Criminal Contempt&lt;br/&gt;"/><marker lat="40.43676047145032" lng="-80.00094488097487" zone="Zone 2" incidentdate="2015-10-03" incidenttime="17:00:00" incidentnumber="15189339" address="Smithfield St" type="OFFENSE" age="" gender="" description="*********************************************** &lt;br/&gt;3743, Accidents Involving Damage to Attended Veh. or Property&lt;br/&gt;"/><marker lat="40.455632503506003" lng="-79.902208453906297" zone="Zone 5" incidentdate="2015-10-03" incidenttime="14:15:00" incidentnumber="15189265" address="7000 block Hamilton Ave" type="OFFENSE" age="" gender="" description="*********************************************** &lt;br/&gt;9093, Indirect Criminal Contempt&lt;br/&gt;"/><marker lat="40.454837819591759" lng="-79.898465695785092" zone="Zone 5" incidentdate="2015-10-03" incidenttime="21:47:00" incidentnumber="15189481" address="Hamilton Ave &amp; Clawson St" type="OFFENSE" age="" gender="" description="*********************************************** &lt;br/&gt;13(a)(31), Marijuana: Possession Small Amount&lt;br/&gt;1543, Driving While Operating Privilege is Suspended or Revoked.&lt;br/&gt;1371, Operation Following Suspension of Registration.&lt;br/&gt;"/><marker lat="40.444979591300005" lng="-79.995851145466062" zone="Zone 2" incidentdate="2015-10-03" incidenttime="22:30:00" incidentnumber="15189572" address="French St &amp; 10th St" type="OFFENSE" age="" gender="" description="*********************************************** &lt;br/&gt;3304, Criminal Mischief.&lt;br/&gt;"/><marker lat="40.438021475291286" lng="-79.923054287889642" zone="Zone 4" incidentdate="2015-10-03" incidenttime="11:58:00" incidentnumber="15189226" address="1700 block Murray Ave" type="OFFENSE" age="" gender="" description="*********************************************** &lt;br/&gt;3924, Theft of Property Lost, Mislaid or Delivered by Mistake.&lt;br/&gt;"/><marker lat="40.386076179656733" lng="-80.009130437106137" zone="Zone 6" incidentdate="2015-10-03" incidenttime="23:31:00" incidentnumber="15189545" address="1700 block Seaton St" type="OFFENSE" age="" gender="" description="*********************************************** &lt;br/&gt;2701, Simple Assault.&lt;br/&gt;"/><marker lat="40.4358908" lng="-79.9553238" zone="Zone 4" incidentdate="2015-10-03" incidenttime="02:45:00" incidentnumber="15189014" address="Welsford St" type="OFFENSE" age="" gender="" description="*********************************************** &lt;br/&gt;3503, Criminal Trespass&lt;br/&gt;"/><marker lat="40.451209746298005" lng="-80.021965140261187" zone="Zone 1" incidentdate="2015-10-03" incidenttime="00:21:00" incidentnumber="15188907" address="1200 block Western Ave" type="OFFENSE" age="" gender="" description="*********************************************** &lt;br/&gt;601.16, Public Urination And Defecation&lt;br/&gt;13(a)(31), Marijuana: Possession Small Amount&lt;br/&gt;1543, Driving While Operating Privilege is Suspended or Revoked.&lt;br/&gt;3802(a)(1), DUI - General Impairment&lt;br/&gt;3802(b), DUI - High Rate of Alchol - BAC &gt;=.10% &lt;.16%&lt;br/&gt;4914, False Identification to Law Enforcement Authorities&lt;br/&gt;"/><marker lat="40.454016520179565" lng="-79.895644292400064" zone="Zone 5" incidentdate="2015-10-03" incidenttime="03:12:00" incidentnumber="15189005" address="7300 block Hamilton Ave" type="OFFENSE" age="" gender="" description="*********************************************** &lt;br/&gt;6106, Firearms not to be Carried without a License.&lt;br/&gt;2701, Simple Assault.&lt;br/&gt;3925, Receiving Stolen Property.&lt;br/&gt;"/><marker lat="40.451976181737152" lng="-79.887683132812384" zone="Zone 5" incidentdate="2015-10-03" incidenttime="08:18:00" incidentnumber="15189084" address="Mulford St &amp; Hale St" type="OFFENSE" age="" gender="" description="*********************************************** &lt;br/&gt;5902(a)(2), Prostitution - Loitering for purpose of&lt;br/&gt;"/><marker lat="40.467641140354559" lng="-79.916434400259632" zone="Zone 5" incidentdate="2015-10-03" incidenttime="20:30:00" incidentnumber="15189443" address="Meadow St &amp; St Marie St" type="OFFENSE" age="" gender="" description="*********************************************** &lt;br/&gt;13(a)(31), Marijuana: Possession Small Amount&lt;br/&gt;1501, Drivers Required to be Licensed.&lt;br/&gt;"/><marker lat="40.426340817055319" lng="-79.988710303817541" zone="Zone 3" incidentdate="2015-10-03" incidenttime="09:00:00" incidentnumber="15189134" address="S 10th St" type="OFFENSE" age="" gender="" description="*********************************************** &lt;br/&gt;3934, Theft from Vehicle&lt;br/&gt;"/><marker lat="40.443336606679345" lng="-80.028791309734899" zone="Zone 3" incidentdate="2015-10-03" incidenttime="12:05:00" incidentnumber="15189422" address="S Main St &amp; West End Cir" type="OFFENSE" age="" gender="" description="*********************************************** &lt;br/&gt;3743, Accidents Involving Damage to Attended Veh. or Property&lt;br/&gt;"/><marker lat="40.489406196112874" lng="-79.927207545638666" zone="Zone 5" incidentdate="2015-10-03" incidenttime="21:00:00" incidentnumber="15189482" address="6800 block Butler St" type="OFFENSE" age="" gender="" description="*********************************************** &lt;br/&gt;3745, Accidents Involving Damage to Unattended Veh.or Prop.&lt;br/&gt;"/><marker lat="40.453470511792048" lng="-80.001533243378148" zone="Zone 1" incidentdate="2015-10-03" incidenttime="12:20:00" incidentnumber="15189238" address="400 block East Ohio St" type="OFFENSE" age="" gender="" description="*********************************************** &lt;br/&gt;3304(a)(5), CRIMINAL MISCHIEF - Intentionally Damages Real Or Personal Property Of Another&lt;br/&gt;"/><marker lat="40.428815176198341" lng="-79.983424931589681" zone="Zone 3" incidentdate="2015-10-03" incidenttime="00:10:00" incidentnumber="15189325" address="E Carson St &amp; S 15th St" type="OFFENSE" age="" gender="" description="*********************************************** &lt;br/&gt;601.08(a), Alcohol or Liquor Consumption on Streets or Sidewalks&lt;br/&gt;"/><marker lat="40.47045804777099" lng="-80.027278420865969" zone="Zone 1" incidentdate="2015-10-03" incidenttime="17:15:00" incidentnumber="15189353" address="2800 block Stayton St" type="OFFENSE" age="" gender="" description="*********************************************** &lt;br/&gt;3736, Reckless Driving&lt;br/&gt;3925, Receiving Stolen Property.&lt;br/&gt;3921, Theft by Unlawful Taking or Disposition.&lt;br/&gt;3733, Fleeing or Attempting to Elude Police Officer&lt;br/&gt;3323, Stop Signs and Yield Signs.&lt;br/&gt;"/><marker lat="40.452204120365515" lng="-79.889387792877429" zone="Zone 5" incidentdate="2015-10-03" incidenttime="08:36:00" incidentnumber="15189091" address="Brushton Ave &amp; Mulford St" type="OFFENSE" age="" gender="" description="*********************************************** &lt;br/&gt;5902(a)(2), Prostitution - Loitering for purpose of&lt;br/&gt;13(a)(32), Paraphernalia - Use or Possession&lt;br/&gt;"/><marker lat="40.41196498488614" lng="-80.044137945154048" zone="Zone 6" incidentdate="2015-10-03" incidenttime="16:55:00" incidentnumber="15189342" address="2600 block Winchester Dr" type="OFFENSE" age="" gender="" description="*********************************************** &lt;br/&gt;3921, Theft by Unlawful Taking or Disposition.&lt;br/&gt;"/><marker lat="40.434815524516068" lng="-80.007911922098458" zone="Zone 3" incidentdate="2015-10-03" incidenttime="09:55:00" incidentnumber="15189118" address="Station Square Dr E" type="OFFENSE" age="" gender="" description="*********************************************** &lt;br/&gt;3701, Robbery.&lt;br/&gt;"/><marker lat="40.4321183" lng="-80.0039251" zone="Zone 3" incidentdate="2015-10-03" incidenttime="12:15:00" incidentnumber="15189198" address="W Carson St &amp; Smithfield St Brg" type="OFFENSE" age="" gender="" description="*********************************************** &lt;br/&gt;3743, Accidents Involving Damage to Attended Veh. or Property&lt;br/&gt;"/><marker lat="40.405788438531324" lng="-79.933411006422901" zone="Zone 4" incidentdate="2015-10-03" incidenttime="21:25:00" incidentnumber="15189437" address="700 block Johnston Ave" type="OFFENSE" age="" gender="" description="*********************************************** &lt;br/&gt;029, Missing Juvenile&lt;br/&gt;"/><marker lat="40.4600940" lng="-79.9238524" zone="Zone 4" incidentdate="2015-10-03" incidenttime="10:23:00" incidentnumber="15189206" address="6300 block Shakespeare St" type="OFFENSE" age="" gender="" description="*********************************************** &lt;br/&gt;3929, Retail Theft.&lt;br/&gt;"/><marker lat="40.456974377074289" lng="-80.008241816582625" zone="Zone 1" incidentdate="2015-10-03" incidenttime="22:07:00" incidentnumber="15189510" address="1300 block Reddour St" type="OFFENSE" age="" gender="" description="*********************************************** &lt;br/&gt;2706, Terroristic Threats.&lt;br/&gt;"/><marker lat="40.439223017343117" lng="-80.055588494820356" zone="Zone 6" incidentdate="2015-10-03" incidenttime="15:00:00" incidentnumber="15188851" address="100 block Elmont St" type="OFFENSE" age="" gender="" description="*********************************************** &lt;br/&gt;2707.1, Discharge of a Firearm into Occupied Structure&lt;br/&gt;2705, Recklessly Endangering Another Person.&lt;br/&gt;"/><marker lat="40.4460973" lng="-80.0103369" zone="Zone 1" incidentdate="2015-10-03" incidenttime="06:34:00" incidentnumber="15189067" address="300 block North Shore Dr" type="OFFENSE" age="" gender="" description="*********************************************** &lt;br/&gt;9488, False  Burglar Alarm&lt;br/&gt;"/><marker lat="40.459960660424144" lng="-79.897653899071486" zone="Zone 5" incidentdate="2015-10-03" incidenttime="21:20:00" incidentnumber="15189478" address="7100 block Monticello St" type="OFFENSE" age="" gender="" description="*********************************************** &lt;br/&gt;029, Missing Juvenile&lt;br/&gt;"/><marker lat="40.463620045534832" lng="-80.005817430079929" zone="Zone 1" incidentdate="2015-10-03" incidenttime="07:55:00" incidentnumber="15189079" address="300 block Rising Main Ave" type="OFFENSE" age="" gender="" description="*********************************************** &lt;br/&gt;9999, 9999 - (Misc. Incident):&lt;br/&gt;"/><marker lat="40.482879021356389" lng="-80.04453300763744" zone="Zone 1" incidentdate="2015-10-03" incidenttime="20:30:00" incidentnumber="15189451" address="2000 block Termon Ave" type="OFFENSE" age="" gender="" description="*********************************************** &lt;br/&gt;029, Missing Juvenile&lt;br/&gt;"/><marker lat="40.4620994" lng="-79.9883381" zone="Zone 1" incidentdate="2015-10-03" incidenttime="19:00:00" incidentnumber="15189405" address="200 block Homer St" type="OFFENSE" age="" gender="" description="*********************************************** &lt;br/&gt;2702, Aggravated Assault.&lt;br/&gt;"/><marker lat="40.456564641128566" lng="-79.871361460228911" zone="Zone 5" incidentdate="2015-10-03" incidenttime="01:10:00" incidentnumber="15156695" address="2300 block East Hills Dr" type="OFFENSE" age="" gender="" description="*********************************************** &lt;br/&gt;7513, Restriction on Alcoholic Beverages - Open Container&lt;br/&gt;9015, Failure To Appear/Arrest on Attachment Order&lt;br/&gt;13(a)(31), Marijuana: Possession Small Amount&lt;br/&gt;13(a)(32), Paraphernalia - Use or Possession&lt;br/&gt;4703, Operation of Vehicle without Official Certif. of Inspection&lt;br/&gt;4303, General Lighting Requirements.&lt;br/&gt;"/><marker lat="40.428815176198341" lng="-79.983424931589681" zone="Zone 3" incidentdate="2015-10-03" incidenttime="00:13:00" incidentnumber="15188899" address="S 15th St &amp; E Carson St" type="OFFENSE" age="" gender="" description="*********************************************** &lt;br/&gt;2709(a)(1), Harassment by Physical Contact, or Attempts or Threats&lt;br/&gt;3503.B1I, DEF. TRESPASS ACTUAL COMMUNICATION&lt;br/&gt;5104, Resisting Arrest or Other Law Enforcement.&lt;br/&gt;5503(a)(4), DISORDERLY CONDUCT - HAZARDOUS/PHYS. OFF&lt;br/&gt;5505, Public Drunkenness&lt;br/&gt;"/><marker lat="40.420388891951291" lng="-80.073971932500669" zone="Zone 6" incidentdate="2015-10-03" incidenttime="17:30:00" incidentnumber="15189345" address="1400 block Idlewood Rd" type="OFFENSE" age="" gender="" description="*********************************************** &lt;br/&gt;9497, Aided Case&lt;br/&gt;"/><marker lat="40.495010404156623" lng="-80.024557906702739" zone="Zone 1" incidentdate="2015-10-03" incidenttime="01:55:00" incidentnumber="15188949" address="200 block Perry View Ave" type="OFFENSE" age="" gender="" description="*********************************************** &lt;br/&gt;9488, False  Burglar Alarm&lt;br/&gt;"/><marker lat="40.464561726531436" lng="-79.982254922088444" zone="Zone 1" incidentdate="2015-10-03" incidenttime="23:31:00" incidentnumber="15189546" address="1800 block Ley St" type="OFFENSE" age="" gender="" description="*********************************************** &lt;br/&gt;3702, Robbery of Motor Vehicle.&lt;br/&gt;2701, Simple Assault.&lt;br/&gt;"/><marker lat="40.44110521334575" lng="-79.996766181677742" zone="Zone 2" incidentdate="2015-10-03" incidenttime="15:30:00" incidentnumber="15189323" address="6th Ave &amp; William Penn Pl" type="OFFENSE" age="" gender="" description="*********************************************** &lt;br/&gt;3304, Criminal Mischief.&lt;br/&gt;"/><marker lat="40.452648091849653" lng="-79.928563672589007" zone="Zone 4" incidentdate="2015-10-03" incidenttime="16:50:00" incidentnumber="15189347" address="5800 block Walnut St" type="OFFENSE" age="" gender="" description="*********************************************** &lt;br/&gt;3745, Accidents Involving Damage to Unattended Veh.or Prop.&lt;br/&gt;"/><marker lat="40.430020824945359" lng="-79.976813326700821" zone="Zone 3" incidentdate="2015-10-03" incidenttime="19:42:00" incidentnumber="15189429" address="2000 block Wharton Sq" type="OFFENSE" age="" gender="" description="*********************************************** &lt;br/&gt;3929, Retail Theft.&lt;br/&gt;"/><marker lat="40.455632503506003" lng="-79.902208453906297" zone="Zone 5" incidentdate="2015-10-03" incidenttime="03:02:00" incidentnumber="15188995" address="7000 block Hamilton Ave" type="OFFENSE" age="" gender="" description="*********************************************** &lt;br/&gt;2702, Aggravated Assault.&lt;br/&gt;907, Possessing Instruments of Crime.&lt;br/&gt;901, Criminal Attempt&lt;br/&gt;"/><marker lat="40.439223017343117" lng="-80.055588494820356" zone="Zone 6" incidentdate="2015-10-03" incidenttime="16:15:00" incidentnumber="15189174" address="100 block Elmont St" type="OFFENSE" age="" gender="" description="*********************************************** &lt;br/&gt;13(a)(16), Possession of Controlled Substance&lt;br/&gt;4304(a)(1) Enhanced, Welfare of Children - Course of Conduct&lt;br/&gt;13(a)(32), Paraphernalia - Use or Possession&lt;br/&gt;"/><marker lat="40.448037060322477" lng="-80.017825828663618" zone="Zone 1" incidentdate="2015-10-03" incidenttime="23:55:00" incidentnumber="15189561" address="Allegheny Ave &amp; Reedsdale St" type="OFFENSE" age="" gender="" description="*********************************************** &lt;br/&gt;2709, Harassment (Non-Specific)&lt;br/&gt;"/><marker lat="40.394706591698444" lng="-80.023093056198235" zone="Zone 6" incidentdate="2015-10-03" incidenttime="07:25:00" incidentnumber="15189318" address="600 block Berkshire Ave" type="OFFENSE" age="" gender="" description="*********************************************** &lt;br/&gt;3745, Accidents Involving Damage to Unattended Veh.or Prop.&lt;br/&gt;"/><marker lat="40.4067070" lng="-79.9319888" zone="Zone 4" incidentdate="2015-10-03" incidenttime="11:03:00" incidentnumber="15189150" address="Rosselle Dr" type="OFFENSE" age="" gender="" description="*********************************************** &lt;br/&gt;3502, Burglary.&lt;br/&gt;2701, Simple Assault.&lt;br/&gt;"/><marker lat="40.421796968159853" lng="-80.012747466268337" zone="Zone 3" incidentdate="2015-10-03" incidenttime="07:00:00" incidentnumber="15189083" address="600 block Southern Ave" type="OFFENSE" age="" gender="" description="*********************************************** &lt;br/&gt;3921, Theft by Unlawful Taking or Disposition.&lt;br/&gt;"/><marker lat="40.4662351" lng="-79.8885959" zone="Zone 5" incidentdate="2015-10-03" incidenttime="16:00:00" incidentnumber="15189313" address="Lemington Ave &amp; Brushton Ave" type="OFFENSE" age="" gender="" description="*********************************************** &lt;br/&gt;3743, Accidents Involving Damage to Attended Veh. or Property&lt;br/&gt;"/><marker lat="40.455716726660036" lng="-80.022680934549243" zone="Zone 1" incidentdate="2015-10-03" incidenttime="11:37:00" incidentnumber="15189173" address="1500 block Sedgwick St" type="OFFENSE" age="" gender="" description="*********************************************** &lt;br/&gt;9497, Aided Case&lt;br/&gt;"/><marker lat="40.404822944398759" lng="-79.934938582152668" zone="Zone 4" incidentdate="2015-10-03" incidenttime="17:40:00" incidentnumber="15189366" address="600 block Johnston Ave" type="OFFENSE" age="" gender="" description="*********************************************** &lt;br/&gt;4910, Tampering with or Fabricating Physical Evidence.&lt;br/&gt;6110.1, Possesion of Firearm by Minor&lt;br/&gt;3925, Receiving Stolen Property.&lt;br/&gt;6106, Firearms not to be Carried without a License.&lt;br/&gt;"/><marker lat="40.441919441965581" lng="-79.982892744621594" zone="Zone 2" incidentdate="2015-10-03" incidenttime="19:08:00" incidentnumber="15189413" address="1800 block Centre Ave" type="OFFENSE" age="" gender="" description="*********************************************** &lt;br/&gt;3925, Receiving Stolen Property.&lt;br/&gt;"/><marker lat="40.456633448414188" lng="-79.936435139782176" zone="Zone 4" incidentdate="2015-10-03" incidenttime="16:20:00" incidentnumber="15189293" address="5500 block Centre Ave" type="OFFENSE" age="" gender="" description="*********************************************** &lt;br/&gt;2709(a)(1), Harassment by Physical Contact, or Attempts or Threats&lt;br/&gt;3503(b.1), Criminal Trespass - Simple Trespasser&lt;br/&gt;5505, Public Drunkenness&lt;br/&gt;4914, False Identification to Law Enforcement Authorities&lt;br/&gt;2709.2, Stalking Conduct or Repeatedly Communicates&lt;br/&gt;"/><marker lat="40.4380405888122" lng="-79.919359578436541" zone="Zone 4" incidentdate="2015-10-03" incidenttime="17:53:00" incidentnumber="15189375" address="Forbes Ave &amp; Shady Ave" type="OFFENSE" age="" gender="" description="*********************************************** &lt;br/&gt;2701, Simple Assault.&lt;br/&gt;3701, Robbery.&lt;br/&gt;903, Criminal Conspiracy.&lt;br/&gt;"/><marker lat="40.42914633469568" lng="-79.937419161955091" zone="Zone 4" incidentdate="2015-10-03" incidenttime="04:20:00" incidentnumber="15189034" address="5300 block Pocussett St" type="OFFENSE" age="" gender="" description="*********************************************** &lt;br/&gt;3502, Burglary.&lt;br/&gt;"/><marker lat="40.456290389338946" lng="-79.940812475330176" zone="Zone 5" incidentdate="2015-10-03" incidenttime="05:16:00" incidentnumber="15189054" address="Powhattan St &amp; Baum Blvd" type="OFFENSE" age="" gender="" description="*********************************************** &lt;br/&gt;3326, Duty of Driver in Construction and Maintenance Areas.&lt;br/&gt;2705, Recklessly Endangering Another Person.&lt;br/&gt;3802(a)(1), DUI - General Impairment&lt;br/&gt;3802(c), DUI - Highest Rate of Alcohol - BAC &gt;= .16%&lt;br/&gt;3361, Driving Vehicle at Safe Speed.&lt;br/&gt;3736, Reckless Driving&lt;br/&gt;"/><marker lat="40.452978759474085" lng="-79.909818228068545" zone="Zone 4" incidentdate="2015-10-03" incidenttime="12:00:00" incidentnumber="15189230" address="6800 block Meade St" type="OFFENSE" age="" gender="" description="*********************************************** &lt;br/&gt;3745, Accidents Involving Damage to Unattended Veh.or Prop.&lt;br/&gt;"/><marker lat="40.41136888220619" lng="-79.990299456571108" zone="Zone 3" incidentdate="2015-10-03" incidenttime="11:00:00" incidentnumber="15189186" address="200 block Knox Ave" type="OFFENSE" age="" gender="" description="*********************************************** &lt;br/&gt;3304, Criminal Mischief.&lt;br/&gt;"/><marker lat="40.42127287812697" lng="-79.992005012476255" zone="Zone 3" incidentdate="2015-10-03" incidenttime="12:30:00" incidentnumber="15189217" address="900 block Manton Way" type="OFFENSE" age="" gender="" description="*********************************************** &lt;br/&gt;13(a)(31), Marijuana: Possession Small Amount&lt;br/&gt;"/><marker lat="40.482879021356389" lng="-80.04453300763744" zone="Zone 1" incidentdate="2015-10-03" incidenttime="00:21:00" incidentnumber="15188900" address="2000 block Termon Ave" type="OFFENSE" age="" gender="" description="*********************************************** &lt;br/&gt;029, Missing Juvenile&lt;br/&gt;"/><marker lat="40.39512114848344" lng="-79.991336756605349" zone="Zone 3" incidentdate="2015-10-03" incidenttime="12:00:00" incidentnumber="15189282" address="300 block Copperfield Ave" type="OFFENSE" age="" gender="" description="*********************************************** &lt;br/&gt;3745, Accidents Involving Damage to Unattended Veh.or Prop.&lt;br/&gt;"/><marker lat="40.456564641128566" lng="-79.871361460228911" zone="Zone 5" incidentdate="2015-10-03" incidenttime="01:10:00" incidentnumber="15188925" address="2300 block East Hills Dr" type="OFFENSE" age="" gender="" description="*********************************************** &lt;br/&gt;13(a)(31), Marijuana: Possession Small Amount&lt;br/&gt;4303, General Lighting Requirements.&lt;br/&gt;"/><marker lat="40.454347772693907" lng="-80.00083786956381" zone="Zone 1" incidentdate="2015-10-03" incidenttime="01:10:00" incidentnumber="15188933" address="500 block Foreland St" type="OFFENSE" age="" gender="" description="*********************************************** &lt;br/&gt;9496, Dead on Arrival (DOA)&lt;br/&gt;"/><marker lat="40.391684428390249" lng="-80.023820275826466" zone="Zone 6" incidentdate="2015-10-03" incidenttime="16:00:00" incidentnumber="15189295" address="800 block Fordham St" type="OFFENSE" age="" gender="" description="*********************************************** &lt;br/&gt;9497, Aided Case&lt;br/&gt;"/><marker lat="40.43654463050671" lng="-79.998648386275931" zone="Zone 2" incidentdate="2015-10-03" incidenttime="13:20:00" incidentnumber="15189237" address="100 block Grant St" type="OFFENSE" age="" gender="" description="*********************************************** &lt;br/&gt;3701, Robbery.&lt;br/&gt;"/><marker lat="40.434209319626923" lng="-80.005743364413775" zone="Zone 3" incidentdate="2015-10-03" incidenttime="19:57:00" incidentnumber="15189433" address="200 block Station Square Dr W" type="OFFENSE" age="" gender="" description="*********************************************** &lt;br/&gt;3921(a), Theft by Unlawful Taking or Disposition - Movable item&lt;br/&gt;"/><marker lat="40.4415422" lng="-79.9569754" zone="Zone 4" incidentdate="2015-10-03" incidenttime="02:55:00" incidentnumber="15189007" address="200 block Oakland Ave" type="OFFENSE" age="" gender="" description="*********************************************** &lt;br/&gt;2709(a)(3), Harassment No Legitimate Purpose&lt;br/&gt;3503, Criminal Trespass&lt;br/&gt;2709(b), Stalking&lt;br/&gt;"/><marker lat="40.445590651116305" lng="-79.949387243364313" zone="Zone 4" incidentdate="2015-10-03" incidenttime="09:20:00" incidentnumber="15189247" address="300 block S Craig St" type="OFFENSE" age="" gender="" description="*********************************************** &lt;br/&gt;3921(a), Theft by Unlawful Taking or Disposition - Movable item&lt;br/&gt;"/><marker lat="40.426009933245261" lng="-79.98216288611772" zone="Zone 3" incidentdate="2015-10-03" incidenttime="17:38:00" incidentnumber="15189364" address="1700 block Mary St" type="OFFENSE" age="" gender="" description="*********************************************** &lt;br/&gt;9489, Found Property&lt;br/&gt;"/><marker lat="40.441987095894468" lng="-80.039787182635294" zone="Zone 6" incidentdate="2015-10-03" incidenttime="01:46:00" incidentnumber="15188951" address="800 block Crucible St" type="OFFENSE" age="" gender="" description="*********************************************** &lt;br/&gt;13(a)(32), Paraphernalia - Use or Possession&lt;br/&gt;"/><marker lat="40.471012276973703" lng="-80.016772844247583" zone="Zone 1" incidentdate="2015-10-03" incidenttime="09:10:00" incidentnumber="15189107" address="500 block Marshall Ave" type="OFFENSE" age="" gender="" description="*********************************************** &lt;br/&gt;9497, Aided Case&lt;br/&gt;"/><marker lat="40.439501769320117" lng="-80.023530865117223" zone="Zone 3" incidentdate="2015-10-03" incidenttime="14:00:00" incidentnumber="15189276" address="200 block Edith St" type="OFFENSE" age="" gender="" description="*********************************************** &lt;br/&gt;3502, Burglary.&lt;br/&gt;"/><marker lat="40.482879021356389" lng="-80.04453300763744" zone="Zone 1" incidentdate="2015-10-03" incidenttime="20:30:00" incidentnumber="15189446" address="2000 block Termon Ave" type="OFFENSE" age="" gender="" description="*********************************************** &lt;br/&gt;029, Missing Juvenile&lt;br/&gt;"/><marker lat="40.421000214297848" lng="-79.99869329795807" zone="Zone 3" incidentdate="2015-10-03" incidenttime="16:00:00" incidentnumber="15189328" address="500 block E Warrington Ave" type="OFFENSE" age="" gender="" description="*********************************************** &lt;br/&gt;3921(a), Theft by Unlawful Taking or Disposition - Movable item&lt;br/&gt;"/><marker lat="40.430061892774319" lng="-79.980383780050047" zone="Zone 3" incidentdate="2015-10-03" incidenttime="16:56:00" incidentnumber="15189344" address="1800 block Fox Way" type="OFFENSE" age="" gender="" description="*********************************************** &lt;br/&gt;9999, 9999 - (Misc. Incident):&lt;br/&gt;"/><marker lat="40.4321410" lng="-79.9971255" zone="Zone 2" incidentdate="2015-10-03" incidenttime="18:00:00" incidentnumber="15189390" address="100 block Crosstown Blvd Ramp &amp; Liberty Brg" type="OFFENSE" age="" gender="" description="*********************************************** &lt;br/&gt;3743, Accidents Involving Damage to Attended Veh. or Property&lt;br/&gt;"/><marker lat="40.438359537941707" lng="-79.980775192753057" zone="Zone 2" incidentdate="2015-10-03" incidenttime="20:52:00" incidentnumber="15189455" address="5th Ave &amp; Dinwiddie St" type="OFFENSE" age="" gender="" description="*********************************************** &lt;br/&gt;13(a)(31), Marijuana: Possession Small Amount&lt;br/&gt;"/><marker lat="40.479076386446295" lng="-79.999717737366538" zone="Zone 1" incidentdate="2015-10-03" incidenttime="14:16:00" incidentnumber="15189262" address="1400 block Chicago St" type="OFFENSE" age="" gender="" description="*********************************************** &lt;br/&gt;3502, Burglary.&lt;br/&gt;901, Criminal Attempt&lt;br/&gt;"/><marker lat="40.456290389338946" lng="-79.940812475330176" zone="Zone 5" incidentdate="2015-10-03" incidenttime="05:20:00" incidentnumber="15189054" address="Powhattan St &amp; Baum Blvd" type="ARREST" age="30" gender="M" description="*********************************************** &lt;br/&gt;3326, Duty of Driver in Construction and Maintenance Areas.&lt;br/&gt;2705, Recklessly Endangering Another Person.&lt;br/&gt;3802(a)(1), DUI - General Impairment&lt;br/&gt;3802(c), DUI - Highest Rate of Alcohol - BAC &gt;= .16%&lt;br/&gt;3361, Driving Vehicle at Safe Speed.&lt;br/&gt;3736, Reckless Driving&lt;br/&gt;"/><marker lat="40.435095503606554" lng="-79.993077686753679" zone="Zone 2" incidentdate="2015-10-03" incidenttime="09:35:00" incidentnumber="15175910" address="900 block Second Ave" type="ARREST" age="25" gender="M" description="*********************************************** &lt;br/&gt;3502, Burglary.&lt;br/&gt;"/><marker lat="40.439223017343117" lng="-80.055588494820356" zone="Zone 6" incidentdate="2015-10-03" incidenttime="15:00:00" incidentnumber="15189174" address="100 block Elmont St" type="ARREST" age="28" gender="M" description="*********************************************** &lt;br/&gt;13(a)(16), Possession of Controlled Substance&lt;br/&gt;4304(a)(1) Enhanced, Welfare of Children - Course of Conduct&lt;br/&gt;13(a)(32), Paraphernalia - Use or Possession&lt;br/&gt;"/><marker lat="40.467641140354559" lng="-79.916434400259632" zone="Zone 5" incidentdate="2015-10-03" incidenttime="20:30:00" incidentnumber="15189443" address="Meadow St &amp; St Marie St" type="ARREST" age="23" gender="M" description="*********************************************** &lt;br/&gt;13(a)(31), Marijuana: Possession Small Amount&lt;br/&gt;1501, Drivers Required to be Licensed.&lt;br/&gt;"/><marker lat="40.452204120365515" lng="-79.889387792877429" zone="Zone 5" incidentdate="2015-10-03" incidenttime="08:36:00" incidentnumber="15189091" address="Brushton Ave &amp; Mulford St" type="ARREST" age="46" gender="F" description="*********************************************** &lt;br/&gt;5902(a)(2), Prostitution - Loitering for purpose of&lt;br/&gt;13(a)(32), Paraphernalia - Use or Possession&lt;br/&gt;"/><marker lat="40.439223017343117" lng="-80.055588494820356" zone="Zone 6" incidentdate="2015-10-03" incidenttime="15:00:00" incidentnumber="15189174" address="100 block Elmont St" type="ARREST" age="53" gender="F" description="*********************************************** &lt;br/&gt;13(a)(16), Possession of Controlled Substance&lt;br/&gt;4304(a)(1) Enhanced, Welfare of Children - Course of Conduct&lt;br/&gt;13(a)(32), Paraphernalia - Use or Possession&lt;br/&gt;"/><marker lat="40.473251485995974" lng="-79.930665424800665" zone="Zone 5" incidentdate="2015-10-03" incidenttime="10:30:00" incidentnumber="15175584" address="800 block Chislett St" type="ARREST" age="28" gender="M" description="*********************************************** &lt;br/&gt;3921(a), Theft by Unlawful Taking or Disposition - Movable item&lt;br/&gt;3921, Theft by Unlawful Taking or Disposition.&lt;br/&gt;907, Possessing Instruments of Crime.&lt;br/&gt;4106, Access Device Fraud&lt;br/&gt;3925, Receiving Stolen Property.&lt;br/&gt;"/><marker lat="40.456564641128566" lng="-79.871361460228911" zone="Zone 5" incidentdate="2015-10-03" incidenttime="01:05:00" incidentnumber="15188925" address="2300 block East Hills Dr" type="ARREST" age="22" gender="M" description="*********************************************** &lt;br/&gt;13(a)(31), Marijuana: Possession Small Amount&lt;br/&gt;4303, General Lighting Requirements.&lt;br/&gt;"/><marker lat="40.441987095894468" lng="-80.039787182635294" zone="Zone 6" incidentdate="2015-10-03" incidenttime="02:00:00" incidentnumber="15188951" address="800 block Crucible St" type="ARREST" age="54" gender="M" description="*********************************************** &lt;br/&gt;13(a)(32), Paraphernalia - Use or Possession&lt;br/&gt;"/><marker lat="40.454837819591759" lng="-79.898465695785092" zone="Zone 5" incidentdate="2015-10-03" incidenttime="21:47:00" incidentnumber="15189481" address="Hamilton Ave &amp; Clawson St" type="ARREST" age="37" gender="M" description="*********************************************** &lt;br/&gt;13(a)(31), Marijuana: Possession Small Amount&lt;br/&gt;1543, Driving While Operating Privilege is Suspended or Revoked.&lt;br/&gt;1371, Operation Following Suspension of Registration.&lt;br/&gt;"/><marker lat="40.439223017343117" lng="-80.055588494820356" zone="Zone 6" incidentdate="2015-10-03" incidenttime="15:00:00" incidentnumber="15189174" address="100 block Elmont St" type="ARREST" age="32" gender="F" description="*********************************************** &lt;br/&gt;13(a)(16), Possession of Controlled Substance&lt;br/&gt;4304(a)(1) Enhanced, Welfare of Children - Course of Conduct&lt;br/&gt;13(a)(32), Paraphernalia - Use or Possession&lt;br/&gt;"/><marker lat="40.451976181737152" lng="-79.887683132812384" zone="Zone 5" incidentdate="2015-10-03" incidenttime="08:18:00" incidentnumber="15189084" address="Mulford St &amp; Hale St" type="ARREST" age="43" gender="F" description="*********************************************** &lt;br/&gt;5902(a)(2), Prostitution - Loitering for purpose of&lt;br/&gt;"/><marker lat="40.386076179656733" lng="-80.009130437106137" zone="Zone 6" incidentdate="2015-10-03" incidenttime="23:51:00" incidentnumber="15189545" address="1700 block Seaton St" type="ARREST" age="39" gender="F" description="*********************************************** &lt;br/&gt;2701, Simple Assault.&lt;br/&gt;"/><marker lat="40.455632503506003" lng="-79.902208453906297" zone="Zone 5" incidentdate="2015-10-03" incidenttime="03:53:00" incidentnumber="15188995" address="7000 block Hamilton Ave" type="ARREST" age="52" gender="F" description="*********************************************** &lt;br/&gt;2702, Aggravated Assault.&lt;br/&gt;907, Possessing Instruments of Crime.&lt;br/&gt;901, Criminal Attempt&lt;br/&gt;"/><marker lat="40.435095503606554" lng="-79.993077686753679" zone="Zone 2" incidentdate="2015-10-03" incidenttime="10:00:00" incidentnumber="15174087" address="900 block Second Ave" type="ARREST" age="16" gender="M" description="*********************************************** &lt;br/&gt;3701, Robbery.&lt;br/&gt;903, Criminal Conspiracy.&lt;br/&gt;"/><marker lat="40.465943396572442" lng="-79.939607844547595" zone="Zone 5" incidentdate="2015-10-03" incidenttime="16:45:00" incidentnumber="14253566" address="5200 block Broad St" type="ARREST" age="26" gender="M" description="*********************************************** &lt;br/&gt;2702, Aggravated Assault.&lt;br/&gt;2701(a)(1), Simple Assault - Intent., Know., Reckless.Cause Bod. Injury&lt;br/&gt;"/><marker lat="40.428815176198341" lng="-79.983424931589681" zone="Zone 3" incidentdate="2015-10-03" incidenttime="00:13:00" incidentnumber="15188899" address="S 15th St &amp; E Carson St" type="ARREST" age="23" gender="M" description="*********************************************** &lt;br/&gt;2709(a)(1), Harassment by Physical Contact, or Attempts or Threats&lt;br/&gt;3503.B1I, DEF. TRESPASS ACTUAL COMMUNICATION&lt;br/&gt;5104, Resisting Arrest or Other Law Enforcement.&lt;br/&gt;5503(a)(4), DISORDERLY CONDUCT - HAZARDOUS/PHYS. OFF&lt;br/&gt;5505, Public Drunkenness&lt;br/&gt;"/><marker lat="40.4380405888122" lng="-79.919359578436541" zone="Zone 4" incidentdate="2015-10-03" incidenttime="17:53:00" incidentnumber="15189375" address="Forbes Ave &amp; Shady Ave" type="ARREST" age="21" gender="M" description="*********************************************** &lt;br/&gt;2701, Simple Assault.&lt;br/&gt;3701, Robbery.&lt;br/&gt;903, Criminal Conspiracy.&lt;br/&gt;"/><marker lat="40.454016520179565" lng="-79.895644292400064" zone="Zone 5" incidentdate="2015-10-03" incidenttime="03:12:00" incidentnumber="15189005" address="7300 block Hamilton Ave" type="ARREST" age="23" gender="F" description="*********************************************** &lt;br/&gt;6106, Firearms not to be Carried without a License.&lt;br/&gt;2701, Simple Assault.&lt;br/&gt;3925, Receiving Stolen Property.&lt;br/&gt;"/><marker lat="40.468580624202609" lng="-79.931567288462247" zone="Zone 5" incidentdate="2015-10-03" incidenttime="00:49:00" incidentnumber="15174146" address="5000 block Columbo St" type="ARREST" age="28" gender="F" description="*********************************************** &lt;br/&gt;2701, Simple Assault.&lt;br/&gt;"/><marker lat="40.439223017343117" lng="-80.055588494820356" zone="Zone 6" incidentdate="2015-10-03" incidenttime="15:00:00" incidentnumber="15189174" address="100 block Elmont St" type="ARREST" age="25" gender="F" description="*********************************************** &lt;br/&gt;13(a)(16), Possession of Controlled Substance&lt;br/&gt;4304(a)(1) Enhanced, Welfare of Children - Course of Conduct&lt;br/&gt;13(a)(32), Paraphernalia - Use or Possession&lt;br/&gt;"/><marker lat="40.465943396572442" lng="-79.939607844547595" zone="Zone 5" incidentdate="2015-10-03" incidenttime="16:45:00" incidentnumber="15189332" address="5200 block Broad St" type="ARREST" age="26" gender="M" description="*********************************************** &lt;br/&gt;13(a)(31), Marijuana: Possession Small Amount&lt;br/&gt;13(a)(31)*, Hashish - Possession Small Amount&lt;br/&gt;"/><marker lat="40.451209746298005" lng="-80.021965140261187" zone="Zone 1" incidentdate="2015-10-03" incidenttime="00:21:00" incidentnumber="15188907" address="1200 block Western Ave" type="ARREST" age="35" gender="M" description="*********************************************** &lt;br/&gt;601.16, Public Urination And Defecation&lt;br/&gt;13(a)(31), Marijuana: Possession Small Amount&lt;br/&gt;1543, Driving While Operating Privilege is Suspended or Revoked.&lt;br/&gt;3802(a)(1), DUI - General Impairment&lt;br/&gt;3802(b), DUI - High Rate of Alchol - BAC &gt;=.10% &lt;.16%&lt;br/&gt;4914, False Identification to Law Enforcement Authorities&lt;br/&gt;"/><marker lat="40.450083821549214" lng="-80.053079992828629" zone="Zone 6" incidentdate="2015-10-03" incidenttime="05:37:00" incidentnumber="15187412" address="700 block Fairston St" type="ARREST" age="47" gender="M" description="*********************************************** &lt;br/&gt;2701, Simple Assault.&lt;br/&gt;2903, False Imprisonment.&lt;br/&gt;2706, Terroristic Threats.&lt;br/&gt;"/><marker lat="40.441650742650353" lng="-79.999451753561061" zone="Zone 2" incidentdate="2015-10-03" incidenttime="18:44:00" incidentnumber="15189379" address="300 block 6th Ave" type="ARREST" age="38" gender="F" description="*********************************************** &lt;br/&gt;5123, Contraband.&lt;br/&gt;13(a)(16), Possession of Controlled Substance&lt;br/&gt;3929(a)(2), Retail Theft; alters  transfers  or removes label  price tag&lt;br/&gt;"/><marker lat="40.441919441965581" lng="-79.982892744621594" zone="Zone 2" incidentdate="2015-10-03" incidenttime="19:10:00" incidentnumber="15189413" address="1800 block Centre Ave" type="ARREST" age="22" gender="F" description="*********************************************** &lt;br/&gt;3925, Receiving Stolen Property.&lt;br/&gt;"/><marker lat="40.42127287812697" lng="-79.992005012476255" zone="Zone 3" incidentdate="2015-10-03" incidenttime="12:53:00" incidentnumber="15189217" address="900 block Manton Way" type="ARREST" age="23" gender="M" description="*********************************************** &lt;br/&gt;13(a)(31), Marijuana: Possession Small Amount&lt;br/&gt;"/><marker lat="40.404822944398759" lng="-79.934938582152668" zone="Zone 4" incidentdate="2015-10-03" incidenttime="17:40:00" incidentnumber="15189366" address="600 block Johnston Ave" type="ARREST" age="15" gender="M" description="*********************************************** &lt;br/&gt;4910, Tampering with or Fabricating Physical Evidence.&lt;br/&gt;6110.1, Possesion of Firearm by Minor&lt;br/&gt;3925, Receiving Stolen Property.&lt;br/&gt;6106, Firearms not to be Carried without a License.&lt;br/&gt;"/><marker lat="40.430020824945359" lng="-79.976813326700821" zone="Zone 3" incidentdate="2015-10-03" incidenttime="19:48:00" incidentnumber="15189429" address="2000 block Wharton Sq" type="ARREST" age="30" gender="M" description="*********************************************** &lt;br/&gt;3929, Retail Theft.&lt;br/&gt;"/><marker lat="40.438359537941707" lng="-79.980775192753057" zone="Zone 2" incidentdate="2015-10-03" incidenttime="20:38:00" incidentnumber="15189455" address="5th Ave &amp; Dinwiddie St" type="ARREST" age="42" gender="M" description="*********************************************** &lt;br/&gt;13(a)(31), Marijuana: Possession Small Amount&lt;br/&gt;"/><marker lat="40.455632503506003" lng="-79.902208453906297" zone="Zone 5" incidentdate="2015-10-03" incidenttime="14:20:00" incidentnumber="15189265" address="7000 block Hamilton Ave" type="ARREST" age="60" gender="M" description="*********************************************** &lt;br/&gt;9093, Indirect Criminal Contempt&lt;br/&gt;"/><marker lat="40.42914633469568" lng="-79.937419161955091" zone="Zone 4" incidentdate="2015-10-03" incidenttime="04:24:00" incidentnumber="15189034" address="5300 block Pocussett St" type="ARREST" age="59" gender="M" description="*********************************************** &lt;br/&gt;3502, Burglary.&lt;br/&gt;"/><marker lat="40.456564641128566" lng="-79.871361460228911" zone="Zone 5" incidentdate="2015-10-03" incidenttime="01:05:00" incidentnumber="15156695" address="2300 block East Hills Dr" type="ARREST" age="22" gender="M" description="*********************************************** &lt;br/&gt;7513, Restriction on Alcoholic Beverages - Open Container&lt;br/&gt;9015, Failure To Appear/Arrest on Attachment Order&lt;br/&gt;13(a)(31), Marijuana: Possession Small Amount&lt;br/&gt;13(a)(32), Paraphernalia - Use or Possession&lt;br/&gt;4703, Operation of Vehicle without Official Certif. of Inspection&lt;br/&gt;4303, General Lighting Requirements.&lt;br/&gt;"/><marker lat="40.435095503606554" lng="-79.993077686753679" zone="Zone 2" incidentdate="2015-10-03" incidenttime="10:30:00" incidentnumber="15175651" address="900 block Second Ave" type="ARREST" age="28" gender="M" description="*********************************************** &lt;br/&gt;4952, Intimidation of Witnesses or Victims&lt;br/&gt;4106, Access Device Fraud&lt;br/&gt;3502, Burglary.&lt;br/&gt;3925, Receiving Stolen Property.&lt;br/&gt;"/><marker lat="40.43461467412029" lng="-79.954511343604338" zone="Zone 4" incidentdate="2015-10-03" incidenttime="09:35:00" incidentnumber="15172951" address="3400 block Ward St" type="ARREST" age="25" gender="M" description="*********************************************** &lt;br/&gt;3502, Burglary.&lt;br/&gt;"/><marker lat="40.456633448414188" lng="-79.936435139782176" zone="Zone 4" incidentdate="2015-10-03" incidenttime="16:20:00" incidentnumber="15189293" address="5500 block Centre Ave" type="ARREST" age="" gender="M" description="*********************************************** &lt;br/&gt;2709(a)(1), Harassment by Physical Contact, or Attempts or Threats&lt;br/&gt;3503(b.1), Criminal Trespass - Simple Trespasser&lt;br/&gt;5505, Public Drunkenness&lt;br/&gt;4914, False Identification to Law Enforcement Authorities&lt;br/&gt;2709.2, Stalking Conduct or Repeatedly Communicates&lt;br/&gt;"/><marker lat="40.434482128289915" lng="-79.963606877655877" zone="Zone 4" incidentdate="2015-10-03" incidenttime="09:35:00" incidentnumber="15180484" address="300 block Lawn St" type="ARREST" age="25" gender="M" description="*********************************************** &lt;br/&gt;3502, Burglary.&lt;br/&gt;3921, Theft by Unlawful Taking or Disposition.&lt;br/&gt;3925, Receiving Stolen Property.&lt;br/&gt;"/><marker lat="40.4620994" lng="-79.9883381" zone="Zone 1" incidentdate="2015-10-03" incidenttime="19:15:00" incidentnumber="15189405" address="200 block Homer St" type="ARREST" age="20" gender="F" description="*********************************************** &lt;br/&gt;2702, Aggravated Assault.&lt;br/&gt;"/><marker lat="40.4380405888122" lng="-79.919359578436541" zone="Zone 4" incidentdate="2015-10-03" incidenttime="17:53:00" incidentnumber="15189375" address="Forbes Ave &amp; Shady Ave" type="ARREST" age="16" gender="M" description="*********************************************** &lt;br/&gt;2701, Simple Assault.&lt;br/&gt;3701, Robbery.&lt;br/&gt;903, Criminal Conspiracy.&lt;br/&gt;"/><marker lat="40.47045804777099" lng="-80.027278420865969" zone="Zone 1" incidentdate="2015-10-03" incidenttime="17:16:00" incidentnumber="15189353" address="2800 block Stayton St" type="ARREST" age="18" gender="M" description="*********************************************** &lt;br/&gt;3736, Reckless Driving&lt;br/&gt;3925, Receiving Stolen Property.&lt;br/&gt;3921, Theft by Unlawful Taking or Disposition.&lt;br/&gt;3733, Fleeing or Attempting to Elude Police Officer&lt;br/&gt;3323, Stop Signs and Yield Signs.&lt;br/&gt;"/></markers>
