<?xml version="1.0"?>
<markers><marker lat="40.470164734774741" lng="-80.032043293013857" zone="Zone 1" incidentdate="2015-07-05" incidenttime="02:45:00" incidentnumber="15122886" address="1400 block Evandale Rd" type="OFFENSE" age="" gender="" description="*********************************************** &lt;br/&gt;9999, 9999 - (Misc. Incident):&lt;br/&gt;"/><marker lat="40.4411910" lng="-80.0340401" zone="Zone 1" incidentdate="2015-07-05" incidenttime="12:36:00" incidentnumber="15123080" address="Isabella St &amp; Alexander St" type="OFFENSE" age="" gender="" description="*********************************************** &lt;br/&gt;9999, 9999 - (Misc. Incident):&lt;br/&gt;"/><marker lat="40.47858752419932" lng="-80.038474537164149" zone="Zone 1" incidentdate="2015-07-05" incidenttime="11:59:00" incidentnumber="15123066" address="3500 block Fleming Ave" type="OFFENSE" age="" gender="" description="*********************************************** &lt;br/&gt;2701, Simple Assault.&lt;br/&gt;"/><marker lat="40.483894404875628" lng="-80.040807045026227" zone="Zone 1" incidentdate="2015-07-05" incidenttime="01:49:00" incidentnumber="15122846" address="3800 block Bonaventure Way" type="OFFENSE" age="" gender="" description="*********************************************** &lt;br/&gt;2701, Simple Assault.&lt;br/&gt;"/><marker lat="40.4785914" lng="-80.0008597" zone="Zone 1" incidentdate="2015-07-05" incidenttime="01:00:00" incidentnumber="15123075" address="500 block Mt Pleasant Rd" type="OFFENSE" age="" gender="" description="*********************************************** &lt;br/&gt;2709(a), Harassment.&lt;br/&gt;"/><marker lat="40.454874433673972" lng="-79.997054378532326" zone="Zone 1" incidentdate="2015-07-05" incidenttime="01:20:00" incidentnumber="15122784" address="800 block Phineas St" type="OFFENSE" age="" gender="" description="*********************************************** &lt;br/&gt;3701, Robbery.&lt;br/&gt;"/><marker lat="40.47045804777099" lng="-80.027278420865969" zone="Zone 1" incidentdate="2015-07-05" incidenttime="01:28:00" incidentnumber="15122825" address="2800 block Stayton St" type="OFFENSE" age="" gender="" description="*********************************************** &lt;br/&gt;9488, False  Burglar Alarm&lt;br/&gt;"/><marker lat="40.4472527" lng="-80.0103051" zone="Zone 1" incidentdate="2015-07-05" incidenttime="01:41:00" incidentnumber="15122841" address="Tony Dorsett Dr &amp; General Robinson St W" type="OFFENSE" age="" gender="" description="*********************************************** &lt;br/&gt;3743, Accidents Involving Damage to Attended Veh. or Property&lt;br/&gt;"/><marker lat="40.470239318054197" lng="-80.012634590630185" zone="Zone 1" incidentdate="2015-07-05" incidenttime="02:25:00" incidentnumber="15122867" address="2600 block Norwood Ave" type="OFFENSE" age="" gender="" description="*********************************************** &lt;br/&gt;9488, False  Burglar Alarm&lt;br/&gt;"/><marker lat="40.483894404875628" lng="-80.040807045026227" zone="Zone 1" incidentdate="2015-07-05" incidenttime="02:10:00" incidentnumber="15122846" address="3800 block Bonaventure Way" type="ARREST" age="48" gender="M" description="*********************************************** &lt;br/&gt;2701, Simple Assault.&lt;br/&gt;"/></markers>
