<?xml version="1.0"?>
<markers><marker lat="40.482879021356389" lng="-80.04453300763744" zone="Zone 1" incidentdate="2016-06-26" incidenttime="03:20:00" incidentnumber="16118311" address="2000 block Termon Ave" type="OFFENSE" age="" gender="" description="*********************************************** &lt;br/&gt;029, Missing Juvenile&lt;br/&gt;"/><marker lat="40.462766370932492" lng="-79.957250054964803" zone="Zone 5" incidentdate="2016-06-26" incidenttime="20:30:00" incidentnumber="16118758" address="4000 block Liberty Ave" type="OFFENSE" age="" gender="" description="*********************************************** &lt;br/&gt;3921, Theft by Unlawful Taking or Disposition.&lt;br/&gt;"/><marker lat="40.438411104332907" lng="-79.960897379202279" zone="Zone 4" incidentdate="2016-06-26" incidenttime="20:15:00" incidentnumber="16118727" address="3400 block Forbes Ave" type="OFFENSE" age="" gender="" description="*********************************************** &lt;br/&gt;5505, Public Drunkenness&lt;br/&gt;"/><marker lat="40.457996845611397" lng="-80.009370377151654" zone="Zone 1" incidentdate="2016-06-26" incidenttime="23:02:00" incidentnumber="16118807" address="1500 block Arch St" type="OFFENSE" age="" gender="" description="*********************************************** &lt;br/&gt;9999, 9999 - (Misc. Incident):&lt;br/&gt;"/><marker lat="40.455601122118971" lng="-79.979266868193093" zone="Zone 2" incidentdate="2016-06-26" incidenttime="03:31:00" incidentnumber="16118318" address="Smallman St &amp; 26th St" type="OFFENSE" age="" gender="" description="*********************************************** &lt;br/&gt;3743, Accidents Involving Damage to Attended Veh. or Property&lt;br/&gt;"/><marker lat="40.48535298504617" lng="-79.925588521722062" zone="Zone 5" incidentdate="2016-06-26" incidenttime="10:50:00" incidentnumber="16118436" address="1800 block Chislett St" type="OFFENSE" age="" gender="" description="*********************************************** &lt;br/&gt;9489, Found Property&lt;br/&gt;"/><marker lat="40.428695537448661" lng="-79.986387155223355" zone="Zone 3" incidentdate="2016-06-26" incidenttime="12:50:00" incidentnumber="16118517" address="1200 block E Carson St" type="OFFENSE" age="" gender="" description="*********************************************** &lt;br/&gt;3921, Theft by Unlawful Taking or Disposition.&lt;br/&gt;"/><marker lat="40.491892281964134" lng="-80.026229093784025" zone="Zone 1" incidentdate="2016-06-26" incidenttime="16:17:00" incidentnumber="16118589" address="600 block Dornestic St" type="OFFENSE" age="" gender="" description="*********************************************** &lt;br/&gt;9999, 9999 - (Misc. Incident):&lt;br/&gt;"/><marker lat="40.445360252034405" lng="-79.970828570004869" zone="Zone 2" incidentdate="2016-06-26" incidenttime="02:41:00" incidentnumber="16118292" address="2500 block Centre Ave" type="OFFENSE" age="" gender="" description="*********************************************** &lt;br/&gt;9497, Aided Case&lt;br/&gt;"/><marker lat="40.394640576664798" lng="-79.987302831142586" zone="Zone 3" incidentdate="2016-06-26" incidenttime="01:45:00" incidentnumber="16118273" address="2000 block Dellrose St" type="OFFENSE" age="" gender="" description="*********************************************** &lt;br/&gt;2709(a)(1), Harassment by Physical Contact, or Attempts or Threats&lt;br/&gt;"/><marker lat="40.387040737230748" lng="-80.00224956741755" zone="Zone 3" incidentdate="2016-06-26" incidenttime="16:00:00" incidentnumber="16118616" address="Glenbury St" type="OFFENSE" age="" gender="" description="*********************************************** &lt;br/&gt;2709, Harassment (Non-Specific)&lt;br/&gt;2706, Terroristic Threats.&lt;br/&gt;"/><marker lat="40.43710675131809" lng="-79.952378201538011" zone="Zone 4" incidentdate="2016-06-26" incidenttime="11:10:00" incidentnumber="16118444" address="Oakland Sq" type="OFFENSE" age="" gender="" description="*********************************************** &lt;br/&gt;3304, Criminal Mischief.&lt;br/&gt;"/><marker lat="40.448121549996621" lng="-79.978097750741512" zone="Zone 2" incidentdate="2016-06-26" incidenttime="06:00:00" incidentnumber="16118354" address="2200 block Bedford Ave" type="OFFENSE" age="" gender="" description="*********************************************** &lt;br/&gt;9497, Aided Case&lt;br/&gt;"/><marker lat="40.459220430259037" lng="-79.910881573554278" zone="Zone 5" incidentdate="2016-06-26" incidenttime="07:26:00" incidentnumber="16118405" address="6600 block Frankstown Ave" type="OFFENSE" age="" gender="" description="*********************************************** &lt;br/&gt;9497, Aided Case&lt;br/&gt;"/><marker lat="40.4537643" lng="-79.9991557" zone="Zone 1" incidentdate="2016-06-26" incidenttime="02:14:00" incidentnumber="16118280" address="East Ohio St &amp; Middle St" type="OFFENSE" age="" gender="" description="*********************************************** &lt;br/&gt;3701, Robbery.&lt;br/&gt;3732.1, Aggravated Assault by Vehicle&lt;br/&gt;"/><marker lat="40.414983296810647" lng="-79.993074408092554" zone="Zone 3" incidentdate="2016-06-26" incidenttime="05:56:00" incidentnumber="16118355" address="300 block Rochelle St" type="OFFENSE" age="" gender="" description="*********************************************** &lt;br/&gt;2706, Terroristic Threats.&lt;br/&gt;2701(a)(3), Simple Assault - Attempts by Physical Menace&lt;br/&gt;"/><marker lat="40.4493463" lng="-79.9991355" zone="Zone 1" incidentdate="2016-06-26" incidenttime="23:00:00" incidentnumber="16118813" address="General Robinson St E" type="OFFENSE" age="" gender="" description="*********************************************** &lt;br/&gt;3304, Criminal Mischief.&lt;br/&gt;3934, Theft from Vehicle&lt;br/&gt;"/><marker lat="40.419956191563955" lng="-79.994727310611296" zone="Zone 3" incidentdate="2016-06-26" incidenttime="04:35:00" incidentnumber="16118344" address="Climax St &amp; Walter St" type="OFFENSE" age="" gender="" description="*********************************************** &lt;br/&gt;9501, Bench Warrant&lt;br/&gt;"/><marker lat="40.451931544123035" lng="-79.923971341868125" zone="Zone 4" incidentdate="2016-06-26" incidenttime="17:40:00" incidentnumber="16118643" address="5th Ave &amp; S Highland Ave" type="OFFENSE" age="" gender="" description="*********************************************** &lt;br/&gt;3743, Accidents Involving Damage to Attended Veh. or Property&lt;br/&gt;"/><marker lat="40.445926173410676" lng="-80.052351688864789" zone="Zone 6" incidentdate="2016-06-26" incidenttime="06:20:00" incidentnumber="16118359" address="1000 block Woodlow St" type="OFFENSE" age="" gender="" description="*********************************************** &lt;br/&gt;3925, Receiving Stolen Property.&lt;br/&gt;9094, Recovered Stolen Vehicle (OUTSIDE CITY)&lt;br/&gt;"/><marker lat="40.456809679635327" lng="-79.991280634064296" zone="Zone 1" incidentdate="2016-06-26" incidenttime="08:00:00" incidentnumber="16118404" address="1100 block Troy Hill Rd" type="OFFENSE" age="" gender="" description="*********************************************** &lt;br/&gt;3502, Burglary.&lt;br/&gt;"/><marker lat="40.456463934380572" lng="-79.896659990434486" zone="Zone 5" incidentdate="2016-06-26" incidenttime="20:00:00" incidentnumber="16118724" address="N Homewood Ave &amp; Bennett St" type="OFFENSE" age="" gender="" description="*********************************************** &lt;br/&gt;1501, Drivers Required to be Licensed.&lt;br/&gt;3742, Accidents Involving Death or Personal Injury&lt;br/&gt;3714, Careless Driving&lt;br/&gt;3323, Stop Signs and Yield Signs.&lt;br/&gt;"/><marker lat="40.468949448621721" lng="-79.999184217115484" zone="Zone 1" incidentdate="2016-06-26" incidenttime="16:48:00" incidentnumber="16118610" address="900 block Mina St" type="OFFENSE" age="" gender="" description="*********************************************** &lt;br/&gt;2701, Simple Assault.&lt;br/&gt;"/><marker lat="40.485729412794498" lng="-80.043902855229803" zone="Zone 1" incidentdate="2016-06-26" incidenttime="04:46:00" incidentnumber="16118339" address="4000 block Oswald St" type="OFFENSE" age="" gender="" description="*********************************************** &lt;br/&gt;3304, Criminal Mischief.&lt;br/&gt;5104, Resisting Arrest or Other Law Enforcement.&lt;br/&gt;2705, Recklessly Endangering Another Person.&lt;br/&gt;3921, Theft by Unlawful Taking or Disposition.&lt;br/&gt;2702, Aggravated Assault.&lt;br/&gt;4304(a)(1), Endangering Welfare of Children - Course of Conduct Enhanced&lt;br/&gt;2701, Simple Assault.&lt;br/&gt;5503(a)(3), DISORDERLY CONDUCT - OBSCENE LANG/GEST&lt;br/&gt;5121, Escape.&lt;br/&gt;5506, Loitering and Prowling at Night&lt;br/&gt;601.11(a), Littering and Dumping; Any waste, dangerous or detrimental substance upon public property&lt;br/&gt;5126, Flight to Avoid Apprehension, Trial or Punishment.&lt;br/&gt;2701(b)(2), Simple Assault -  Child Under 12 / Adult 21 Or Older&lt;br/&gt;601.10 (a), Spitting&lt;br/&gt;2606(a), Aggravated Assault on Unborn Child&lt;br/&gt;"/><marker lat="40.428525305474778" lng="-79.98215432359406" zone="Zone 3" incidentdate="2016-06-26" incidenttime="03:20:00" incidentnumber="16118293" address="100 block S 17th St" type="OFFENSE" age="" gender="" description="*********************************************** &lt;br/&gt;2701, Simple Assault.&lt;br/&gt;"/><marker lat="40.426723014631335" lng="-79.984280898141336" zone="Zone 3" incidentdate="2016-06-26" incidenttime="15:00:00" incidentnumber="16118636" address="100 block S 14th St" type="OFFENSE" age="" gender="" description="*********************************************** &lt;br/&gt;3934, Theft from Vehicle&lt;br/&gt;"/><marker lat="40.453969822993002" lng="-79.998974758094874" zone="Zone 1" incidentdate="2016-06-26" incidenttime="12:10:00" incidentnumber="16118470" address="600 block East Ohio St" type="OFFENSE" age="" gender="" description="*********************************************** &lt;br/&gt;3929, Retail Theft.&lt;br/&gt;"/><marker lat="40.415724062159953" lng="-79.99311329972528" zone="Zone 3" incidentdate="2016-06-26" incidenttime="09:50:00" incidentnumber="16118414" address="300 block Zara St" type="OFFENSE" age="" gender="" description="*********************************************** &lt;br/&gt;2709(a)(1), Harassment by Physical Contact, or Attempts or Threats&lt;br/&gt;"/><marker lat="40.487931708692699" lng="-79.921344314148115" zone="Zone 5" incidentdate="2016-06-26" incidenttime="12:43:00" incidentnumber="16118481" address="7300 block Butler St" type="OFFENSE" age="" gender="" description="*********************************************** &lt;br/&gt;13(a)(32), Paraphernalia - Use or Possession&lt;br/&gt;3802(d)(2), DUI - Drug - Impaired Ability&lt;br/&gt;"/><marker lat="40.4693890" lng="-79.9259380" zone="Zone 5" incidentdate="2016-06-26" incidenttime="09:45:00" incidentnumber="16118415" address="700 block Mellon St" type="OFFENSE" age="" gender="" description="*********************************************** &lt;br/&gt;9490, Missing Persons (18 and Over)&lt;br/&gt;"/><marker lat="40.414110231246191" lng="-79.921537610824799" zone="Zone 4" incidentdate="2016-06-26" incidenttime="09:55:00" incidentnumber="16118422" address="Garetta St" type="OFFENSE" age="" gender="" description="*********************************************** &lt;br/&gt;9496, Dead on Arrival (DOA)&lt;br/&gt;"/><marker lat="40.459698164472066" lng="-80.017119091316204" zone="Zone 1" incidentdate="2016-06-26" incidenttime="04:49:00" incidentnumber="16118348" address="800 block California Ave" type="OFFENSE" age="" gender="" description="*********************************************** &lt;br/&gt;2701, Simple Assault.&lt;br/&gt;"/><marker lat="40.430592792938775" lng="-80.055316852805618" zone="Zone 6" incidentdate="2016-06-26" incidenttime="18:25:00" incidentnumber="16118667" address="1800 block Chessland St" type="OFFENSE" age="" gender="" description="*********************************************** &lt;br/&gt;9497, Aided Case&lt;br/&gt;"/><marker lat="40.440332076098812" lng="-79.99811615543635" zone="Zone 2" incidentdate="2016-06-26" incidenttime="15:31:00" incidentnumber="16118571" address="500 block Smithfield St" type="OFFENSE" age="" gender="" description="*********************************************** &lt;br/&gt;9501, Bench Warrant&lt;br/&gt;"/><marker lat="40.468488155231974" lng="-79.981531625123097" zone="Zone 1" incidentdate="2016-06-26" incidenttime="21:48:00" incidentnumber="16118784" address="2000 block Veronica St" type="OFFENSE" age="" gender="" description="*********************************************** &lt;br/&gt;3502, Burglary.&lt;br/&gt;"/><marker lat="40.4276437" lng="-79.9058134" zone="Zone 4" incidentdate="2016-06-26" incidenttime="04:00:00" incidentnumber="16118334" address="1200 block Commercial St" type="OFFENSE" age="" gender="" description="*********************************************** &lt;br/&gt;13(a)(31), Marijuana: Possession Small Amount&lt;br/&gt;1543, Driving While Operating Privilege is Suspended or Revoked.&lt;br/&gt;"/><marker lat="40.454969894010155" lng="-79.94521336031535" zone="Zone 5" incidentdate="2016-06-26" incidenttime="02:35:00" incidentnumber="16118291" address="Baum Blvd &amp; Morewood Ave" type="OFFENSE" age="" gender="" description="*********************************************** &lt;br/&gt;3742, Accidents Involving Death or Personal Injury&lt;br/&gt;"/><marker lat="40.466853490664064" lng="-79.976247830410998" zone="Zone 1" incidentdate="2016-06-26" incidenttime="12:00:00" incidentnumber="16118687" address="300 block Waterfront Dr" type="OFFENSE" age="" gender="" description="*********************************************** &lt;br/&gt;9999, 9999 - (Misc. Incident):&lt;br/&gt;"/><marker lat="40.440824068996903" lng="-80.003015961193057" zone="Zone 2" incidentdate="2016-06-26" incidenttime="14:05:00" incidentnumber="16118547" address="Market Sq" type="OFFENSE" age="" gender="" description="*********************************************** &lt;br/&gt;3921, Theft by Unlawful Taking or Disposition.&lt;br/&gt;"/><marker lat="40.447396570152144" lng="-79.959817114312003" zone="Zone 2" incidentdate="2016-06-26" incidenttime="19:13:00" incidentnumber="16118699" address="Allequippa St &amp; Brackenridge St" type="OFFENSE" age="" gender="" description="*********************************************** &lt;br/&gt;9489, Found Property&lt;br/&gt;"/><marker lat="40.420785438159214" lng="-79.994824103939479" zone="Zone 3" incidentdate="2016-06-26" incidenttime="03:00:00" incidentnumber="16118302" address="200 block Walter St" type="OFFENSE" age="" gender="" description="*********************************************** &lt;br/&gt;2501, Criminal Homicide.&lt;br/&gt;"/><marker lat="40.468658499714834" lng="-79.962329683782556" zone="Zone 2" incidentdate="2016-06-26" incidenttime="10:23:00" incidentnumber="16118411" address="200 block 40th St" type="OFFENSE" age="" gender="" description="*********************************************** &lt;br/&gt;13(a)(16), Possession of Controlled Substance&lt;br/&gt;"/><marker lat="40.446346164512178" lng="-79.994318011299683" zone="Zone 2" incidentdate="2016-06-26" incidenttime="19:50:00" incidentnumber="16118714" address="11th St" type="OFFENSE" age="" gender="" description="*********************************************** &lt;br/&gt;2701, Simple Assault.&lt;br/&gt;3701, Robbery.&lt;br/&gt;4914, False Identification to Law Enforcement Authorities&lt;br/&gt;3925, Receiving Stolen Property.&lt;br/&gt;907, Possessing Instruments of Crime.&lt;br/&gt;"/><marker lat="40.471429877146207" lng="-79.964151809072447" zone="Zone 2" incidentdate="2016-06-26" incidenttime="01:45:00" incidentnumber="16118272" address="100 block 41st St" type="OFFENSE" age="" gender="" description="*********************************************** &lt;br/&gt;2701, Simple Assault.&lt;br/&gt;"/><marker lat="40.482879021356389" lng="-80.04453300763744" zone="Zone 1" incidentdate="2016-06-26" incidenttime="17:19:00" incidentnumber="16118628" address="2000 block Termon Ave" type="OFFENSE" age="" gender="" description="*********************************************** &lt;br/&gt;9497, Aided Case&lt;br/&gt;"/><marker lat="40.428322867332916" lng="-79.982058008627391" zone="Zone 3" incidentdate="2016-06-26" incidenttime="10:45:00" incidentnumber="16118438" address="1700 block Carey Way" type="OFFENSE" age="" gender="" description="*********************************************** &lt;br/&gt;9489, Found Property&lt;br/&gt;"/><marker lat="40.450813726288715" lng="-79.972243374536816" zone="Zone 2" incidentdate="2016-06-26" incidenttime="20:37:00" incidentnumber="16118693" address="Bedford Ave &amp; Chauncey Dr" type="OFFENSE" age="" gender="" description="*********************************************** &lt;br/&gt;3921(a), Theft by Unlawful Taking or Disposition - Movable item&lt;br/&gt;3745, Accidents Involving Damage to Unattended Veh.or Prop.&lt;br/&gt;1501, Drivers Required to be Licensed.&lt;br/&gt;3925, Receiving Stolen Property.&lt;br/&gt;5121, Escape.&lt;br/&gt;3323, Stop Signs and Yield Signs.&lt;br/&gt;"/><marker lat="40.402531912784838" lng="-80.032146701495677" zone="Zone 6" incidentdate="2016-06-26" incidenttime="20:43:00" incidentnumber="16118756" address="2300 block Candace St" type="OFFENSE" age="" gender="" description="*********************************************** &lt;br/&gt;2701, Simple Assault.&lt;br/&gt;2706, Terroristic Threats.&lt;br/&gt;907, Possessing Instruments of Crime.&lt;br/&gt;"/><marker lat="40.458673827506942" lng="-79.90804021795374" zone="Zone 5" incidentdate="2016-06-26" incidenttime="19:56:00" incidentnumber="16118730" address="Frankstown Ave &amp; Washington Blvd" type="OFFENSE" age="" gender="" description="*********************************************** &lt;br/&gt;3743, Accidents Involving Damage to Attended Veh. or Property&lt;br/&gt;"/><marker lat="40.458829569468811" lng="-79.893249839715324" zone="Zone 5" incidentdate="2016-06-26" incidenttime="00:47:00" incidentnumber="16118223" address="7300 block Monticello St" type="OFFENSE" age="" gender="" description="*********************************************** &lt;br/&gt;5104, Resisting Arrest or Other Law Enforcement.&lt;br/&gt;2702, Aggravated Assault.&lt;br/&gt;2701, Simple Assault.&lt;br/&gt;"/><marker lat="40.478963019952737" lng="-79.920155793969116" zone="Zone 5" incidentdate="2016-06-26" incidenttime="20:35:00" incidentnumber="16118751" address="Mellon St &amp; Mellon Ter" type="OFFENSE" age="" gender="" description="*********************************************** &lt;br/&gt;13(a)(16), Possession of Controlled Substance&lt;br/&gt;13(a)(32), Paraphernalia - Use or Possession&lt;br/&gt;"/><marker lat="40.430029464019185" lng="-79.988643041572175" zone="Zone 3" incidentdate="2016-06-26" incidenttime="06:45:00" incidentnumber="16118369" address="S 10th St &amp; Muriel St" type="OFFENSE" age="" gender="" description="*********************************************** &lt;br/&gt;3743, Accidents Involving Damage to Attended Veh. or Property&lt;br/&gt;"/><marker lat="40.40977947221679" lng="-79.993519880632363" zone="Zone 3" incidentdate="2016-06-26" incidenttime="13:00:00" incidentnumber="16118561" address="300 block Alice St" type="OFFENSE" age="" gender="" description="*********************************************** &lt;br/&gt;3304(a)(5), CRIMINAL MISCHIEF - Intentionally Damages Real Or Personal Property Of Another&lt;br/&gt;"/><marker lat="40.486725826505598" lng="-79.924296135388687" zone="Zone 5" incidentdate="2016-06-26" incidenttime="17:59:00" incidentnumber="16118652" address="1900 block Chislett St" type="OFFENSE" age="" gender="" description="*********************************************** &lt;br/&gt;13(a)(16), Possession of Controlled Substance&lt;br/&gt;13(a)(32), Paraphernalia - Use or Possession&lt;br/&gt;"/><marker lat="40.444154918874105" lng="-80.042742082396941" zone="Zone 6" incidentdate="2016-06-26" incidenttime="07:02:00" incidentnumber="16118366" address="1100 block Crucible St" type="OFFENSE" age="" gender="" description="*********************************************** &lt;br/&gt;3503, Criminal Trespass&lt;br/&gt;"/><marker lat="40.437850264562179" lng="-80.004567110517371" zone="Zone 2" incidentdate="2016-06-26" incidenttime="03:35:00" incidentnumber="16118320" address="Market St" type="OFFENSE" age="" gender="" description="*********************************************** &lt;br/&gt;2709(a)(1), Harassment by Physical Contact, or Attempts or Threats&lt;br/&gt;"/><marker lat="40.438917876440819" lng="-80.001250590800993" zone="Zone 2" incidentdate="2016-06-26" incidenttime="14:00:00" incidentnumber="16118546" address="300 block Wood St" type="OFFENSE" age="" gender="" description="*********************************************** &lt;br/&gt;3745, Accidents Involving Damage to Unattended Veh.or Prop.&lt;br/&gt;"/><marker lat="40.455109037149178" lng="-80.0010590994724" zone="Zone 1" incidentdate="2016-06-26" incidenttime="15:46:00" incidentnumber="16118575" address="900 block James St" type="OFFENSE" age="" gender="" description="*********************************************** &lt;br/&gt;2709, Harassment (Non-Specific)&lt;br/&gt;"/><marker lat="40.44110521334575" lng="-79.996766181677742" zone="Zone 2" incidentdate="2016-06-26" incidenttime="02:00:00" incidentnumber="16118289" address="William Penn Pl &amp; 6th Ave" type="OFFENSE" age="" gender="" description="*********************************************** &lt;br/&gt;3304, Criminal Mischief.&lt;br/&gt;3934, Theft from Vehicle&lt;br/&gt;"/><marker lat="40.437166002782945" lng="-79.952384582907612" zone="Zone 4" incidentdate="2016-06-26" incidenttime="08:00:00" incidentnumber="16118522" address="OAKLAND Sq &amp; DAWSON St" type="OFFENSE" age="" gender="" description="*********************************************** &lt;br/&gt;3304, Criminal Mischief.&lt;br/&gt;"/><marker lat="40.444419827840996" lng="-79.995531720516354" zone="Zone 2" incidentdate="2016-06-26" incidenttime="14:30:00" incidentnumber="16118558" address="1000 block Penn Ave" type="OFFENSE" age="" gender="" description="*********************************************** &lt;br/&gt;9090, Recovered Firearm&lt;br/&gt;"/><marker lat="40.40977947221679" lng="-79.993519880632363" zone="Zone 3" incidentdate="2016-06-26" incidenttime="11:00:00" incidentnumber="16118574" address="300 block Alice St" type="OFFENSE" age="" gender="" description="*********************************************** &lt;br/&gt;3304(a)(5), CRIMINAL MISCHIEF - Intentionally Damages Real Or Personal Property Of Another&lt;br/&gt;"/><marker lat="40.437589769691705" lng="-79.971130371896109" zone="Zone 4" incidentdate="2016-06-26" incidenttime="04:50:00" incidentnumber="16118343" address="Mohawk St &amp; Beelen St" type="OFFENSE" age="" gender="" description="*********************************************** &lt;br/&gt;9496, Dead on Arrival (DOA)&lt;br/&gt;"/><marker lat="40.3935191903469" lng="-80.016210905932255" zone="Zone 6" incidentdate="2016-06-26" incidenttime="07:43:00" incidentnumber="16118377" address="2500 block Starkamp St" type="OFFENSE" age="" gender="" description="*********************************************** &lt;br/&gt;3503, Criminal Trespass&lt;br/&gt;"/><marker lat="40.404613199127397" lng="-79.941715179730693" zone="Zone 4" incidentdate="2016-06-26" incidenttime="09:00:00" incidentnumber="16118427" address="5300 block Gertrude St" type="OFFENSE" age="" gender="" description="*********************************************** &lt;br/&gt;3304, Criminal Mischief.&lt;br/&gt;"/><marker lat="40.459947141978105" lng="-79.912377652213451" zone="Zone 5" incidentdate="2016-06-26" incidenttime="02:10:00" incidentnumber="16118274" address="Frankstown Ave &amp; Putnam St" type="OFFENSE" age="" gender="" description="*********************************************** &lt;br/&gt;3802(a)(1), DUI - General Impairment&lt;br/&gt;"/><marker lat="40.473349600095005" lng="-80.002822219962013" zone="Zone 1" incidentdate="2016-06-26" incidenttime="19:59:00" incidentnumber="16118725" address="100 block Penfort St" type="OFFENSE" age="" gender="" description="*********************************************** &lt;br/&gt;2701, Simple Assault.&lt;br/&gt;"/><marker lat="40.427929065959248" lng="-79.982139788014067" zone="Zone 3" incidentdate="2016-06-26" incidenttime="02:19:00" incidentnumber="16118281" address="S 17th St &amp; Sarah St" type="OFFENSE" age="" gender="" description="*********************************************** &lt;br/&gt;13(a)(16), Possession of Controlled Substance&lt;br/&gt;13(a)(31), Marijuana: Possession Small Amount&lt;br/&gt;3921, Theft by Unlawful Taking or Disposition.&lt;br/&gt;2702, Aggravated Assault.&lt;br/&gt;903, Criminal Conspiracy.&lt;br/&gt;2706, Terroristic Threats.&lt;br/&gt;"/><marker lat="40.428606966018023" lng="-79.985175111647919" zone="Zone 3" incidentdate="2016-06-26" incidenttime="18:30:00" incidentnumber="16118684" address="1300 block E Carson St" type="OFFENSE" age="" gender="" description="*********************************************** &lt;br/&gt;3921, Theft by Unlawful Taking or Disposition.&lt;br/&gt;"/><marker lat="40.459220430259037" lng="-79.910881573554278" zone="Zone 5" incidentdate="2016-06-26" incidenttime="07:20:00" incidentnumber="16118375" address="6600 block Frankstown Ave" type="OFFENSE" age="" gender="" description="*********************************************** &lt;br/&gt;9497, Aided Case&lt;br/&gt;"/><marker lat="40.465157804159951" lng="-79.922171643415098" zone="Zone 5" incidentdate="2016-06-26" incidenttime="10:25:00" incidentnumber="16118432" address="400 block N Highland Ave" type="OFFENSE" age="" gender="" description="*********************************************** &lt;br/&gt;3745, Accidents Involving Damage to Unattended Veh.or Prop.&lt;br/&gt;"/><marker lat="40.438541776698315" lng="-79.985056854226343" zone="Zone 2" incidentdate="2016-06-26" incidenttime="02:15:00" incidentnumber="16118279" address="5th Ave &amp; Pride St" type="OFFENSE" age="" gender="" description="*********************************************** &lt;br/&gt;3743, Accidents Involving Damage to Attended Veh. or Property&lt;br/&gt;"/><marker lat="40.428684832699354" lng="-79.983306706238423" zone="Zone 3" incidentdate="2016-06-26" incidenttime="16:10:00" incidentnumber="16118599" address="1500 block E Carson St" type="OFFENSE" age="" gender="" description="*********************************************** &lt;br/&gt;9489, Found Property&lt;br/&gt;"/><marker lat="40.455827122003001" lng="-79.873802880338005" zone="Zone 5" incidentdate="2016-06-26" incidenttime="02:29:00" incidentnumber="16118287" address="2400 block Park Hill Dr" type="OFFENSE" age="" gender="" description="*********************************************** &lt;br/&gt;3502, Burglary.&lt;br/&gt;"/><marker lat="40.441382894758895" lng="-80.002108774882004" zone="Zone 2" incidentdate="2016-06-26" incidenttime="04:13:00" incidentnumber="16118328" address="5th Ave &amp; Market St" type="OFFENSE" age="" gender="" description="*********************************************** &lt;br/&gt;9497, Aided Case&lt;br/&gt;"/><marker lat="40.428648587693665" lng="-79.984030978724903" zone="Zone 3" incidentdate="2016-06-26" incidenttime="00:48:00" incidentnumber="16118226" address="1400 block E Carson St" type="OFFENSE" age="" gender="" description="*********************************************** &lt;br/&gt;5503, Disorderly Conduct.&lt;br/&gt;2701, Simple Assault.&lt;br/&gt;5505, Public Drunkenness&lt;br/&gt;2706, Terroristic Threats.&lt;br/&gt;"/><marker lat="40.466903491398845" lng="-79.905983448201809" zone="Zone 5" incidentdate="2016-06-26" incidenttime="18:34:00" incidentnumber="16118676" address="6500 block Deary St" type="OFFENSE" age="" gender="" description="*********************************************** &lt;br/&gt;13(a)(31), Marijuana: Possession Small Amount&lt;br/&gt;1543, Driving While Operating Privilege is Suspended or Revoked.&lt;br/&gt;4303, General Lighting Requirements.&lt;br/&gt;6106, Firearms not to be Carried without a License.&lt;br/&gt;1372, Unauthorized Transfer or Use of Registration.&lt;br/&gt;6105(a)(1), Persons not to possess, use, manufacture, control, sell or transfer firearms: Former convict enumerated in subsection (b)&lt;br/&gt;7741, Head Lamps and Tail Lamps&lt;br/&gt;"/><marker lat="40.428831695315139" lng="-79.982712224739444" zone="Zone 3" incidentdate="2016-06-26" incidenttime="04:35:00" incidentnumber="16118337" address="S 16th St &amp; E Carson St" type="OFFENSE" age="" gender="" description="*********************************************** &lt;br/&gt;3701, Robbery.&lt;br/&gt;4914, False Identification to Law Enforcement Authorities&lt;br/&gt;903, Criminal Conspiracy.&lt;br/&gt;"/><marker lat="40.417296097730258" lng="-80.005898991009317" zone="Zone 3" incidentdate="2016-06-26" incidenttime="12:45:00" incidentnumber="16118490" address="Montooth St &amp; Sylvania Ave" type="OFFENSE" age="" gender="" description="*********************************************** &lt;br/&gt;2705, Recklessly Endangering Another Person.&lt;br/&gt;2701, Simple Assault.&lt;br/&gt;2709(a)(1), Harassment by Physical Contact, or Attempts or Threats&lt;br/&gt;"/><marker lat="40.45611540255215" lng="-79.930790383022966" zone="Zone 4" incidentdate="2016-06-26" incidenttime="00:05:00" incidentnumber="16118225" address="Ellsworth Ave &amp; Maryland Ave" type="OFFENSE" age="" gender="" description="*********************************************** &lt;br/&gt;3743, Accidents Involving Damage to Attended Veh. or Property&lt;br/&gt;"/><marker lat="40.440089158070052" lng="-80.000826612356661" zone="Zone 2" incidentdate="2016-06-26" incidenttime="17:00:00" incidentnumber="16118775" address="Forbes Ave &amp; Wood St" type="OFFENSE" age="" gender="" description="*********************************************** &lt;br/&gt;9489, Found Property&lt;br/&gt;"/><marker lat="40.458673827506942" lng="-79.90804021795374" zone="Zone 5" incidentdate="2016-06-26" incidenttime="21:25:00" incidentnumber="16118730" address="Frankstown Ave &amp; Washington Blvd" type="ARREST" age="41" gender="M" description="*********************************************** &lt;br/&gt;3743, Accidents Involving Damage to Attended Veh. or Property&lt;br/&gt;"/><marker lat="40.427929065959248" lng="-79.982139788014067" zone="Zone 3" incidentdate="2016-06-26" incidenttime="02:40:00" incidentnumber="16118281" address="S 17th St &amp; Sarah St" type="ARREST" age="23" gender="M" description="*********************************************** &lt;br/&gt;13(a)(16), Possession of Controlled Substance&lt;br/&gt;13(a)(31), Marijuana: Possession Small Amount&lt;br/&gt;3921, Theft by Unlawful Taking or Disposition.&lt;br/&gt;2702, Aggravated Assault.&lt;br/&gt;903, Criminal Conspiracy.&lt;br/&gt;2706, Terroristic Threats.&lt;br/&gt;"/><marker lat="40.478963019952737" lng="-79.920155793969116" zone="Zone 5" incidentdate="2016-06-26" incidenttime="21:01:00" incidentnumber="16118751" address="Mellon St &amp; Mellon Ter" type="ARREST" age="33" gender="M" description="*********************************************** &lt;br/&gt;13(a)(16), Possession of Controlled Substance&lt;br/&gt;13(a)(32), Paraphernalia - Use or Possession&lt;br/&gt;"/><marker lat="40.485729412794498" lng="-80.043902855229803" zone="Zone 1" incidentdate="2016-06-26" incidenttime="04:46:00" incidentnumber="16118339" address="4000 block Oswald St" type="ARREST" age="22" gender="M" description="*********************************************** &lt;br/&gt;3304, Criminal Mischief.&lt;br/&gt;5104, Resisting Arrest or Other Law Enforcement.&lt;br/&gt;2705, Recklessly Endangering Another Person.&lt;br/&gt;3921, Theft by Unlawful Taking or Disposition.&lt;br/&gt;2702, Aggravated Assault.&lt;br/&gt;4304(a)(1), Endangering Welfare of Children - Course of Conduct Enhanced&lt;br/&gt;2701, Simple Assault.&lt;br/&gt;5503(a)(3), DISORDERLY CONDUCT - OBSCENE LANG/GEST&lt;br/&gt;5121, Escape.&lt;br/&gt;5506, Loitering and Prowling at Night&lt;br/&gt;601.11(a), Littering and Dumping; Any waste, dangerous or detrimental substance upon public property&lt;br/&gt;5126, Flight to Avoid Apprehension, Trial or Punishment.&lt;br/&gt;2701(b)(2), Simple Assault -  Child Under 12 / Adult 21 Or Older&lt;br/&gt;601.10 (a), Spitting&lt;br/&gt;2606(a), Aggravated Assault on Unborn Child&lt;br/&gt;"/><marker lat="40.4276437" lng="-79.9058134" zone="Zone 4" incidentdate="2016-06-26" incidenttime="04:00:00" incidentnumber="16118334" address="1200 block Commercial St" type="ARREST" age="26" gender="M" description="*********************************************** &lt;br/&gt;13(a)(31), Marijuana: Possession Small Amount&lt;br/&gt;1543, Driving While Operating Privilege is Suspended or Revoked.&lt;br/&gt;"/><marker lat="40.428831695315139" lng="-79.982712224739444" zone="Zone 3" incidentdate="2016-06-26" incidenttime="04:35:00" incidentnumber="16118337" address="S 16th St &amp; E Carson St" type="ARREST" age="18" gender="M" description="*********************************************** &lt;br/&gt;3701, Robbery.&lt;br/&gt;4914, False Identification to Law Enforcement Authorities&lt;br/&gt;903, Criminal Conspiracy.&lt;br/&gt;"/><marker lat="40.459698164472066" lng="-80.017119091316204" zone="Zone 1" incidentdate="2016-06-26" incidenttime="05:41:00" incidentnumber="16118348" address="800 block California Ave" type="ARREST" age="27" gender="M" description="*********************************************** &lt;br/&gt;2701, Simple Assault.&lt;br/&gt;"/><marker lat="40.459947141978105" lng="-79.912377652213451" zone="Zone 5" incidentdate="2016-06-26" incidenttime="02:21:00" incidentnumber="16118274" address="Frankstown Ave &amp; Putnam St" type="ARREST" age="39" gender="F" description="*********************************************** &lt;br/&gt;3802(a)(1), DUI - General Impairment&lt;br/&gt;"/><marker lat="40.428831695315139" lng="-79.982712224739444" zone="Zone 3" incidentdate="2016-06-26" incidenttime="04:35:00" incidentnumber="16118337" address="S 16th St &amp; E Carson St" type="ARREST" age="17" gender="M" description="*********************************************** &lt;br/&gt;3701, Robbery.&lt;br/&gt;4914, False Identification to Law Enforcement Authorities&lt;br/&gt;903, Criminal Conspiracy.&lt;br/&gt;"/><marker lat="40.427929065959248" lng="-79.982139788014067" zone="Zone 3" incidentdate="2016-06-26" incidenttime="02:40:00" incidentnumber="16118281" address="S 17th St &amp; Sarah St" type="ARREST" age="27" gender="M" description="*********************************************** &lt;br/&gt;13(a)(16), Possession of Controlled Substance&lt;br/&gt;13(a)(31), Marijuana: Possession Small Amount&lt;br/&gt;3921, Theft by Unlawful Taking or Disposition.&lt;br/&gt;2702, Aggravated Assault.&lt;br/&gt;903, Criminal Conspiracy.&lt;br/&gt;2706, Terroristic Threats.&lt;br/&gt;"/><marker lat="40.428648587693665" lng="-79.984030978724903" zone="Zone 3" incidentdate="2016-06-26" incidenttime="01:05:00" incidentnumber="16118226" address="1400 block E Carson St" type="ARREST" age="53" gender="M" description="*********************************************** &lt;br/&gt;5503, Disorderly Conduct.&lt;br/&gt;2701, Simple Assault.&lt;br/&gt;5505, Public Drunkenness&lt;br/&gt;2706, Terroristic Threats.&lt;br/&gt;"/><marker lat="40.478174400584905" lng="-79.948747236774423" zone="Zone 2" incidentdate="2016-06-26" incidenttime="13:40:00" incidentnumber="16108461" address="4200 block Stanton Ave" type="ARREST" age="36" gender="M" description="*********************************************** &lt;br/&gt;2709(b), Stalking&lt;br/&gt;"/><marker lat="40.445926173410676" lng="-80.052351688864789" zone="Zone 6" incidentdate="2016-06-26" incidenttime="07:00:00" incidentnumber="16118359" address="1000 block Woodlow St" type="ARREST" age="21" gender="F" description="*********************************************** &lt;br/&gt;3925, Receiving Stolen Property.&lt;br/&gt;9094, Recovered Stolen Vehicle (OUTSIDE CITY)&lt;br/&gt;"/><marker lat="40.391766183657168" lng="-79.980101949724528" zone="Zone 3" incidentdate="2016-06-26" incidenttime="07:59:00" incidentnumber="16104144" address="300 block Carrick Ave" type="ARREST" age="33" gender="M" description="*********************************************** &lt;br/&gt;3921, Theft by Unlawful Taking or Disposition.&lt;br/&gt;"/><marker lat="40.458829569468811" lng="-79.893249839715324" zone="Zone 5" incidentdate="2016-06-26" incidenttime="00:52:00" incidentnumber="16118223" address="7300 block Monticello St" type="ARREST" age="20" gender="F" description="*********************************************** &lt;br/&gt;5104, Resisting Arrest or Other Law Enforcement.&lt;br/&gt;2702, Aggravated Assault.&lt;br/&gt;2701, Simple Assault.&lt;br/&gt;"/><marker lat="40.419956191563955" lng="-79.994727310611296" zone="Zone 3" incidentdate="2016-06-26" incidenttime="04:35:00" incidentnumber="16118344" address="Climax St &amp; Walter St" type="ARREST" age="29" gender="M" description="*********************************************** &lt;br/&gt;9501, Bench Warrant&lt;br/&gt;"/><marker lat="40.450813726288715" lng="-79.972243374536816" zone="Zone 2" incidentdate="2016-06-26" incidenttime="20:37:00" incidentnumber="16118693" address="Bedford Ave &amp; Chauncey Dr" type="ARREST" age="15" gender="M" description="*********************************************** &lt;br/&gt;3921(a), Theft by Unlawful Taking or Disposition - Movable item&lt;br/&gt;3745, Accidents Involving Damage to Unattended Veh.or Prop.&lt;br/&gt;1501, Drivers Required to be Licensed.&lt;br/&gt;3925, Receiving Stolen Property.&lt;br/&gt;5121, Escape.&lt;br/&gt;3323, Stop Signs and Yield Signs.&lt;br/&gt;"/><marker lat="40.486725826505598" lng="-79.924296135388687" zone="Zone 5" incidentdate="2016-06-26" incidenttime="18:26:00" incidentnumber="16118652" address="1900 block Chislett St" type="ARREST" age="22" gender="F" description="*********************************************** &lt;br/&gt;13(a)(16), Possession of Controlled Substance&lt;br/&gt;13(a)(32), Paraphernalia - Use or Possession&lt;br/&gt;"/><marker lat="40.402531912784838" lng="-80.032146701495677" zone="Zone 6" incidentdate="2016-06-26" incidenttime="20:55:00" incidentnumber="16118756" address="2300 block Candace St" type="ARREST" age="50" gender="M" description="*********************************************** &lt;br/&gt;2701, Simple Assault.&lt;br/&gt;2706, Terroristic Threats.&lt;br/&gt;907, Possessing Instruments of Crime.&lt;br/&gt;"/><marker lat="40.440332076098812" lng="-79.99811615543635" zone="Zone 2" incidentdate="2016-06-26" incidenttime="16:19:00" incidentnumber="16118571" address="500 block Smithfield St" type="ARREST" age="34" gender="M" description="*********************************************** &lt;br/&gt;9501, Bench Warrant&lt;br/&gt;"/><marker lat="40.446346164512178" lng="-79.994318011299683" zone="Zone 2" incidentdate="2016-06-26" incidenttime="19:57:00" incidentnumber="16118714" address="11th St" type="ARREST" age="27" gender="M" description="*********************************************** &lt;br/&gt;2701, Simple Assault.&lt;br/&gt;3701, Robbery.&lt;br/&gt;4914, False Identification to Law Enforcement Authorities&lt;br/&gt;3925, Receiving Stolen Property.&lt;br/&gt;907, Possessing Instruments of Crime.&lt;br/&gt;"/><marker lat="40.487931708692699" lng="-79.921344314148115" zone="Zone 5" incidentdate="2016-06-26" incidenttime="12:43:00" incidentnumber="16118481" address="7300 block Butler St" type="ARREST" age="36" gender="M" description="*********************************************** &lt;br/&gt;13(a)(32), Paraphernalia - Use or Possession&lt;br/&gt;3802(d)(2), DUI - Drug - Impaired Ability&lt;br/&gt;"/><marker lat="40.414983296810647" lng="-79.993074408092554" zone="Zone 3" incidentdate="2016-06-26" incidenttime="06:13:00" incidentnumber="16118355" address="300 block Rochelle St" type="ARREST" age="33" gender="F" description="*********************************************** &lt;br/&gt;2706, Terroristic Threats.&lt;br/&gt;2701(a)(3), Simple Assault - Attempts by Physical Menace&lt;br/&gt;"/><marker lat="40.466903491398845" lng="-79.905983448201809" zone="Zone 5" incidentdate="2016-06-26" incidenttime="18:41:00" incidentnumber="16118676" address="6500 block Deary St" type="ARREST" age="21" gender="M" description="*********************************************** &lt;br/&gt;13(a)(31), Marijuana: Possession Small Amount&lt;br/&gt;1543, Driving While Operating Privilege is Suspended or Revoked.&lt;br/&gt;4303, General Lighting Requirements.&lt;br/&gt;6106, Firearms not to be Carried without a License.&lt;br/&gt;1372, Unauthorized Transfer or Use of Registration.&lt;br/&gt;6105(a)(1), Persons not to possess, use, manufacture, control, sell or transfer firearms: Former convict enumerated in subsection (b)&lt;br/&gt;7741, Head Lamps and Tail Lamps&lt;br/&gt;"/><marker lat="40.427929065959248" lng="-79.982139788014067" zone="Zone 3" incidentdate="2016-06-26" incidenttime="02:40:00" incidentnumber="16118281" address="S 17th St &amp; Sarah St" type="ARREST" age="21" gender="M" description="*********************************************** &lt;br/&gt;13(a)(16), Possession of Controlled Substance&lt;br/&gt;13(a)(31), Marijuana: Possession Small Amount&lt;br/&gt;3921, Theft by Unlawful Taking or Disposition.&lt;br/&gt;2702, Aggravated Assault.&lt;br/&gt;903, Criminal Conspiracy.&lt;br/&gt;2706, Terroristic Threats.&lt;br/&gt;"/><marker lat="40.468658499714834" lng="-79.962329683782556" zone="Zone 2" incidentdate="2016-06-26" incidenttime="09:45:00" incidentnumber="16118411" address="200 block 40th St" type="ARREST" age="33" gender="M" description="*********************************************** &lt;br/&gt;13(a)(16), Possession of Controlled Substance&lt;br/&gt;"/><marker lat="40.456463934380572" lng="-79.896659990434486" zone="Zone 5" incidentdate="2016-06-26" incidenttime="21:58:00" incidentnumber="16118724" address="N Homewood Ave &amp; Bennett St" type="ARREST" age="20" gender="F" description="*********************************************** &lt;br/&gt;1501, Drivers Required to be Licensed.&lt;br/&gt;3742, Accidents Involving Death or Personal Injury&lt;br/&gt;3714, Careless Driving&lt;br/&gt;3323, Stop Signs and Yield Signs.&lt;br/&gt;"/></markers>
