<?xml version="1.0"?>
<markers><marker lat="40.42959549760031" lng="-79.923356946569484" zone="Zone 4" incidentdate="2016-01-10" incidenttime="02:00:00" incidentnumber="16005611" address="5800 block Forward Ave" type="OFFENSE" age="" gender="" description="*********************************************** &lt;br/&gt;2705, Recklessly Endangering Another Person.&lt;br/&gt;2702, Aggravated Assault.&lt;br/&gt;"/><marker lat="40.3866792" lng="-79.9326340" zone="Zone 1" incidentdate="2016-01-10" incidenttime="02:09:00" incidentnumber="16005590" address="Ohio River Blvd &amp; Marshall Ave Ramp" type="OFFENSE" age="" gender="" description="*********************************************** &lt;br/&gt;3802(a)(1), DUI - General Impairment&lt;br/&gt;"/><marker lat="40.423392364024551" lng="-79.977636950576056" zone="Zone 3" incidentdate="2016-01-10" incidenttime="00:45:00" incidentnumber="16005541" address="2000 block S 18th St" type="OFFENSE" age="" gender="" description="*********************************************** &lt;br/&gt;3304(a)(5), CRIMINAL MISCHIEF - Intentionally Damages Real Or Personal Property Of Another&lt;br/&gt;"/><marker lat="40.417669314235489" lng="-79.963417835194747" zone="Zone 3" incidentdate="2016-01-10" incidenttime="17:58:00" incidentnumber="16005987" address="3100 block Cordell Pl" type="OFFENSE" age="" gender="" description="*********************************************** &lt;br/&gt;2701, Simple Assault.&lt;br/&gt;"/><marker lat="40.444969548435701" lng="-80.041611026487885" zone="Zone 6" incidentdate="2016-01-10" incidenttime="10:35:00" incidentnumber="16005742" address="CHARTIERS Ave &amp; AZALIA St" type="OFFENSE" age="" gender="" description="*********************************************** &lt;br/&gt;13(a)(31), Marijuana: Possession Small Amount&lt;br/&gt;1376, Surrender of Reg. Upon Susp. or Revocation.&lt;br/&gt;"/><marker lat="40.441853646860764" lng="-79.955749838736764" zone="Zone 4" incidentdate="2016-01-10" incidenttime="12:00:00" incidentnumber="16005866" address="3900 block Forbes Ave" type="OFFENSE" age="" gender="" description="*********************************************** &lt;br/&gt;3921, Theft by Unlawful Taking or Disposition.&lt;br/&gt;"/><marker lat="40.455624262373476" lng="-80.005708088927022" zone="Zone 1" incidentdate="2016-01-10" incidenttime="05:43:00" incidentnumber="16005671" address="E North Ave &amp; Boyle St" type="OFFENSE" age="" gender="" description="*********************************************** &lt;br/&gt;3802(a)(1), DUI - General Impairment&lt;br/&gt;3802(c), DUI - Highest Rate of Alcohol - BAC &gt;= .16%&lt;br/&gt;3111, Obedience to Traffic-Control Devices.&lt;br/&gt;"/><marker lat="40.479863979313805" lng="-79.953465448846373" zone="Zone 2" incidentdate="2016-01-10" incidenttime="10:00:00" incidentnumber="16005715" address="5200 block Carnegie St" type="OFFENSE" age="" gender="" description="*********************************************** &lt;br/&gt;3304, Criminal Mischief.&lt;br/&gt;"/><marker lat="40.480771020965371" lng="-79.950567930160787" zone="Zone 2" incidentdate="2016-01-10" incidenttime="10:40:00" incidentnumber="16005739" address="5300 block Kent Way" type="OFFENSE" age="" gender="" description="*********************************************** &lt;br/&gt;3304(a)(5), CRIMINAL MISCHIEF - Intentionally Damages Real Or Personal Property Of Another&lt;br/&gt;"/><marker lat="40.405354752889011" lng="-80.018800134391739" zone="Zone 6" incidentdate="2016-01-10" incidenttime="01:30:00" incidentnumber="16005561" address="Haddon Way &amp; Capital Ave" type="OFFENSE" age="" gender="" description="*********************************************** &lt;br/&gt;3743, Accidents Involving Damage to Attended Veh. or Property&lt;br/&gt;"/><marker lat="40.457080522724901" lng="-79.9917146785331" zone="Zone 1" incidentdate="2016-01-10" incidenttime="18:38:00" incidentnumber="16006003" address="800 block Vinial St" type="OFFENSE" age="" gender="" description="*********************************************** &lt;br/&gt;9488, False  Burglar Alarm&lt;br/&gt;"/><marker lat="40.428684832699354" lng="-79.983306706238423" zone="Zone 3" incidentdate="2016-01-10" incidenttime="01:30:00" incidentnumber="16005560" address="1500 block E Carson St" type="OFFENSE" age="" gender="" description="*********************************************** &lt;br/&gt;5104, Resisting Arrest or Other Law Enforcement.&lt;br/&gt;2702, Aggravated Assault.&lt;br/&gt;5503(a)(4), DISORDERLY CONDUCT - HAZARDOUS/PHYS. OFF&lt;br/&gt;5505, Public Drunkenness&lt;br/&gt;3503.B1I, DEF. TRESPASS ACTUAL COMMUNICATION&lt;br/&gt;"/><marker lat="40.458532837073371" lng="-79.925434742971191" zone="Zone 4" incidentdate="2016-01-10" incidenttime="15:56:00" incidentnumber="16005931" address="200 block S Highland Ave" type="OFFENSE" age="" gender="" description="*********************************************** &lt;br/&gt;3745, Accidents Involving Damage to Unattended Veh.or Prop.&lt;br/&gt;"/><marker lat="40.470164734774741" lng="-80.032043293013857" zone="Zone 1" incidentdate="2016-01-10" incidenttime="16:20:00" incidentnumber="16005923" address="1400 block Evandale Rd" type="OFFENSE" age="" gender="" description="*********************************************** &lt;br/&gt;3928, Unauthorized Use of Automobile and Other Vehicles.&lt;br/&gt;"/><marker lat="40.428320126810661" lng="-79.973036816327522" zone="Zone 3" incidentdate="2016-01-10" incidenttime="02:10:00" incidentnumber="16005591" address="S 23rd St &amp; E Carson St" type="OFFENSE" age="" gender="" description="*********************************************** &lt;br/&gt;3743, Accidents Involving Damage to Attended Veh. or Property&lt;br/&gt;"/><marker lat="40.471411423607833" lng="-79.959830139270579" zone="Zone 2" incidentdate="2016-01-10" incidenttime="17:30:00" incidentnumber="16005973" address="200 block 44th St" type="OFFENSE" age="" gender="" description="*********************************************** &lt;br/&gt;029, Missing Juvenile&lt;br/&gt;"/><marker lat="40.483442699156356" lng="-80.010231661608557" zone="Zone 1" incidentdate="2016-01-10" incidenttime="04:56:00" incidentnumber="16005656" address="200 block Watson Blvd" type="OFFENSE" age="" gender="" description="*********************************************** &lt;br/&gt;9488, False  Burglar Alarm&lt;br/&gt;"/><marker lat="40.421531877189601" lng="-79.993577564166102" zone="Zone 3" incidentdate="2016-01-10" incidenttime="07:21:00" incidentnumber="16005684" address="800 block E Warrington Ave" type="OFFENSE" age="" gender="" description="*********************************************** &lt;br/&gt;9489, Found Property&lt;br/&gt;"/><marker lat="40.482573665844562" lng="-80.043412491522076" zone="Zone 1" incidentdate="2016-01-10" incidenttime="16:31:00" incidentnumber="16005928" address="1900 block Termon Ave" type="OFFENSE" age="" gender="" description="*********************************************** &lt;br/&gt;3934, Theft from Vehicle&lt;br/&gt;"/><marker lat="40.401666752083329" lng="-80.035133994794833" zone="Zone 6" incidentdate="2016-01-10" incidenttime="06:45:00" incidentnumber="16005735" address="2600 block Loisiana Ave" type="OFFENSE" age="" gender="" description="*********************************************** &lt;br/&gt;3921(a), Theft by Unlawful Taking or Disposition - Movable item&lt;br/&gt;"/><marker lat="40.458869443977015" lng="-79.992941484244952" zone="Zone 1" incidentdate="2016-01-10" incidenttime="02:25:00" incidentnumber="16005606" address="1100 block Voskamp St" type="OFFENSE" age="" gender="" description="*********************************************** &lt;br/&gt;3502, Burglary.&lt;br/&gt;"/><marker lat="40.452551254016129" lng="-79.949277413781033" zone="Zone 5" incidentdate="2016-01-10" incidenttime="20:15:00" incidentnumber="16006057" address="4700 block Centre Ave" type="OFFENSE" age="" gender="" description="*********************************************** &lt;br/&gt;3701, Robbery.&lt;br/&gt;"/><marker lat="40.421103596071127" lng="-79.985317176382438" zone="Zone 3" incidentdate="2016-01-10" incidenttime="08:30:00" incidentnumber="16005693" address="2600 block S 18th St" type="OFFENSE" age="" gender="" description="*********************************************** &lt;br/&gt;3304, Criminal Mischief.&lt;br/&gt;"/><marker lat="40.428619652406162" lng="-79.989769890359767" zone="Zone 3" incidentdate="2016-01-10" incidenttime="00:40:00" incidentnumber="16005526" address="900 block E Carson St" type="OFFENSE" age="" gender="" description="*********************************************** &lt;br/&gt;3304(a)(5), CRIMINAL MISCHIEF - Intentionally Damages Real Or Personal Property Of Another&lt;br/&gt;2701(a)(3), Simple Assault - Attempts by Physical Menace&lt;br/&gt;907, Possessing Instruments of Crime.&lt;br/&gt;"/><marker lat="40.470999082785468" lng="-79.89674879734207" zone="Zone 5" incidentdate="2016-01-10" incidenttime="20:37:00" incidentnumber="16006072" address="7100 block Churchland St" type="OFFENSE" age="" gender="" description="*********************************************** &lt;br/&gt;9123, Miscellaneous Fire Other Investigation to Continue&lt;br/&gt;"/><marker lat="40.487093945777872" lng="-79.932317634538222" zone="Zone 5" incidentdate="2016-01-10" incidenttime="00:04:00" incidentnumber="16005916" address="100 block Hawthorne Ct" type="OFFENSE" age="" gender="" description="*********************************************** &lt;br/&gt;3745, Accidents Involving Damage to Unattended Veh.or Prop.&lt;br/&gt;"/><marker lat="40.464611414920704" lng="-80.028608393736079" zone="Zone 1" incidentdate="2016-01-10" incidenttime="00:11:00" incidentnumber="16005507" address="1300 block Halsey Pl" type="OFFENSE" age="" gender="" description="*********************************************** &lt;br/&gt;3934, Theft from Vehicle&lt;br/&gt;"/><marker lat="40.444752255352768" lng="-79.899808811707061" zone="Zone 4" incidentdate="2016-01-10" incidenttime="09:00:00" incidentnumber="16005938" address="7400 block Ben Hur St" type="OFFENSE" age="" gender="" description="*********************************************** &lt;br/&gt;3304, Criminal Mischief.&lt;br/&gt;"/><marker lat="40.45637624807636" lng="-79.950565941149023" zone="Zone 5" incidentdate="2016-01-10" incidenttime="12:00:00" incidentnumber="16005962" address="Enfield St" type="OFFENSE" age="" gender="" description="*********************************************** &lt;br/&gt;3745, Accidents Involving Damage to Unattended Veh.or Prop.&lt;br/&gt;"/><marker lat="40.405564913954258" lng="-80.015276974021162" zone="Zone 6" incidentdate="2016-01-10" incidenttime="03:30:00" incidentnumber="16005638" address="1800 block Pioneer Ave" type="OFFENSE" age="" gender="" description="*********************************************** &lt;br/&gt;2701, Simple Assault.&lt;br/&gt;"/><marker lat="40.463274831217795" lng="-79.912338249402893" zone="Zone 5" incidentdate="2016-01-10" incidenttime="00:24:00" incidentnumber="16005500" address="200 block Meadow St" type="OFFENSE" age="" gender="" description="*********************************************** &lt;br/&gt;4304(a)(1), Endangering Welfare of Children - Course of Conduct Enhanced&lt;br/&gt;2701, Simple Assault.&lt;br/&gt;"/><marker lat="40.427602405332806" lng="-79.984668132181639" zone="Zone 3" incidentdate="2016-01-10" incidenttime="01:58:00" incidentnumber="16005586" address="Uxor Way" type="OFFENSE" age="" gender="" description="*********************************************** &lt;br/&gt;3304, Criminal Mischief.&lt;br/&gt;2707.1, Discharge of a Firearm into Occupied Structure&lt;br/&gt;"/><marker lat="40.455596447010507" lng="-80.009662366077109" zone="Zone 1" incidentdate="2016-01-10" incidenttime="13:30:00" incidentnumber="16005844" address="1200 block Sherman Ave" type="OFFENSE" age="" gender="" description="*********************************************** &lt;br/&gt;029, Missing Juvenile&lt;br/&gt;"/><marker lat="40.436554160228923" lng="-79.981444568232604" zone="Zone 2" incidentdate="2016-01-10" incidenttime="20:09:00" incidentnumber="16006050" address="1800 block Locust St" type="OFFENSE" age="" gender="" description="*********************************************** &lt;br/&gt;9999, 9999 - (Misc. Incident):&lt;br/&gt;"/><marker lat="40.441371364794612" lng="-80.00389725761795" zone="Zone 2" incidentdate="2016-01-10" incidenttime="01:54:00" incidentnumber="16005565" address="Liberty Ave &amp; Stanwix St" type="OFFENSE" age="" gender="" description="*********************************************** &lt;br/&gt;3802(a)(1), DUI - General Impairment&lt;br/&gt;"/><marker lat="40.479404139578051" lng="-79.952653932272639" zone="Zone 2" incidentdate="2016-01-10" incidenttime="11:30:00" incidentnumber="16005777" address="5200 block Keystone St" type="OFFENSE" age="" gender="" description="*********************************************** &lt;br/&gt;3304, Criminal Mischief.&lt;br/&gt;"/><marker lat="40.448800264565456" lng="-79.987415224990301" zone="Zone 2" incidentdate="2016-01-10" incidenttime="14:30:00" incidentnumber="16005889" address="1600 block Penn Ave" type="OFFENSE" age="" gender="" description="*********************************************** &lt;br/&gt;3745, Accidents Involving Damage to Unattended Veh.or Prop.&lt;br/&gt;"/><marker lat="40.454045817911506" lng="-79.997808108630522" zone="Zone 1" incidentdate="2016-01-10" incidenttime="01:30:00" incidentnumber="16005616" address="700 block East St" type="OFFENSE" age="" gender="" description="*********************************************** &lt;br/&gt;2701, Simple Assault.&lt;br/&gt;"/><marker lat="40.442802683726654" lng="-80.032470494061599" zone="Zone 6" incidentdate="2016-01-10" incidenttime="10:30:00" incidentnumber="16005741" address="100 block Steuben St" type="OFFENSE" age="" gender="" description="*********************************************** &lt;br/&gt;9488, False  Burglar Alarm&lt;br/&gt;"/><marker lat="40.456369305783525" lng="-80.053424121419937" zone="Zone 6" incidentdate="2016-01-10" incidenttime="01:30:00" incidentnumber="16005714" address="3000 block Zephyr Ave" type="OFFENSE" age="" gender="" description="*********************************************** &lt;br/&gt;3304, Criminal Mischief.&lt;br/&gt;"/><marker lat="40.482085029560658" lng="-79.95252308773938" zone="Zone 2" incidentdate="2016-01-10" incidenttime="10:00:00" incidentnumber="16005728" address="100 block 53rd St" type="OFFENSE" age="" gender="" description="*********************************************** &lt;br/&gt;3304, Criminal Mischief.&lt;br/&gt;"/><marker lat="40.455596447010507" lng="-80.009662366077109" zone="Zone 1" incidentdate="2016-01-10" incidenttime="20:04:00" incidentnumber="16005842" address="1200 block Sherman Ave" type="OFFENSE" age="" gender="" description="*********************************************** &lt;br/&gt;029, Missing Juvenile&lt;br/&gt;"/><marker lat="40.478527918985435" lng="-79.951671360228374" zone="Zone 2" incidentdate="2016-01-10" incidenttime="10:10:00" incidentnumber="16005731" address="5200 block Lotus Way" type="OFFENSE" age="" gender="" description="*********************************************** &lt;br/&gt;3304(a)(5), CRIMINAL MISCHIEF - Intentionally Damages Real Or Personal Property Of Another&lt;br/&gt;"/><marker lat="40.478527918985435" lng="-79.951671360228374" zone="Zone 2" incidentdate="2016-01-10" incidenttime="15:30:00" incidentnumber="16005904" address="5200 block Lotus Way" type="OFFENSE" age="" gender="" description="*********************************************** &lt;br/&gt;3304, Criminal Mischief.&lt;br/&gt;"/><marker lat="40.8651040" lng="-79.9022024" zone="Zone 5" incidentdate="2016-01-10" incidenttime="00:25:00" incidentnumber="16005508" address="Broad St &amp; Penn Cir E" type="OFFENSE" age="" gender="" description="*********************************************** &lt;br/&gt;3743, Accidents Involving Damage to Attended Veh. or Property&lt;br/&gt;9094, Recovered Stolen Vehicle (OUTSIDE CITY)&lt;br/&gt;"/><marker lat="40.464066575978549" lng="-79.953684462163366" zone="Zone 5" incidentdate="2016-01-10" incidenttime="08:37:00" incidentnumber="16005694" address="4100 block Howley St" type="OFFENSE" age="" gender="" description="*********************************************** &lt;br/&gt;5503(a)(1), DISORDERLY CONDUCT - ENGAGE IN FIGHTING&lt;br/&gt;"/><marker lat="40.474259937428243" lng="-80.010532705998429" zone="Zone 1" incidentdate="2016-01-10" incidenttime="23:18:00" incidentnumber="16006119" address="200 block Kennedy Ave" type="OFFENSE" age="" gender="" description="*********************************************** &lt;br/&gt;3502, Burglary.&lt;br/&gt;"/><marker lat="40.453675260485205" lng="-79.888741375894227" zone="Zone 5" incidentdate="2016-01-10" incidenttime="15:55:00" incidentnumber="16005902" address="700 block Brushton Ave" type="OFFENSE" age="" gender="" description="*********************************************** &lt;br/&gt;2702, Aggravated Assault.&lt;br/&gt;2606(a), Aggravated Assault on Unborn Child&lt;br/&gt;"/><marker lat="40.446207760459167" lng="-79.906250319730987" zone="Zone 4" incidentdate="2016-01-10" incidenttime="08:00:00" incidentnumber="16005690" address="500 block S Lang Ave" type="OFFENSE" age="" gender="" description="*********************************************** &lt;br/&gt;3304, Criminal Mischief.&lt;br/&gt;"/><marker lat="40.450524087396616" lng="-79.972783406843163" zone="Zone 2" incidentdate="2016-01-10" incidenttime="16:23:00" incidentnumber="16005920" address="2500 block Bedford Ave" type="OFFENSE" age="" gender="" description="*********************************************** &lt;br/&gt;3304, Criminal Mischief.&lt;br/&gt;"/><marker lat="40.484390841822403" lng="-80.037033247623029" zone="Zone 1" incidentdate="2016-01-10" incidenttime="10:00:00" incidentnumber="16006126" address="1400 block Benton Ave" type="OFFENSE" age="" gender="" description="*********************************************** &lt;br/&gt;3921(a), Theft by Unlawful Taking or Disposition - Movable item&lt;br/&gt;"/><marker lat="40.456774461007349" lng="-80.052688160849073" zone="Zone 6" incidentdate="2016-01-10" incidenttime="19:00:00" incidentnumber="16006025" address="3000 block Glen Mawr St" type="OFFENSE" age="" gender="" description="*********************************************** &lt;br/&gt;2709, Harassment (Non-Specific)&lt;br/&gt;3928, Unauthorized Use of Automobile and Other Vehicles.&lt;br/&gt;"/><marker lat="40.469222816226129" lng="-80.030265846271092" zone="Zone 1" incidentdate="2016-01-10" incidenttime="07:30:00" incidentnumber="16005805" address="1300 block Woodland Ave" type="OFFENSE" age="" gender="" description="*********************************************** &lt;br/&gt;3304, Criminal Mischief.&lt;br/&gt;"/><marker lat="40.440301432572625" lng="-79.958221928264905" zone="Zone 4" incidentdate="2016-01-10" incidenttime="02:30:00" incidentnumber="16005700" address="200 block Meyran Ave" type="OFFENSE" age="" gender="" description="*********************************************** &lt;br/&gt;2701(a)(1), Simple Assault - Intent., Know., Reckless.Cause Bod. Injury&lt;br/&gt;"/><marker lat="40.441816158808521" lng="-79.983983015223103" zone="Zone 2" incidentdate="2016-01-10" incidenttime="01:37:00" incidentnumber="16005569" address="1700 block Centre Ave" type="OFFENSE" age="" gender="" description="*********************************************** &lt;br/&gt;9999, 9999 - (Misc. Incident):&lt;br/&gt;"/><marker lat="40.450892721440539" lng="-80.000843891836467" zone="Zone 1" incidentdate="2016-01-10" incidenttime="20:29:00" incidentnumber="16006068" address="300 block Cedar Ave" type="OFFENSE" age="" gender="" description="*********************************************** &lt;br/&gt;3304, Criminal Mischief.&lt;br/&gt;"/><marker lat="40.428684832699354" lng="-79.983306706238423" zone="Zone 3" incidentdate="2016-01-10" incidenttime="01:50:00" incidentnumber="16005578" address="1500 block E Carson St" type="OFFENSE" age="" gender="" description="*********************************************** &lt;br/&gt;5503(a)(4), DISORDERLY CONDUCT - HAZARDOUS/PHYS. OFF&lt;br/&gt;5505, Public Drunkenness&lt;br/&gt;3304(a)(5), CRIMINAL MISCHIEF - Intentionally Damages Real Or Personal Property Of Another&lt;br/&gt;5121, Escape.&lt;br/&gt;"/><marker lat="40.399184649147095" lng="-80.025493435297477" zone="Zone 6" incidentdate="2016-01-10" incidenttime="03:05:00" incidentnumber="16005614" address="2500 block West Liberty Ave" type="OFFENSE" age="" gender="" description="*********************************************** &lt;br/&gt;9488, False  Burglar Alarm&lt;br/&gt;"/><marker lat="40.438808783984314" lng="-80.001618548213528" zone="Zone 2" incidentdate="2016-01-10" incidenttime="14:30:00" incidentnumber="16005882" address="300 block 3rd Ave" type="OFFENSE" age="" gender="" description="*********************************************** &lt;br/&gt;3924, Theft of Property Lost, Mislaid or Delivered by Mistake.&lt;br/&gt;"/><marker lat="40.480771020965371" lng="-79.950567930160787" zone="Zone 2" incidentdate="2016-01-10" incidenttime="10:30:00" incidentnumber="16005737" address="5300 block Kent Way" type="OFFENSE" age="" gender="" description="*********************************************** &lt;br/&gt;3304(a)(5), CRIMINAL MISCHIEF - Intentionally Damages Real Or Personal Property Of Another&lt;br/&gt;"/><marker lat="40.409146942960085" lng="-80.03468204589403" zone="Zone 6" incidentdate="2016-01-10" incidenttime="11:30:00" incidentnumber="16005789" address="1800 block Maydell St" type="OFFENSE" age="" gender="" description="*********************************************** &lt;br/&gt;3934, Theft from Vehicle&lt;br/&gt;"/><marker lat="40.440304790069646" lng="-80.042884008118136" zone="Zone 6" incidentdate="2016-01-10" incidenttime="18:03:00" incidentnumber="16005991" address="800 block Herschel St" type="OFFENSE" age="" gender="" description="*********************************************** &lt;br/&gt;3503, Criminal Trespass&lt;br/&gt;3304(a)(5), CRIMINAL MISCHIEF - Intentionally Damages Real Or Personal Property Of Another&lt;br/&gt;"/><marker lat="40.476723646808125" lng="-80.034588663775878" zone="Zone 1" incidentdate="2016-01-10" incidenttime="22:55:00" incidentnumber="16006112" address="1400 block Beckham St" type="OFFENSE" age="" gender="" description="*********************************************** &lt;br/&gt;9488, False  Burglar Alarm&lt;br/&gt;"/><marker lat="40.475802526139333" lng="-79.960481544736538" zone="Zone 2" incidentdate="2016-01-10" incidenttime="00:05:00" incidentnumber="16005536" address="4700 block Plum Way" type="OFFENSE" age="" gender="" description="*********************************************** &lt;br/&gt;3921(a), Theft by Unlawful Taking or Disposition - Movable item&lt;br/&gt;"/><marker lat="40.38834084825384" lng="-80.020869257751087" zone="Zone 6" incidentdate="2016-01-10" incidenttime="01:15:00" incidentnumber="16005568" address="1000 block Norwich Ave" type="OFFENSE" age="" gender="" description="*********************************************** &lt;br/&gt;3304, Criminal Mischief.&lt;br/&gt;"/><marker lat="40.456263933245559" lng="-80.015326678076889" zone="Zone 1" incidentdate="2016-01-10" incidenttime="16:40:00" incidentnumber="16005913" address="1400 block Brighton Rd" type="OFFENSE" age="" gender="" description="*********************************************** &lt;br/&gt;13(a)(32), Paraphernalia - Use or Possession&lt;br/&gt;9501, Bench Warrant&lt;br/&gt;"/><marker lat="40.443797250690899" lng="-80.038898645046316" zone="Zone 6" incidentdate="2016-01-10" incidenttime="19:12:00" incidentnumber="16006020" address="300 block Ainsworth St" type="OFFENSE" age="" gender="" description="*********************************************** &lt;br/&gt;9498, 302 (Mental)&lt;br/&gt;"/><marker lat="40.456058278524658" lng="-79.904723021825518" zone="Zone 5" incidentdate="2016-01-10" incidenttime="16:35:00" incidentnumber="16005940" address="6900 block Hamilton Ave" type="OFFENSE" age="" gender="" description="*********************************************** &lt;br/&gt;3304, Criminal Mischief.&lt;br/&gt;"/><marker lat="40.434348049519336" lng="-80.006335021862654" zone="Zone 3" incidentdate="2016-01-10" incidenttime="15:18:00" incidentnumber="16005939" address="300 block Station Square Drive (Sheraton Hotel)" type="OFFENSE" age="" gender="" description="*********************************************** &lt;br/&gt;5503, Disorderly Conduct.&lt;br/&gt;5505, Public Drunkenness&lt;br/&gt;3503.B1I, DEF. TRESPASS ACTUAL COMMUNICATION&lt;br/&gt;"/><marker lat="40.428746746224945" lng="-79.982646526389246" zone="Zone 3" incidentdate="2016-01-10" incidenttime="01:15:00" incidentnumber="16005553" address="1600 block E Carson St" type="OFFENSE" age="" gender="" description="*********************************************** &lt;br/&gt;5507, Obstructing Highways and Passages.&lt;br/&gt;5503(a)(4), DISORDERLY CONDUCT - HAZARDOUS/PHYS. OFF&lt;br/&gt;5505, Public Drunkenness&lt;br/&gt;"/><marker lat="40.45584959643125" lng="-79.930434547158555" zone="Zone 4" incidentdate="2016-01-10" incidenttime="02:25:00" incidentnumber="16005943" address="5800 block Ellsworth Ave" type="OFFENSE" age="" gender="" description="*********************************************** &lt;br/&gt;3921(a), Theft by Unlawful Taking or Disposition - Movable item&lt;br/&gt;"/><marker lat="40.455596447010507" lng="-80.009662366077109" zone="Zone 1" incidentdate="2016-01-10" incidenttime="13:45:00" incidentnumber="16005842" address="1200 block Sherman Ave" type="OFFENSE" age="" gender="" description="*********************************************** &lt;br/&gt;029, Missing Juvenile&lt;br/&gt;"/><marker lat="40.460822296651372" lng="-79.915681512493606" zone="Zone 5" incidentdate="2016-01-10" incidenttime="15:13:00" incidentnumber="16005885" address="East Liberty Blvd &amp; Frankstown Ave" type="OFFENSE" age="" gender="" description="*********************************************** &lt;br/&gt;3743, Accidents Involving Damage to Attended Veh. or Property&lt;br/&gt;"/><marker lat="40.446207760459167" lng="-79.906250319730987" zone="Zone 4" incidentdate="2016-01-10" incidenttime="07:45:00" incidentnumber="16005698" address="500 block S Lang Ave" type="OFFENSE" age="" gender="" description="*********************************************** &lt;br/&gt;3304, Criminal Mischief.&lt;br/&gt;"/><marker lat="40.454614947288412" lng="-80.014854314791251" zone="Zone 1" incidentdate="2016-01-10" incidenttime="16:40:00" incidentnumber="15235445" address="1200 block Brighton Rd" type="OFFENSE" age="" gender="" description="*********************************************** &lt;br/&gt;3929, Retail Theft.&lt;br/&gt;"/><marker lat="40.453462479588403" lng="-80.062014738264537" zone="Zone 6" incidentdate="2016-01-10" incidenttime="18:01:00" incidentnumber="16005997" address="3100 block Huxley St" type="OFFENSE" age="" gender="" description="*********************************************** &lt;br/&gt;9999, 9999 - (Misc. Incident):&lt;br/&gt;"/><marker lat="40.427602405332806" lng="-79.984668132181639" zone="Zone 3" incidentdate="2016-01-10" incidenttime="01:55:00" incidentnumber="16006024" address="Uxor Way" type="OFFENSE" age="" gender="" description="*********************************************** &lt;br/&gt;3304, Criminal Mischief.&lt;br/&gt;2707.1, Discharge of a Firearm into Occupied Structure&lt;br/&gt;"/><marker lat="40.483502375116039" lng="-80.025899394548219" zone="Zone 1" incidentdate="2016-01-10" incidenttime="07:15:00" incidentnumber="16005683" address="700 block Woods Run Ave" type="OFFENSE" age="" gender="" description="*********************************************** &lt;br/&gt;9123, Miscellaneous Fire Other Investigation to Continue&lt;br/&gt;"/><marker lat="40.445926173410676" lng="-80.052351688864789" zone="Zone 6" incidentdate="2016-01-10" incidenttime="15:49:00" incidentnumber="16005899" address="1000 block Woodlow St" type="OFFENSE" age="" gender="" description="*********************************************** &lt;br/&gt;9497, Aided Case&lt;br/&gt;"/><marker lat="40.468392049674968" lng="-80.025256332998723" zone="Zone 1" incidentdate="2016-01-10" incidenttime="15:10:00" incidentnumber="16005883" address="1100 block Highwood St" type="OFFENSE" age="" gender="" description="*********************************************** &lt;br/&gt;2701, Simple Assault.&lt;br/&gt;3929(a)(1), Retail Theft; takes possession of, carries away, or transfers displayed merchandise&lt;br/&gt;"/><marker lat="40.3848018" lng="-80.0023483" zone="Zone 3" incidentdate="2016-01-10" incidenttime="12:00:00" incidentnumber="16005884" address="2300 block Parklyn St" type="OFFENSE" age="" gender="" description="*********************************************** &lt;br/&gt;2709(a), Harassment.&lt;br/&gt;"/><marker lat="40.400239062824255" lng="-79.966189329634872" zone="Zone 4" incidentdate="2016-01-10" incidenttime="19:15:00" incidentnumber="16006046" address="900 block Agnew Rd" type="OFFENSE" age="" gender="" description="*********************************************** &lt;br/&gt;029, Missing Juvenile&lt;br/&gt;"/><marker lat="40.458145456551087" lng="-79.989782292941541" zone="Zone 1" incidentdate="2016-01-10" incidenttime="00:01:00" incidentnumber="16005505" address="1300 block Goettmann St" type="OFFENSE" age="" gender="" description="*********************************************** &lt;br/&gt;3304(a)(5), CRIMINAL MISCHIEF - Intentionally Damages Real Or Personal Property Of Another&lt;br/&gt;"/><marker lat="40.422205884773788" lng="-79.965399724379211" zone="Zone 3" incidentdate="2016-01-10" incidenttime="10:30:00" incidentnumber="16005790" address="3000 block Josephine St" type="OFFENSE" age="" gender="" description="*********************************************** &lt;br/&gt;3304, Criminal Mischief.&lt;br/&gt;"/><marker lat="40.412165395247094" lng="-79.993066811407445" zone="Zone 3" incidentdate="2016-01-10" incidenttime="01:20:00" incidentnumber="16005554" address="300 block Arabella St" type="OFFENSE" age="" gender="" description="*********************************************** &lt;br/&gt;2706, Terroristic Threats.&lt;br/&gt;2701(a)(3), Simple Assault - Attempts by Physical Menace&lt;br/&gt;"/><marker lat="40.481050044460517" lng="-79.950675261772787" zone="Zone 2" incidentdate="2016-01-10" incidenttime="10:00:00" incidentnumber="16005814" address="5300 block Keystone St" type="OFFENSE" age="" gender="" description="*********************************************** &lt;br/&gt;3304, Criminal Mischief.&lt;br/&gt;"/><marker lat="40.475639774908238" lng="-80.030763711820484" zone="Zone 1" incidentdate="2016-01-10" incidenttime="22:03:00" incidentnumber="16006100" address="3200 block Brighton Rd" type="OFFENSE" age="" gender="" description="*********************************************** &lt;br/&gt;3701, Robbery.&lt;br/&gt;"/><marker lat="40.427081781994367" lng="-79.967068291202835" zone="Zone 3" incidentdate="2016-01-10" incidenttime="03:59:00" incidentnumber="16005644" address="S 27th St &amp; E Carson St" type="OFFENSE" age="" gender="" description="*********************************************** &lt;br/&gt;2702, Aggravated Assault.&lt;br/&gt;3112, Traffic-Control Signals.&lt;br/&gt;1301, Registration and Certificate of Title Required.&lt;br/&gt;"/><marker lat="40.478514482621321" lng="-79.951760251194585" zone="Zone 2" incidentdate="2016-01-10" incidenttime="09:30:00" incidentnumber="16005711" address="52nd St &amp; Lotus Way" type="OFFENSE" age="" gender="" description="*********************************************** &lt;br/&gt;3304(a)(5), CRIMINAL MISCHIEF - Intentionally Damages Real Or Personal Property Of Another&lt;br/&gt;"/><marker lat="40.409518400387689" lng="-80.035756027116264" zone="Zone 6" incidentdate="2016-01-10" incidenttime="03:00:00" incidentnumber="16005858" address="1800 block Woodcove Pl" type="OFFENSE" age="" gender="" description="*********************************************** &lt;br/&gt;3921, Theft by Unlawful Taking or Disposition.&lt;br/&gt;"/><marker lat="40.478527918985435" lng="-79.951671360228374" zone="Zone 2" incidentdate="2016-01-10" incidenttime="10:00:00" incidentnumber="16005713" address="5200 block Lotus Way" type="OFFENSE" age="" gender="" description="*********************************************** &lt;br/&gt;3304, Criminal Mischief.&lt;br/&gt;"/><marker lat="40.400239062824255" lng="-79.966189329634872" zone="Zone 4" incidentdate="2016-01-10" incidenttime="19:15:00" incidentnumber="16006031" address="900 block Agnew Rd" type="OFFENSE" age="" gender="" description="*********************************************** &lt;br/&gt;9490, Missing Persons (18 and Over)&lt;br/&gt;"/><marker lat="40.450200207420167" lng="-80.056230624856667" zone="Zone 6" incidentdate="2016-01-10" incidenttime="09:42:00" incidentnumber="16005722" address="1200 block Straka St" type="OFFENSE" age="" gender="" description="*********************************************** &lt;br/&gt;4106, Access Device Fraud&lt;br/&gt;"/><marker lat="40.444969548435701" lng="-80.041611026487885" zone="Zone 6" incidentdate="2016-01-10" incidenttime="10:35:00" incidentnumber="16005742" address="CHARTIERS Ave &amp; AZALIA St" type="ARREST" age="27" gender="M" description="*********************************************** &lt;br/&gt;13(a)(31), Marijuana: Possession Small Amount&lt;br/&gt;1376, Surrender of Reg. Upon Susp. or Revocation.&lt;br/&gt;"/><marker lat="40.439094647295157" lng="-80.059248003857576" zone="Zone 6" incidentdate="2016-01-10" incidenttime="16:45:00" incidentnumber="16005412" address="1500 block Ridenour Ave" type="ARREST" age="32" gender="F" description="*********************************************** &lt;br/&gt;2701(a)(3), Simple Assault - Attempts by Physical Menace&lt;br/&gt;"/><marker lat="40.428684832699354" lng="-79.983306706238423" zone="Zone 3" incidentdate="2016-01-10" incidenttime="20:52:00" incidentnumber="15242305" address="1500 block E Carson St" type="ARREST" age="22" gender="M" description="*********************************************** &lt;br/&gt;2701, Simple Assault.&lt;br/&gt;"/><marker lat="40.456263933245559" lng="-80.015326678076889" zone="Zone 1" incidentdate="2016-01-10" incidenttime="16:40:00" incidentnumber="16005913" address="1400 block Brighton Rd" type="ARREST" age="49" gender="M" description="*********************************************** &lt;br/&gt;13(a)(32), Paraphernalia - Use or Possession&lt;br/&gt;9501, Bench Warrant&lt;br/&gt;"/><marker lat="40.428746746224945" lng="-79.982646526389246" zone="Zone 3" incidentdate="2016-01-10" incidenttime="01:15:00" incidentnumber="16005553" address="1600 block E Carson St" type="ARREST" age="21" gender="F" description="*********************************************** &lt;br/&gt;5507, Obstructing Highways and Passages.&lt;br/&gt;5503(a)(4), DISORDERLY CONDUCT - HAZARDOUS/PHYS. OFF&lt;br/&gt;5505, Public Drunkenness&lt;br/&gt;"/><marker lat="40.428684832699354" lng="-79.983306706238423" zone="Zone 3" incidentdate="2016-01-10" incidenttime="01:46:00" incidentnumber="16005578" address="1500 block E Carson St" type="ARREST" age="22" gender="M" description="*********************************************** &lt;br/&gt;5503(a)(4), DISORDERLY CONDUCT - HAZARDOUS/PHYS. OFF&lt;br/&gt;5505, Public Drunkenness&lt;br/&gt;3304(a)(5), CRIMINAL MISCHIEF - Intentionally Damages Real Or Personal Property Of Another&lt;br/&gt;5121, Escape.&lt;br/&gt;"/><marker lat="40.463274831217795" lng="-79.912338249402893" zone="Zone 5" incidentdate="2016-01-10" incidenttime="00:35:00" incidentnumber="16005500" address="200 block Meadow St" type="ARREST" age="34" gender="M" description="*********************************************** &lt;br/&gt;4304(a)(1), Endangering Welfare of Children - Course of Conduct Enhanced&lt;br/&gt;2701, Simple Assault.&lt;br/&gt;"/><marker lat="40.437326895989223" lng="-79.952946848990564" zone="Zone 4" incidentdate="2016-01-10" incidenttime="03:54:00" incidentnumber="16005498" address="Atwood St &amp; Cable Pl" type="ARREST" age="18" gender="M" description="*********************************************** &lt;br/&gt;2705, Recklessly Endangering Another Person.&lt;br/&gt;3361, Driving Vehicle at Safe Speed.&lt;br/&gt;3736, Reckless Driving&lt;br/&gt;3701, Robbery.&lt;br/&gt;3745, Accidents Involving Damage to Unattended Veh.or Prop.&lt;br/&gt;3334, Turning Movements and Required Signals.&lt;br/&gt;903, Criminal Conspiracy.&lt;br/&gt;5121, Escape.&lt;br/&gt;3112, Traffic-Control Signals.&lt;br/&gt;3733, Fleeing or Attempting to Elude Police Officer&lt;br/&gt;3323, Stop Signs and Yield Signs.&lt;br/&gt;907, Possessing Instruments of Crime.&lt;br/&gt;3308, One-Way Roadways and Rotary Traffic Islands.&lt;br/&gt;3301, Arson&lt;br/&gt;3362, Maximum Speed Limits.&lt;br/&gt;"/><marker lat="40.427081781994367" lng="-79.967068291202835" zone="Zone 3" incidentdate="2016-01-10" incidenttime="04:08:00" incidentnumber="16005644" address="S 27th St &amp; E Carson St" type="ARREST" age="34" gender="M" description="*********************************************** &lt;br/&gt;2702, Aggravated Assault.&lt;br/&gt;3112, Traffic-Control Signals.&lt;br/&gt;1301, Registration and Certificate of Title Required.&lt;br/&gt;"/><marker lat="40.412165395247094" lng="-79.993066811407445" zone="Zone 3" incidentdate="2016-01-10" incidenttime="01:36:00" incidentnumber="16005554" address="300 block Arabella St" type="ARREST" age="31" gender="M" description="*********************************************** &lt;br/&gt;2706, Terroristic Threats.&lt;br/&gt;2701(a)(3), Simple Assault - Attempts by Physical Menace&lt;br/&gt;"/><marker lat="40.480412767851995" lng="-80.040857362064529" zone="Zone 1" incidentdate="2016-01-10" incidenttime="10:40:00" incidentnumber="15246851" address="3600 block California Ave" type="ARREST" age="56" gender="M" description="*********************************************** &lt;br/&gt;3927, Theft by Failure to Make Required Disp. of Funds&lt;br/&gt;"/><marker lat="40.428619652406162" lng="-79.989769890359767" zone="Zone 3" incidentdate="2016-01-10" incidenttime="02:40:00" incidentnumber="16005526" address="900 block E Carson St" type="ARREST" age="24" gender="M" description="*********************************************** &lt;br/&gt;3304(a)(5), CRIMINAL MISCHIEF - Intentionally Damages Real Or Personal Property Of Another&lt;br/&gt;2701(a)(3), Simple Assault - Attempts by Physical Menace&lt;br/&gt;907, Possessing Instruments of Crime.&lt;br/&gt;"/><marker lat="40.3866792" lng="-79.9326340" zone="Zone 1" incidentdate="2016-01-10" incidenttime="02:09:00" incidentnumber="16005590" address="Ohio River Blvd &amp; Marshall Ave Ramp" type="ARREST" age="43" gender="M" description="*********************************************** &lt;br/&gt;3802(a)(1), DUI - General Impairment&lt;br/&gt;"/><marker lat="40.454614947288412" lng="-80.014854314791251" zone="Zone 1" incidentdate="2016-01-10" incidenttime="16:30:00" incidentnumber="15235445" address="1200 block Brighton Rd" type="ARREST" age="49" gender="M" description="*********************************************** &lt;br/&gt;3929, Retail Theft.&lt;br/&gt;"/><marker lat="40.437326895989223" lng="-79.952946848990564" zone="Zone 4" incidentdate="2016-01-10" incidenttime="03:52:00" incidentnumber="16005498" address="Atwood St &amp; Cable Pl" type="ARREST" age="18" gender="M" description="*********************************************** &lt;br/&gt;2705, Recklessly Endangering Another Person.&lt;br/&gt;3361, Driving Vehicle at Safe Speed.&lt;br/&gt;3736, Reckless Driving&lt;br/&gt;3701, Robbery.&lt;br/&gt;3745, Accidents Involving Damage to Unattended Veh.or Prop.&lt;br/&gt;3334, Turning Movements and Required Signals.&lt;br/&gt;903, Criminal Conspiracy.&lt;br/&gt;5121, Escape.&lt;br/&gt;3112, Traffic-Control Signals.&lt;br/&gt;3733, Fleeing or Attempting to Elude Police Officer&lt;br/&gt;3323, Stop Signs and Yield Signs.&lt;br/&gt;907, Possessing Instruments of Crime.&lt;br/&gt;3308, One-Way Roadways and Rotary Traffic Islands.&lt;br/&gt;3301, Arson&lt;br/&gt;3362, Maximum Speed Limits.&lt;br/&gt;"/><marker lat="40.434586774687588" lng="-79.954590339723737" zone="Zone 4" incidentdate="2016-01-10" incidenttime="03:52:00" incidentnumber="15248071" address="Ward St &amp; Blvd Of The Allies" type="ARREST" age="18" gender="M" description="*********************************************** &lt;br/&gt;3921(a), Theft by Unlawful Taking or Disposition - Movable item&lt;br/&gt;3925, Receiving Stolen Property.&lt;br/&gt;"/><marker lat="40.455624262373476" lng="-80.005708088927022" zone="Zone 1" incidentdate="2016-01-10" incidenttime="05:43:00" incidentnumber="16005671" address="E North Ave &amp; Boyle St" type="ARREST" age="29" gender="M" description="*********************************************** &lt;br/&gt;3802(a)(1), DUI - General Impairment&lt;br/&gt;3802(c), DUI - Highest Rate of Alcohol - BAC &gt;= .16%&lt;br/&gt;3111, Obedience to Traffic-Control Devices.&lt;br/&gt;"/><marker lat="40.434348049519336" lng="-80.006335021862654" zone="Zone 3" incidentdate="2016-01-10" incidenttime="16:45:00" incidentnumber="16005939" address="300 block Station Square Drive (Sheraton Hotel)" type="ARREST" age="53" gender="M" description="*********************************************** &lt;br/&gt;5503, Disorderly Conduct.&lt;br/&gt;5505, Public Drunkenness&lt;br/&gt;3503.B1I, DEF. TRESPASS ACTUAL COMMUNICATION&lt;br/&gt;"/><marker lat="40.428684832699354" lng="-79.983306706238423" zone="Zone 3" incidentdate="2016-01-10" incidenttime="01:30:00" incidentnumber="16005560" address="1500 block E Carson St" type="ARREST" age="22" gender="M" description="*********************************************** &lt;br/&gt;5104, Resisting Arrest or Other Law Enforcement.&lt;br/&gt;2702, Aggravated Assault.&lt;br/&gt;5503(a)(4), DISORDERLY CONDUCT - HAZARDOUS/PHYS. OFF&lt;br/&gt;5505, Public Drunkenness&lt;br/&gt;3503.B1I, DEF. TRESPASS ACTUAL COMMUNICATION&lt;br/&gt;"/><marker lat="40.437326895989223" lng="-79.952946848990564" zone="Zone 4" incidentdate="2016-01-10" incidenttime="03:54:00" incidentnumber="16005498" address="Atwood St &amp; Cable Pl" type="ARREST" age="17" gender="M" description="*********************************************** &lt;br/&gt;2705, Recklessly Endangering Another Person.&lt;br/&gt;3361, Driving Vehicle at Safe Speed.&lt;br/&gt;3736, Reckless Driving&lt;br/&gt;3701, Robbery.&lt;br/&gt;3745, Accidents Involving Damage to Unattended Veh.or Prop.&lt;br/&gt;3334, Turning Movements and Required Signals.&lt;br/&gt;903, Criminal Conspiracy.&lt;br/&gt;5121, Escape.&lt;br/&gt;3112, Traffic-Control Signals.&lt;br/&gt;3733, Fleeing or Attempting to Elude Police Officer&lt;br/&gt;3323, Stop Signs and Yield Signs.&lt;br/&gt;907, Possessing Instruments of Crime.&lt;br/&gt;3308, One-Way Roadways and Rotary Traffic Islands.&lt;br/&gt;3301, Arson&lt;br/&gt;3362, Maximum Speed Limits.&lt;br/&gt;"/><marker lat="40.441371364794612" lng="-80.00389725761795" zone="Zone 2" incidentdate="2016-01-10" incidenttime="01:54:00" incidentnumber="16005565" address="Liberty Ave &amp; Stanwix St" type="ARREST" age="23" gender="M" description="*********************************************** &lt;br/&gt;3802(a)(1), DUI - General Impairment&lt;br/&gt;"/></markers>
