<?xml version="1.0"?>
<markers><marker lat="40.431337853528241" lng="-79.959101226728478" zone="Zone 4" incidentdate="2015-05-24" incidenttime="03:00:00" incidentnumber="15092233" address="Bates St" type="OFFENSE" age="" gender="" description="*********************************************** &lt;br/&gt;3304, Criminal Mischief.&lt;br/&gt;3743, Accidents Involving Damage to Attended Veh. or Property&lt;br/&gt;"/><marker lat="40.428525346615174" lng="-79.982082255639511" zone="Zone 3" incidentdate="2015-05-24" incidenttime="01:02:00" incidentnumber="15092131" address="S 17th St &amp; Roland St" type="OFFENSE" age="" gender="" description="*********************************************** &lt;br/&gt;601.16, Public Urination And Defecation&lt;br/&gt;"/><marker lat="40.404914940128336" lng="-80.040145473413176" zone="Zone 6" incidentdate="2015-05-24" incidenttime="19:40:00" incidentnumber="15092568" address="2800 block Banksville Rd" type="OFFENSE" age="" gender="" description="*********************************************** &lt;br/&gt;13(a)(16), Possession of Controlled Substance&lt;br/&gt;907, Possessing Instruments of Crime.&lt;br/&gt;903, Criminal Conspiracy.&lt;br/&gt;13(a)(32), Paraphernalia - Use or Possession&lt;br/&gt;5902(a)(1), Prostitution&lt;br/&gt;"/><marker lat="40.37592381998715" lng="-80.00489856833849" zone="Zone 3" incidentdate="2015-05-24" incidenttime="16:30:00" incidentnumber="15092438" address="2900 block Library Rd" type="OFFENSE" age="" gender="" description="*********************************************** &lt;br/&gt;9999, 9999 - (Misc. Incident):&lt;br/&gt;"/><marker lat="40.4291077" lng="-79.9992410" zone="Zone 3" incidentdate="2015-05-24" incidenttime="01:40:00" incidentnumber="15092153" address="Liberty Tunl &amp; P J Mc Ardle Rdwy" type="OFFENSE" age="" gender="" description="*********************************************** &lt;br/&gt;2702, Aggravated Assault.&lt;br/&gt;3743, Accidents Involving Damage to Attended Veh. or Property&lt;br/&gt;"/><marker lat="40.428684832699354" lng="-79.983306706238423" zone="Zone 3" incidentdate="2015-05-24" incidenttime="00:45:00" incidentnumber="15092113" address="1500 block E Carson St" type="OFFENSE" age="" gender="" description="*********************************************** &lt;br/&gt;5104, Resisting Arrest or Other Law Enforcement.&lt;br/&gt;5507(a), Obstructing highway, railroad or public passage&lt;br/&gt;5505, Public Drunkenness&lt;br/&gt;"/><marker lat="40.428648587693665" lng="-79.984030978724903" zone="Zone 3" incidentdate="2015-05-24" incidenttime="02:45:00" incidentnumber="15092195" address="1400 block E Carson St" type="OFFENSE" age="" gender="" description="*********************************************** &lt;br/&gt;5503(a)(2), DISORDERLY CONDUCT - UNREASONABLE NOISE&lt;br/&gt;5505, Public Drunkenness&lt;br/&gt;"/><marker lat="40.404939361855945" lng="-79.990899233620965" zone="Zone 3" incidentdate="2015-05-24" incidenttime="02:48:00" incidentnumber="15092196" address="1100 block Brownsville Rd" type="OFFENSE" age="" gender="" description="*********************************************** &lt;br/&gt;9488, False  Burglar Alarm&lt;br/&gt;"/><marker lat="40.458683229054266" lng="-79.998341257254594" zone="Zone 1" incidentdate="2015-05-24" incidenttime="01:40:00" incidentnumber="15092149" address="East St &amp; Madison Ave" type="OFFENSE" age="" gender="" description="*********************************************** &lt;br/&gt;1543, Driving While Operating Privilege is Suspended or Revoked.&lt;br/&gt;13(a)(30), Possession w/ Intent to Del. Controlled Substance&lt;br/&gt;3802(a)(1), DUI - General Impairment&lt;br/&gt;1786, Required Financial Responsibility.&lt;br/&gt;5126, Flight to Avoid Apprehension, Trial or Punishment.&lt;br/&gt;5104, Resisting Arrest or Other Law Enforcement.&lt;br/&gt;"/><marker lat="40.4224574" lng="-80.0131324" zone="Zone 3" incidentdate="2015-05-24" incidenttime="22:18:00" incidentnumber="15092659" address="300 block Simms St" type="OFFENSE" age="" gender="" description="*********************************************** &lt;br/&gt;9999, 9999 - (Misc. Incident):&lt;br/&gt;"/><marker lat="40.406255702301074" lng="-79.978412011273306" zone="Zone 3" incidentdate="2015-05-24" incidenttime="15:00:00" incidentnumber="15092405" address="Mountain Ave &amp; Wagner St" type="OFFENSE" age="" gender="" description="*********************************************** &lt;br/&gt;3921(a), Theft by Unlawful Taking or Disposition - Movable item&lt;br/&gt;"/><marker lat="40.428815176198341" lng="-79.983424931589681" zone="Zone 3" incidentdate="2015-05-24" incidenttime="01:50:00" incidentnumber="15092135" address="E Carson St &amp; S 15th St" type="OFFENSE" age="" gender="" description="*********************************************** &lt;br/&gt;5503(a)(1), DISORDERLY CONDUCT - ENGAGE IN FIGHTING&lt;br/&gt;"/><marker lat="40.438943794278437" lng="-79.956702987700893" zone="Zone 4" incidentdate="2015-05-24" incidenttime="04:00:00" incidentnumber="15092238" address="300 block Meyran Ave" type="OFFENSE" age="" gender="" description="*********************************************** &lt;br/&gt;3502, Burglary.&lt;br/&gt;3921(a), Theft by Unlawful Taking or Disposition - Movable item&lt;br/&gt;"/><marker lat="40.428465808222732" lng="-79.978964991503105" zone="Zone 3" incidentdate="2015-05-24" incidenttime="19:05:00" incidentnumber="15092545" address="1900 block E Carson St" type="OFFENSE" age="" gender="" description="*********************************************** &lt;br/&gt;3714, Careless Driving&lt;br/&gt;1501, Drivers Required to be Licensed.&lt;br/&gt;3745, Accidents Involving Damage to Unattended Veh.or Prop.&lt;br/&gt;3743, Accidents Involving Damage to Attended Veh. or Property&lt;br/&gt;"/><marker lat="40.479829245655225" lng="-80.001901444196207" zone="Zone 1" incidentdate="2015-05-24" incidenttime="20:42:00" incidentnumber="15092605" address="400 block Mt Pleasant Rd" type="OFFENSE" age="" gender="" description="*********************************************** &lt;br/&gt;2701, Simple Assault.&lt;br/&gt;"/><marker lat="40.457972195972467" lng="-80.055300172925968" zone="Zone 6" incidentdate="2015-05-24" incidenttime="13:21:00" incidentnumber="15092359" address="3200 block Motor St" type="OFFENSE" age="" gender="" description="*********************************************** &lt;br/&gt;13(a)(31), Marijuana: Possession Small Amount&lt;br/&gt;13(a)(16), Possession of Controlled Substance&lt;br/&gt;3925, Receiving Stolen Property.&lt;br/&gt;903, Criminal Conspiracy.&lt;br/&gt;13(a)(30), Possession w/ Intent to Del. Controlled Substance&lt;br/&gt;"/><marker lat="40.479483764053128" lng="-80.030900495509769" zone="Zone 1" incidentdate="2015-05-24" incidenttime="17:30:00" incidentnumber="15092647" address="3500 block Brighton Rd" type="OFFENSE" age="" gender="" description="*********************************************** &lt;br/&gt;9490, Missing Persons (18 and Over)&lt;br/&gt;"/><marker lat="40.481668027437173" lng="-80.029556173578257" zone="Zone 1" incidentdate="2015-05-24" incidenttime="07:00:00" incidentnumber="15092407" address="1000 block Davis Ave" type="OFFENSE" age="" gender="" description="*********************************************** &lt;br/&gt;3745, Accidents Involving Damage to Unattended Veh.or Prop.&lt;br/&gt;"/><marker lat="40.440195263792894" lng="-80.056319183327616" zone="Zone 6" incidentdate="2015-05-24" incidenttime="13:20:00" incidentnumber="15092372" address="300 block Stratmore St" type="OFFENSE" age="" gender="" description="*********************************************** &lt;br/&gt;9999, 9999 - (Misc. Incident):&lt;br/&gt;"/><marker lat="40.428131277738437" lng="-79.980832811884397" zone="Zone 3" incidentdate="2015-05-24" incidenttime="00:50:00" incidentnumber="15092115" address="100 block S 18th St" type="OFFENSE" age="" gender="" description="*********************************************** &lt;br/&gt;903, Criminal Conspiracy.&lt;br/&gt;3701, Robbery.&lt;br/&gt;"/><marker lat="40.456572332747427" lng="-80.001487255429311" zone="Zone 5" incidentdate="2015-05-24" incidenttime="01:13:00" incidentnumber="15092110" address="500 block N Fairmount St" type="OFFENSE" age="" gender="" description="*********************************************** &lt;br/&gt;2702, Aggravated Assault.&lt;br/&gt;5503(a)(1), DISORDERLY CONDUCT - ENGAGE IN FIGHTING&lt;br/&gt;2701, Simple Assault.&lt;br/&gt;5503(a)(3), DISORDERLY CONDUCT - OBSCENE LANG/GEST&lt;br/&gt;5503(a)(2), DISORDERLY CONDUCT - UNREASONABLE NOISE&lt;br/&gt;"/><marker lat="40.447070656722659" lng="-79.895151948393476" zone="Zone 4" incidentdate="2015-05-24" incidenttime="19:20:00" incidentnumber="15092559" address="7600 block Penn Ave" type="OFFENSE" age="" gender="" description="*********************************************** &lt;br/&gt;3743, Accidents Involving Damage to Attended Veh. or Property&lt;br/&gt;"/><marker lat="40.416661639412148" lng="-80.000381130525639" zone="Zone 3" incidentdate="2015-05-24" incidenttime="23:40:00" incidentnumber="15092698" address="Chalfont St &amp; Estella Ave" type="OFFENSE" age="" gender="" description="*********************************************** &lt;br/&gt;13(a)(32), Paraphernalia - Use or Possession&lt;br/&gt;3334, Turning Movements and Required Signals.&lt;br/&gt;"/><marker lat="40.425427498029848" lng="-80.011546966153674" zone="Zone 3" incidentdate="2015-05-24" incidenttime="00:54:00" incidentnumber="15092117" address="Prospect St &amp; Dilworth St" type="OFFENSE" age="" gender="" description="*********************************************** &lt;br/&gt;3745, Accidents Involving Damage to Unattended Veh.or Prop.&lt;br/&gt;"/><marker lat="40.464834025444489" lng="-80.011501467323157" zone="Zone 1" incidentdate="2015-05-24" incidenttime="02:51:00" incidentnumber="15092202" address="Lafayette Ave &amp; Perrysville Ave" type="OFFENSE" age="" gender="" description="*********************************************** &lt;br/&gt;3745, Accidents Involving Damage to Unattended Veh.or Prop.&lt;br/&gt;3802(a)(1), DUI - General Impairment&lt;br/&gt;"/><marker lat="40.452248303327103" lng="-80.025801476436484" zone="Zone 1" incidentdate="2015-05-24" incidenttime="16:30:00" incidentnumber="15092406" address="1400 block W North Ave" type="OFFENSE" age="" gender="" description="*********************************************** &lt;br/&gt;029, Missing Juvenile&lt;br/&gt;"/><marker lat="40.428606966018023" lng="-79.985175111647919" zone="Zone 3" incidentdate="2015-05-24" incidenttime="01:30:00" incidentnumber="15092162" address="1300 block E Carson St" type="OFFENSE" age="" gender="" description="*********************************************** &lt;br/&gt;5505, Public Drunkenness&lt;br/&gt;"/><marker lat="40.428815176198341" lng="-79.983424931589681" zone="Zone 3" incidentdate="2015-05-24" incidenttime="02:46:00" incidentnumber="15092197" address="S 15th St &amp; E Carson St" type="OFFENSE" age="" gender="" description="*********************************************** &lt;br/&gt;5503, Disorderly Conduct.&lt;br/&gt;5104, Resisting Arrest or Other Law Enforcement.&lt;br/&gt;5101, Obstructing Admin. of Law&lt;br/&gt;5505, Public Drunkenness&lt;br/&gt;"/><marker lat="40.367765997984719" lng="-79.907014403342885" zone="Zone 4" incidentdate="2015-05-24" incidenttime="07:57:00" incidentnumber="15092264" address="5600 block Century Ave" type="OFFENSE" age="" gender="" description="*********************************************** &lt;br/&gt;9496, Dead on Arrival (DOA)&lt;br/&gt;"/><marker lat="40.441137684867279" lng="-79.957585934716349" zone="Zone 4" incidentdate="2015-05-24" incidenttime="00:30:00" incidentnumber="15092100" address="200 block Atwood St" type="OFFENSE" age="" gender="" description="*********************************************** &lt;br/&gt;2709(a)(1), Harassment by Physical Contact, or Attempts or Threats&lt;br/&gt;5503, Disorderly Conduct.&lt;br/&gt;5104, Resisting Arrest or Other Law Enforcement.&lt;br/&gt;5505, Public Drunkenness&lt;br/&gt;"/><marker lat="40.450966080336222" lng="-79.93359390037547" zone="Zone 4" incidentdate="2015-05-24" incidenttime="01:00:00" incidentnumber="15092419" address="5500 block Walnut St" type="OFFENSE" age="" gender="" description="*********************************************** &lt;br/&gt;9504, Lost Property&lt;br/&gt;"/><marker lat="40.451127619286261" lng="-79.982457311996157" zone="Zone 2" incidentdate="2015-05-24" incidenttime="16:40:00" incidentnumber="15092463" address="Liberty Ave &amp; 21st St" type="OFFENSE" age="" gender="" description="*********************************************** &lt;br/&gt;3304, Criminal Mischief.&lt;br/&gt;3934, Theft from Vehicle&lt;br/&gt;"/><marker lat="40.464838143596928" lng="-79.895038004105416" zone="Zone 5" incidentdate="2015-05-24" incidenttime="03:05:00" incidentnumber="15092332" address="7100 block Tilden St" type="OFFENSE" age="" gender="" description="*********************************************** &lt;br/&gt;3304, Criminal Mischief.&lt;br/&gt;"/><marker lat="40.459431038763775" lng="-79.886892905158163" zone="Zone 5" incidentdate="2015-05-24" incidenttime="03:40:00" incidentnumber="15092229" address="1200 block Nolan Ct" type="OFFENSE" age="" gender="" description="*********************************************** &lt;br/&gt;2701, Simple Assault.&lt;br/&gt;"/><marker lat="40.414737509383009" lng="-79.972023948651199" zone="Zone 3" incidentdate="2015-05-24" incidenttime="13:30:00" incidentnumber="15092441" address="300 block Clover St" type="OFFENSE" age="" gender="" description="*********************************************** &lt;br/&gt;3921(a), Theft by Unlawful Taking or Disposition - Movable item&lt;br/&gt;"/><marker lat="40.447047363231832" lng="-80.080458722610913" zone="Zone 6" incidentdate="2015-05-24" incidenttime="21:47:00" incidentnumber="15092652" address="400 block W Prospect Ave" type="OFFENSE" age="" gender="" description="*********************************************** &lt;br/&gt;9093, Indirect Criminal Contempt&lt;br/&gt;"/><marker lat="40.438411104332907" lng="-79.960897379202279" zone="Zone 4" incidentdate="2015-05-24" incidenttime="02:10:00" incidentnumber="15092169" address="3400 block Forbes Ave" type="OFFENSE" age="" gender="" description="*********************************************** &lt;br/&gt;3934, Theft from Vehicle&lt;br/&gt;3304, Criminal Mischief.&lt;br/&gt;"/><marker lat="40.418386917969073" lng="-80.005778642166916" zone="Zone 3" incidentdate="2015-05-24" incidenttime="00:05:00" incidentnumber="15092069" address="100 block Freeland St" type="OFFENSE" age="" gender="" description="*********************************************** &lt;br/&gt;3502, Burglary.&lt;br/&gt;"/><marker lat="40.400367942144548" lng="-79.989221496131464" zone="Zone 3" incidentdate="2015-05-24" incidenttime="07:10:00" incidentnumber="15092258" address="1500 block Brownsville Rd" type="OFFENSE" age="" gender="" description="*********************************************** &lt;br/&gt;3502, Burglary.&lt;br/&gt;"/><marker lat="40.450901096519573" lng="-79.930622154707279" zone="Zone 5" incidentdate="2015-05-24" incidenttime="07:30:00" incidentnumber="15092268" address="900 block N Negley Ave" type="OFFENSE" age="" gender="" description="*********************************************** &lt;br/&gt;029, Missing Juvenile&lt;br/&gt;"/><marker lat="40.473885381367339" lng="-79.904428581179701" zone="Zone 5" incidentdate="2015-05-24" incidenttime="02:00:00" incidentnumber="15092257" address="6900 block Lemington Ave" type="OFFENSE" age="" gender="" description="*********************************************** &lt;br/&gt;3745, Accidents Involving Damage to Unattended Veh.or Prop.&lt;br/&gt;"/><marker lat="40.47045804777099" lng="-80.027278420865969" zone="Zone 1" incidentdate="2015-05-24" incidenttime="08:34:00" incidentnumber="15092271" address="2800 block Stayton St" type="OFFENSE" age="" gender="" description="*********************************************** &lt;br/&gt;3502, Burglary.&lt;br/&gt;"/><marker lat="40.456839195430454" lng="-79.999232378956989" zone="Zone 1" incidentdate="2015-05-24" incidenttime="16:30:00" incidentnumber="15092542" address="Howard St &amp; E North Ave" type="OFFENSE" age="" gender="" description="*********************************************** &lt;br/&gt;3934, Theft from Vehicle&lt;br/&gt;"/><marker lat="40.438596726797478" lng="-80.019748562003969" zone="Zone 3" incidentdate="2015-05-24" incidenttime="14:15:00" incidentnumber="15092396" address="1300 block Grandview Ave" type="OFFENSE" age="" gender="" description="*********************************************** &lt;br/&gt;3502, Burglary.&lt;br/&gt;"/><marker lat="40.452042212663898" lng="-80.008738896002342" zone="Zone 1" incidentdate="2015-05-24" incidenttime="22:30:00" incidentnumber="15092686" address="200 block Ridge Ave" type="OFFENSE" age="" gender="" description="*********************************************** &lt;br/&gt;029, Missing Juvenile&lt;br/&gt;"/><marker lat="40.4538760" lng="-79.9982155" zone="Zone 1" incidentdate="2015-05-24" incidenttime="14:30:00" incidentnumber="15092394" address="East Ohio St &amp; Nash St" type="OFFENSE" age="" gender="" description="*********************************************** &lt;br/&gt;9999, 9999 - (Misc. Incident):&lt;br/&gt;"/><marker lat="40.4643543" lng="-79.8975227" zone="Zone 5" incidentdate="2015-05-24" incidenttime="07:50:00" incidentnumber="15092267" address="1200 block Grotto St" type="OFFENSE" age="" gender="" description="*********************************************** &lt;br/&gt;3304, Criminal Mischief.&lt;br/&gt;901, Criminal Attempt&lt;br/&gt;"/><marker lat="40.419340511914001" lng="-79.970937388443019" zone="Zone 3" incidentdate="2015-05-24" incidenttime="16:15:00" incidentnumber="15092457" address="2700 block Berg St" type="OFFENSE" age="" gender="" description="*********************************************** &lt;br/&gt;3934, Theft from Vehicle&lt;br/&gt;"/><marker lat="40.443469776336613" lng="-80.039682900388073" zone="Zone 6" incidentdate="2015-05-24" incidenttime="00:13:00" incidentnumber="15092083" address="900 block Chartiers Ave" type="OFFENSE" age="" gender="" description="*********************************************** &lt;br/&gt;9488, False  Burglar Alarm&lt;br/&gt;"/><marker lat="40.427361411734964" lng="-79.906435649664033" zone="Zone 4" incidentdate="2015-05-24" incidenttime="04:27:00" incidentnumber="15092232" address="6800 block Forward Ave" type="OFFENSE" age="" gender="" description="*********************************************** &lt;br/&gt;2702, Aggravated Assault.&lt;br/&gt;2701, Simple Assault.&lt;br/&gt;5104.1, Disarming a Law Enforcement Officer&lt;br/&gt;"/><marker lat="40.432296515375356" lng="-79.918252299218267" zone="Zone 4" incidentdate="2015-05-24" incidenttime="11:30:00" incidentnumber="15092354" address="Shady Ave &amp; Phillips Ave" type="OFFENSE" age="" gender="" description="*********************************************** &lt;br/&gt;3743, Accidents Involving Damage to Attended Veh. or Property&lt;br/&gt;"/><marker lat="40.457007815748646" lng="-79.933458442713274" zone="Zone 5" incidentdate="2015-05-24" incidenttime="00:55:00" incidentnumber="15092119" address="5700 block Centre Ave" type="OFFENSE" age="" gender="" description="*********************************************** &lt;br/&gt;3934, Theft from Vehicle&lt;br/&gt;"/><marker lat="40.451273715715423" lng="-79.905134846634255" zone="Zone 4" incidentdate="2015-05-24" incidenttime="02:14:00" incidentnumber="15092174" address="7000 block Meade St" type="OFFENSE" age="" gender="" description="*********************************************** &lt;br/&gt;3701, Robbery.&lt;br/&gt;2701, Simple Assault.&lt;br/&gt;"/><marker lat="40.405076243596383" lng="-80.032149037161588" zone="Zone 6" incidentdate="2015-05-24" incidenttime="10:00:00" incidentnumber="15092296" address="700 block Hillgrove Ave" type="OFFENSE" age="" gender="" description="*********************************************** &lt;br/&gt;3921, Theft by Unlawful Taking or Disposition.&lt;br/&gt;"/><marker lat="40.487823540011732" lng="-79.897614208935366" zone="Zone 5" incidentdate="2015-05-24" incidenttime="15:45:00" incidentnumber="15092428" address="800 block Freeport Rd" type="OFFENSE" age="" gender="" description="*********************************************** &lt;br/&gt;4304(a)(1), Endangering Welfare of Children - Course of Conduct Enhanced&lt;br/&gt;903, Criminal Conspiracy.&lt;br/&gt;6301, Corruption of Minors.&lt;br/&gt;3929, Retail Theft.&lt;br/&gt;"/><marker lat="40.439889950633201" lng="-79.983923650962936" zone="Zone 2" incidentdate="2015-05-24" incidenttime="15:00:00" incidentnumber="15092416" address="Reed St &amp; Vine St" type="OFFENSE" age="" gender="" description="*********************************************** &lt;br/&gt;3304, Criminal Mischief.&lt;br/&gt;"/><marker lat="40.430719146660898" lng="-80.007572238034967" zone="Zone 3" incidentdate="2015-05-24" incidenttime="02:10:00" incidentnumber="15092175" address="200 block Shiloh St" type="OFFENSE" age="" gender="" description="*********************************************** &lt;br/&gt;601.16, Public Urination And Defecation&lt;br/&gt;"/><marker lat="40.414127642720686" lng="-79.993107606622473" zone="Zone 3" incidentdate="2015-05-24" incidenttime="01:00:00" incidentnumber="15092360" address="300 block Bausman St" type="OFFENSE" age="" gender="" description="*********************************************** &lt;br/&gt;3304, Criminal Mischief.&lt;br/&gt;2707.1, Discharge of a Firearm into Occupied Structure&lt;br/&gt;"/><marker lat="40.45156448168715" lng="-80.018949472643925" zone="Zone 1" incidentdate="2015-05-24" incidenttime="02:19:00" incidentnumber="15092179" address="1000 block Western Ave" type="OFFENSE" age="" gender="" description="*********************************************** &lt;br/&gt;9488, False  Burglar Alarm&lt;br/&gt;"/><marker lat="40.466248931865003" lng="-79.940878190005691" zone="Zone 5" incidentdate="2015-05-24" incidenttime="11:00:00" incidentnumber="15092323" address="300 block S Evaline St" type="OFFENSE" age="" gender="" description="*********************************************** &lt;br/&gt;3921(a), Theft by Unlawful Taking or Disposition - Movable item&lt;br/&gt;"/><marker lat="40.458045656618282" lng="-79.88762650910725" zone="Zone 5" incidentdate="2015-05-24" incidenttime="05:06:00" incidentnumber="15092244" address="7700 block Monticello St" type="OFFENSE" age="" gender="" description="*********************************************** &lt;br/&gt;903, Criminal Conspiracy.&lt;br/&gt;6301, Corruption of Minors.&lt;br/&gt;9488, False  Burglar Alarm&lt;br/&gt;4914, False Identification to Law Enforcement Authorities&lt;br/&gt;4906, False Reports to Law Enforcement Authorities.&lt;br/&gt;3503, Criminal Trespass&lt;br/&gt;"/><marker lat="40.455364158844212" lng="-79.999645999028687" zone="Zone 1" incidentdate="2015-05-24" incidenttime="03:38:00" incidentnumber="15092228" address="Middle St &amp; Suismon St" type="OFFENSE" age="" gender="" description="*********************************************** &lt;br/&gt;3736, Reckless Driving&lt;br/&gt;3802(a)(1), DUI - General Impairment&lt;br/&gt;3745, Accidents Involving Damage to Unattended Veh.or Prop.&lt;br/&gt;3802(c), DUI - Highest Rate of Alcohol - BAC &gt;= .16%&lt;br/&gt;"/><marker lat="40.438308590945255" lng="-79.957718574743282" zone="Zone 4" incidentdate="2015-05-24" incidenttime="10:00:00" incidentnumber="15092379" address="300 block Mc Kee Pl" type="OFFENSE" age="" gender="" description="*********************************************** &lt;br/&gt;3921(a), Theft by Unlawful Taking or Disposition - Movable item&lt;br/&gt;"/><marker lat="40.42127287812697" lng="-79.992005012476255" zone="Zone 3" incidentdate="2015-05-24" incidenttime="06:30:00" incidentnumber="15092255" address="900 block Manton Way" type="OFFENSE" age="" gender="" description="*********************************************** &lt;br/&gt;3502, Burglary.&lt;br/&gt;"/><marker lat="40.46855136676831" lng="-79.906391023787634" zone="Zone 5" incidentdate="2015-05-24" incidenttime="02:05:00" incidentnumber="15092170" address="6400 block Apple Ave" type="OFFENSE" age="" gender="" description="*********************************************** &lt;br/&gt;3743, Accidents Involving Damage to Attended Veh. or Property&lt;br/&gt;"/><marker lat="40.462206527800817" lng="-80.051237561811348" zone="Zone 6" incidentdate="2015-05-24" incidenttime="15:38:00" incidentnumber="15092409" address="3300 block W Carson St" type="OFFENSE" age="" gender="" description="*********************************************** &lt;br/&gt;601.04 (c) (2), Loudspeakers  etc 0700-2200 &gt;75dB(c) 2200-0700 &gt;75 dB(c)&lt;br/&gt;5104, Resisting Arrest or Other Law Enforcement.&lt;br/&gt;5503, Disorderly Conduct.&lt;br/&gt;"/><marker lat="40.445060446869206" lng="-80.044560698944125" zone="Zone 6" incidentdate="2015-05-24" incidenttime="17:30:00" incidentnumber="15092591" address="900 block Wilton Way" type="OFFENSE" age="" gender="" description="*********************************************** &lt;br/&gt;3502, Burglary.&lt;br/&gt;"/><marker lat="40.442381390460731" lng="-79.980405310434008" zone="Zone 2" incidentdate="2015-05-24" incidenttime="17:50:00" incidentnumber="15092498" address="400 block Dinwiddie St" type="OFFENSE" age="" gender="" description="*********************************************** &lt;br/&gt;2709, Harassment (Non-Specific)&lt;br/&gt;"/><marker lat="40.422248626233376" lng="-80.00059026229313" zone="Zone 3" incidentdate="2015-05-24" incidenttime="00:20:00" incidentnumber="15090725" address="400 block Edgemont St" type="OFFENSE" age="" gender="" description="*********************************************** &lt;br/&gt;3701, Robbery.&lt;br/&gt;3925, Receiving Stolen Property.&lt;br/&gt;903, Criminal Conspiracy.&lt;br/&gt;"/><marker lat="40.39441508804677" lng="-80.026337545670884" zone="Zone 6" incidentdate="2015-05-24" incidenttime="00:38:00" incidentnumber="15092092" address="2800 block Pioneer Ave" type="OFFENSE" age="" gender="" description="*********************************************** &lt;br/&gt;5505, Public Drunkenness&lt;br/&gt;"/><marker lat="40.400905460886818" lng="-79.988529458859986" zone="Zone 3" incidentdate="2015-05-24" incidenttime="01:30:00" incidentnumber="15092275" address="100 block The Boulevard St" type="OFFENSE" age="" gender="" description="*********************************************** &lt;br/&gt;9999, 9999 - (Misc. Incident):&lt;br/&gt;"/><marker lat="40.455023520372684" lng="-79.885909186300637" zone="Zone 5" incidentdate="2015-05-24" incidenttime="05:30:00" incidentnumber="15092309" address="7900 block Frankstown Ave" type="OFFENSE" age="" gender="" description="*********************************************** &lt;br/&gt;3304, Criminal Mischief.&lt;br/&gt;3934, Theft from Vehicle&lt;br/&gt;"/><marker lat="40.422966172979606" lng="-79.926495911312728" zone="Zone 4" incidentdate="2015-05-24" incidenttime="14:00:00" incidentnumber="15092391" address="4200 block Saline St" type="OFFENSE" age="" gender="" description="*********************************************** &lt;br/&gt;3745, Accidents Involving Damage to Unattended Veh.or Prop.&lt;br/&gt;"/><marker lat="40.411434481817672" lng="-79.943819160293828" zone="Zone 4" incidentdate="2015-05-24" incidenttime="20:40:00" incidentnumber="15092606" address="4800 block Chatsworth Ave" type="OFFENSE" age="" gender="" description="*********************************************** &lt;br/&gt;13(a)(32), Paraphernalia - Use or Possession&lt;br/&gt;"/><marker lat="40.447047363231832" lng="-80.080458722610913" zone="Zone 6" incidentdate="2015-05-24" incidenttime="09:40:00" incidentnumber="15092385" address="400 block W Prospect Ave" type="OFFENSE" age="" gender="" description="*********************************************** &lt;br/&gt;2701, Simple Assault.&lt;br/&gt;"/><marker lat="40.462039648985133" lng="-79.949904112059144" zone="Zone 5" incidentdate="2015-05-24" incidenttime="00:16:00" incidentnumber="15092084" address="4700 block Liberty Ave" type="OFFENSE" age="" gender="" description="*********************************************** &lt;br/&gt;9999, 9999 - (Misc. Incident):&lt;br/&gt;"/><marker lat="40.427361411734964" lng="-79.906435649664033" zone="Zone 4" incidentdate="2015-05-24" incidenttime="04:27:00" incidentnumber="15092232" address="6800 block Forward Ave" type="ARREST" age="24" gender="F" description="*********************************************** &lt;br/&gt;2702, Aggravated Assault.&lt;br/&gt;2701, Simple Assault.&lt;br/&gt;5104.1, Disarming a Law Enforcement Officer&lt;br/&gt;"/><marker lat="40.487823540011732" lng="-79.897614208935366" zone="Zone 5" incidentdate="2015-05-24" incidenttime="16:00:00" incidentnumber="15092428" address="800 block Freeport Rd" type="ARREST" age="14" gender="F" description="*********************************************** &lt;br/&gt;4304(a)(1), Endangering Welfare of Children - Course of Conduct Enhanced&lt;br/&gt;903, Criminal Conspiracy.&lt;br/&gt;6301, Corruption of Minors.&lt;br/&gt;3929, Retail Theft.&lt;br/&gt;"/><marker lat="40.456572332747427" lng="-80.001487255429311" zone="Zone 5" incidentdate="2015-05-24" incidenttime="01:09:00" incidentnumber="15092110" address="500 block N Fairmount St" type="ARREST" age="14" gender="F" description="*********************************************** &lt;br/&gt;2702, Aggravated Assault.&lt;br/&gt;5503(a)(1), DISORDERLY CONDUCT - ENGAGE IN FIGHTING&lt;br/&gt;2701, Simple Assault.&lt;br/&gt;5503(a)(3), DISORDERLY CONDUCT - OBSCENE LANG/GEST&lt;br/&gt;5503(a)(2), DISORDERLY CONDUCT - UNREASONABLE NOISE&lt;br/&gt;"/><marker lat="40.464834025444489" lng="-80.011501467323157" zone="Zone 1" incidentdate="2015-05-24" incidenttime="03:12:00" incidentnumber="15092202" address="Lafayette Ave &amp; Perrysville Ave" type="ARREST" age="37" gender="M" description="*********************************************** &lt;br/&gt;3745, Accidents Involving Damage to Unattended Veh.or Prop.&lt;br/&gt;3802(a)(1), DUI - General Impairment&lt;br/&gt;"/><marker lat="40.404914940128336" lng="-80.040145473413176" zone="Zone 6" incidentdate="2015-05-24" incidenttime="19:40:00" incidentnumber="15092568" address="2800 block Banksville Rd" type="ARREST" age="44" gender="F" description="*********************************************** &lt;br/&gt;13(a)(16), Possession of Controlled Substance&lt;br/&gt;907, Possessing Instruments of Crime.&lt;br/&gt;903, Criminal Conspiracy.&lt;br/&gt;13(a)(32), Paraphernalia - Use or Possession&lt;br/&gt;5902(a)(1), Prostitution&lt;br/&gt;"/><marker lat="40.45842161893863" lng="-80.069901722063562" zone="Zone 6" incidentdate="2015-05-24" incidenttime="17:25:00" incidentnumber="15079875" address="3600 block Centralia St" type="ARREST" age="" gender="M" description="*********************************************** &lt;br/&gt;2706, Terroristic Threats.&lt;br/&gt;"/><marker lat="40.458045656618282" lng="-79.88762650910725" zone="Zone 5" incidentdate="2015-05-24" incidenttime="05:23:00" incidentnumber="15092244" address="7700 block Monticello St" type="ARREST" age="20" gender="M" description="*********************************************** &lt;br/&gt;903, Criminal Conspiracy.&lt;br/&gt;6301, Corruption of Minors.&lt;br/&gt;9488, False  Burglar Alarm&lt;br/&gt;4914, False Identification to Law Enforcement Authorities&lt;br/&gt;4906, False Reports to Law Enforcement Authorities.&lt;br/&gt;3503, Criminal Trespass&lt;br/&gt;"/><marker lat="40.487823540011732" lng="-79.897614208935366" zone="Zone 5" incidentdate="2015-05-24" incidenttime="16:00:00" incidentnumber="15092428" address="800 block Freeport Rd" type="ARREST" age="37" gender="F" description="*********************************************** &lt;br/&gt;4304(a)(1), Endangering Welfare of Children - Course of Conduct Enhanced&lt;br/&gt;903, Criminal Conspiracy.&lt;br/&gt;6301, Corruption of Minors.&lt;br/&gt;3929, Retail Theft.&lt;br/&gt;"/><marker lat="40.459431038763775" lng="-79.886892905158163" zone="Zone 5" incidentdate="2015-05-24" incidenttime="04:04:00" incidentnumber="15092229" address="1200 block Nolan Ct" type="ARREST" age="33" gender="M" description="*********************************************** &lt;br/&gt;2701, Simple Assault.&lt;br/&gt;"/><marker lat="40.428815176198341" lng="-79.983424931589681" zone="Zone 3" incidentdate="2015-05-24" incidenttime="02:46:00" incidentnumber="15092197" address="S 15th St &amp; E Carson St" type="ARREST" age="23" gender="M" description="*********************************************** &lt;br/&gt;5503, Disorderly Conduct.&lt;br/&gt;5104, Resisting Arrest or Other Law Enforcement.&lt;br/&gt;5101, Obstructing Admin. of Law&lt;br/&gt;5505, Public Drunkenness&lt;br/&gt;"/><marker lat="40.457972195972467" lng="-80.055300172925968" zone="Zone 6" incidentdate="2015-05-24" incidenttime="13:21:00" incidentnumber="15092359" address="3200 block Motor St" type="ARREST" age="19" gender="M" description="*********************************************** &lt;br/&gt;13(a)(31), Marijuana: Possession Small Amount&lt;br/&gt;13(a)(16), Possession of Controlled Substance&lt;br/&gt;3925, Receiving Stolen Property.&lt;br/&gt;903, Criminal Conspiracy.&lt;br/&gt;13(a)(30), Possession w/ Intent to Del. Controlled Substance&lt;br/&gt;"/><marker lat="40.416661639412148" lng="-80.000381130525639" zone="Zone 3" incidentdate="2015-05-24" incidenttime="23:50:00" incidentnumber="15092698" address="Chalfont St &amp; Estella Ave" type="ARREST" age="45" gender="M" description="*********************************************** &lt;br/&gt;13(a)(32), Paraphernalia - Use or Possession&lt;br/&gt;3334, Turning Movements and Required Signals.&lt;br/&gt;"/><marker lat="40.441137684867279" lng="-79.957585934716349" zone="Zone 4" incidentdate="2015-05-24" incidenttime="00:30:00" incidentnumber="15092100" address="200 block Atwood St" type="ARREST" age="25" gender="M" description="*********************************************** &lt;br/&gt;2709(a)(1), Harassment by Physical Contact, or Attempts or Threats&lt;br/&gt;5503, Disorderly Conduct.&lt;br/&gt;5104, Resisting Arrest or Other Law Enforcement.&lt;br/&gt;5505, Public Drunkenness&lt;br/&gt;"/><marker lat="40.455364158844212" lng="-79.999645999028687" zone="Zone 1" incidentdate="2015-05-24" incidenttime="03:45:00" incidentnumber="15092228" address="Middle St &amp; Suismon St" type="ARREST" age="31" gender="M" description="*********************************************** &lt;br/&gt;3736, Reckless Driving&lt;br/&gt;3802(a)(1), DUI - General Impairment&lt;br/&gt;3745, Accidents Involving Damage to Unattended Veh.or Prop.&lt;br/&gt;3802(c), DUI - Highest Rate of Alcohol - BAC &gt;= .16%&lt;br/&gt;"/><marker lat="40.457972195972467" lng="-80.055300172925968" zone="Zone 6" incidentdate="2015-05-24" incidenttime="13:21:00" incidentnumber="15092359" address="3200 block Motor St" type="ARREST" age="22" gender="M" description="*********************************************** &lt;br/&gt;13(a)(31), Marijuana: Possession Small Amount&lt;br/&gt;13(a)(16), Possession of Controlled Substance&lt;br/&gt;3925, Receiving Stolen Property.&lt;br/&gt;903, Criminal Conspiracy.&lt;br/&gt;13(a)(30), Possession w/ Intent to Del. Controlled Substance&lt;br/&gt;"/><marker lat="40.422248626233376" lng="-80.00059026229313" zone="Zone 3" incidentdate="2015-05-24" incidenttime="00:21:00" incidentnumber="15090725" address="400 block Edgemont St" type="ARREST" age="17" gender="M" description="*********************************************** &lt;br/&gt;3701, Robbery.&lt;br/&gt;3925, Receiving Stolen Property.&lt;br/&gt;903, Criminal Conspiracy.&lt;br/&gt;"/><marker lat="40.404914940128336" lng="-80.040145473413176" zone="Zone 6" incidentdate="2015-05-24" incidenttime="19:40:00" incidentnumber="15092568" address="2800 block Banksville Rd" type="ARREST" age="20" gender="F" description="*********************************************** &lt;br/&gt;13(a)(16), Possession of Controlled Substance&lt;br/&gt;907, Possessing Instruments of Crime.&lt;br/&gt;903, Criminal Conspiracy.&lt;br/&gt;13(a)(32), Paraphernalia - Use or Possession&lt;br/&gt;5902(a)(1), Prostitution&lt;br/&gt;"/><marker lat="40.487823540011732" lng="-79.897614208935366" zone="Zone 5" incidentdate="2015-05-24" incidenttime="16:00:00" incidentnumber="15092428" address="800 block Freeport Rd" type="ARREST" age="35" gender="F" description="*********************************************** &lt;br/&gt;4304(a)(1), Endangering Welfare of Children - Course of Conduct Enhanced&lt;br/&gt;903, Criminal Conspiracy.&lt;br/&gt;6301, Corruption of Minors.&lt;br/&gt;3929, Retail Theft.&lt;br/&gt;"/><marker lat="40.428684832699354" lng="-79.983306706238423" zone="Zone 3" incidentdate="2015-05-24" incidenttime="00:45:00" incidentnumber="15092113" address="1500 block E Carson St" type="ARREST" age="21" gender="M" description="*********************************************** &lt;br/&gt;5104, Resisting Arrest or Other Law Enforcement.&lt;br/&gt;5507(a), Obstructing highway, railroad or public passage&lt;br/&gt;5505, Public Drunkenness&lt;br/&gt;"/><marker lat="40.411434481817672" lng="-79.943819160293828" zone="Zone 4" incidentdate="2015-05-24" incidenttime="21:00:00" incidentnumber="15092606" address="4800 block Chatsworth Ave" type="ARREST" age="36" gender="M" description="*********************************************** &lt;br/&gt;13(a)(32), Paraphernalia - Use or Possession&lt;br/&gt;"/><marker lat="40.458045656618282" lng="-79.88762650910725" zone="Zone 5" incidentdate="2015-05-24" incidenttime="05:23:00" incidentnumber="15092244" address="7700 block Monticello St" type="ARREST" age="15" gender="M" description="*********************************************** &lt;br/&gt;903, Criminal Conspiracy.&lt;br/&gt;6301, Corruption of Minors.&lt;br/&gt;9488, False  Burglar Alarm&lt;br/&gt;4914, False Identification to Law Enforcement Authorities&lt;br/&gt;4906, False Reports to Law Enforcement Authorities.&lt;br/&gt;3503, Criminal Trespass&lt;br/&gt;"/><marker lat="40.487823540011732" lng="-79.897614208935366" zone="Zone 5" incidentdate="2015-05-24" incidenttime="16:00:00" incidentnumber="15092428" address="800 block Freeport Rd" type="ARREST" age="14" gender="M" description="*********************************************** &lt;br/&gt;4304(a)(1), Endangering Welfare of Children - Course of Conduct Enhanced&lt;br/&gt;903, Criminal Conspiracy.&lt;br/&gt;6301, Corruption of Minors.&lt;br/&gt;3929, Retail Theft.&lt;br/&gt;"/><marker lat="40.462206527800817" lng="-80.051237561811348" zone="Zone 6" incidentdate="2015-05-24" incidenttime="15:38:00" incidentnumber="15092409" address="3300 block W Carson St" type="ARREST" age="35" gender="M" description="*********************************************** &lt;br/&gt;601.04 (c) (2), Loudspeakers  etc 0700-2200 &gt;75dB(c) 2200-0700 &gt;75 dB(c)&lt;br/&gt;5104, Resisting Arrest or Other Law Enforcement.&lt;br/&gt;5503, Disorderly Conduct.&lt;br/&gt;"/><marker lat="40.416661639412148" lng="-80.000381130525639" zone="Zone 3" incidentdate="2015-05-24" incidenttime="23:50:00" incidentnumber="15092698" address="Chalfont St &amp; Estella Ave" type="ARREST" age="36" gender="F" description="*********************************************** &lt;br/&gt;13(a)(32), Paraphernalia - Use or Possession&lt;br/&gt;3334, Turning Movements and Required Signals.&lt;br/&gt;"/><marker lat="40.458045656618282" lng="-79.88762650910725" zone="Zone 5" incidentdate="2015-05-24" incidenttime="05:23:00" incidentnumber="15092244" address="7700 block Monticello St" type="ARREST" age="16" gender="M" description="*********************************************** &lt;br/&gt;903, Criminal Conspiracy.&lt;br/&gt;6301, Corruption of Minors.&lt;br/&gt;9488, False  Burglar Alarm&lt;br/&gt;4914, False Identification to Law Enforcement Authorities&lt;br/&gt;4906, False Reports to Law Enforcement Authorities.&lt;br/&gt;3503, Criminal Trespass&lt;br/&gt;"/><marker lat="40.484315812013776" lng="-79.947461917888361" zone="Zone 2" incidentdate="2015-05-24" incidenttime="15:10:00" incidentnumber="15087454" address="5600 block Donson Way" type="ARREST" age="46" gender="M" description="*********************************************** &lt;br/&gt;3928, Unauthorized Use of Automobile and Other Vehicles.&lt;br/&gt;"/><marker lat="40.458683229054266" lng="-79.998341257254594" zone="Zone 1" incidentdate="2015-05-24" incidenttime="02:20:00" incidentnumber="15092149" address="East St &amp; Madison Ave" type="ARREST" age="53" gender="M" description="*********************************************** &lt;br/&gt;1543, Driving While Operating Privilege is Suspended or Revoked.&lt;br/&gt;13(a)(30), Possession w/ Intent to Del. Controlled Substance&lt;br/&gt;3802(a)(1), DUI - General Impairment&lt;br/&gt;1786, Required Financial Responsibility.&lt;br/&gt;5126, Flight to Avoid Apprehension, Trial or Punishment.&lt;br/&gt;5104, Resisting Arrest or Other Law Enforcement.&lt;br/&gt;"/><marker lat="40.487823540011732" lng="-79.897614208935366" zone="Zone 5" incidentdate="2015-05-24" incidenttime="16:00:00" incidentnumber="15092428" address="800 block Freeport Rd" type="ARREST" age="18" gender="F" description="*********************************************** &lt;br/&gt;4304(a)(1), Endangering Welfare of Children - Course of Conduct Enhanced&lt;br/&gt;903, Criminal Conspiracy.&lt;br/&gt;6301, Corruption of Minors.&lt;br/&gt;3929, Retail Theft.&lt;br/&gt;"/></markers>
