<?xml version="1.0"?>
<markers><marker lat="40.441370619227982" lng="-79.96344897555413" zone="Zone 4" incidentdate="2015-11-15" incidenttime="00:26:00" incidentnumber="15219313" address="Terrace St &amp; Buffalo St" type="OFFENSE" age="" gender="" description="*********************************************** &lt;br/&gt;3701, Robbery.&lt;br/&gt;3702, Robbery of Motor Vehicle.&lt;br/&gt;"/><marker lat="40.443352274206227" lng="-79.998165416406081" zone="Zone 2" incidentdate="2015-11-15" incidenttime="20:30:00" incidentnumber="15219821" address="9th St &amp; Exchange Way" type="OFFENSE" age="" gender="" description="*********************************************** &lt;br/&gt;3802(a)(1), DUI - General Impairment&lt;br/&gt;"/><marker lat="40.428758587531433" lng="-79.980561963586084" zone="Zone 3" incidentdate="2015-11-15" incidenttime="01:40:00" incidentnumber="15219401" address="S 18th St &amp; E Carson St" type="OFFENSE" age="" gender="" description="*********************************************** &lt;br/&gt;3743, Accidents Involving Damage to Attended Veh. or Property&lt;br/&gt;"/><marker lat="40.451945421387748" lng="-79.952009729366381" zone="Zone 4" incidentdate="2015-11-15" incidenttime="02:04:00" incidentnumber="15219381" address="4600 block Centre Ave" type="OFFENSE" age="" gender="" description="*********************************************** &lt;br/&gt;3929, Retail Theft.&lt;br/&gt;"/><marker lat="40.4199199875451" lng="-79.993675059038551" zone="Zone 3" incidentdate="2015-11-15" incidenttime="03:25:00" incidentnumber="15219403" address="800 block Climax St" type="OFFENSE" age="" gender="" description="*********************************************** &lt;br/&gt;9999, 9999 - (Misc. Incident):&lt;br/&gt;"/><marker lat="40.426594943055839" lng="-79.987525670314298" zone="Zone 3" incidentdate="2015-11-15" incidenttime="16:00:00" incidentnumber="15219763" address="S 11th St" type="OFFENSE" age="" gender="" description="*********************************************** &lt;br/&gt;3745, Accidents Involving Damage to Unattended Veh.or Prop.&lt;br/&gt;"/><marker lat="40.441500248915865" lng="-80.036154364350537" zone="Zone 6" incidentdate="2015-11-15" incidenttime="10:01:00" incidentnumber="15219528" address="200 block Steuben St" type="OFFENSE" age="" gender="" description="*********************************************** &lt;br/&gt;8106, Shots Fired&lt;br/&gt;"/><marker lat="40.39363295973483" lng="-80.009339764541707" zone="Zone 6" incidentdate="2015-11-15" incidenttime="02:47:00" incidentnumber="15219406" address="1400 block Milan Ave" type="OFFENSE" age="" gender="" description="*********************************************** &lt;br/&gt;9490, Missing Persons (18 and Over)&lt;br/&gt;"/><marker lat="40.439009711292421" lng="-80.003615340621764" zone="Zone 2" incidentdate="2015-11-15" incidenttime="18:00:00" incidentnumber="15219775" address="200 block Blvd Of The Allies" type="OFFENSE" age="" gender="" description="*********************************************** &lt;br/&gt;3934, Theft from Vehicle&lt;br/&gt;"/><marker lat="40.459271064800731" lng="-80.018987278299392" zone="Zone 1" incidentdate="2015-11-15" incidenttime="01:45:00" incidentnumber="15219369" address="California Ave &amp; A St" type="OFFENSE" age="" gender="" description="*********************************************** &lt;br/&gt;3304, Criminal Mischief.&lt;br/&gt;2705, Recklessly Endangering Another Person.&lt;br/&gt;2707.1, Discharge of a Firearm into Occupied Structure&lt;br/&gt;"/><marker lat="40.406709211282262" lng="-79.944777472441643" zone="Zone 4" incidentdate="2015-11-15" incidenttime="09:38:00" incidentnumber="15219512" address="5100 block Roma Way" type="OFFENSE" age="" gender="" description="*********************************************** &lt;br/&gt;2705, Recklessly Endangering Another Person.&lt;br/&gt;3736, Reckless Driving&lt;br/&gt;3742, Accidents Involving Death or Personal Injury&lt;br/&gt;"/><marker lat="40.428555490690812" lng="-79.983435192932092" zone="Zone 3" incidentdate="2015-11-15" incidenttime="01:15:00" incidentnumber="15219349" address="S 15th St &amp; Roland St" type="OFFENSE" age="" gender="" description="*********************************************** &lt;br/&gt;601.16, Public Urination And Defecation&lt;br/&gt;"/><marker lat="40.428746746224945" lng="-79.982646526389246" zone="Zone 3" incidentdate="2015-11-15" incidenttime="00:10:00" incidentnumber="15219295" address="1600 block E Carson St" type="OFFENSE" age="" gender="" description="*********************************************** &lt;br/&gt;5104, Resisting Arrest or Other Law Enforcement.&lt;br/&gt;6308(a), Underage Purchase, Consume, Possessed or Transport Liquor&lt;br/&gt;5505, Public Drunkenness&lt;br/&gt;2709(a)(1), Harassment by Physical Contact, or Attempts or Threats&lt;br/&gt;3503.B1I, DEF. TRESPASS ACTUAL COMMUNICATION&lt;br/&gt;4914, False Identification to Law Enforcement Authorities&lt;br/&gt;"/><marker lat="40.454893172635735" lng="-79.978354258304591" zone="Zone 2" incidentdate="2015-11-15" incidenttime="02:52:00" incidentnumber="15219353" address="2600 block Penn Ave" type="OFFENSE" age="" gender="" description="*********************************************** &lt;br/&gt;5104, Resisting Arrest or Other Law Enforcement.&lt;br/&gt;4914, False Identification to Law Enforcement Authorities&lt;br/&gt;7513, Restriction on Alcoholic Beverages - Open Container&lt;br/&gt;"/><marker lat="40.459084625365982" lng="-80.02205532489748" zone="Zone 1" incidentdate="2015-11-15" incidenttime="16:45:00" incidentnumber="15219728" address="1000 block California Ave" type="OFFENSE" age="" gender="" description="*********************************************** &lt;br/&gt;2705, Recklessly Endangering Another Person.&lt;br/&gt;3304(a)(1), CRIMINAL MISCHIEF-Prop Damage By Fire, Explosives, or Other Dangerous Means&lt;br/&gt;"/><marker lat="40.40457629863181" lng="-79.94255968497697" zone="Zone 4" incidentdate="2015-11-15" incidenttime="04:01:00" incidentnumber="15219438" address="2nd Ave &amp; Winston St" type="OFFENSE" age="" gender="" description="*********************************************** &lt;br/&gt;9999, 9999 - (Misc. Incident):&lt;br/&gt;"/><marker lat="40.428511573686791" lng="-79.982765552881659" zone="Zone 3" incidentdate="2015-11-15" incidenttime="13:00:00" incidentnumber="15219623" address="S 16th St" type="OFFENSE" age="" gender="" description="*********************************************** &lt;br/&gt;9489, Found Property&lt;br/&gt;"/><marker lat="40.428606966018023" lng="-79.985175111647919" zone="Zone 3" incidentdate="2015-11-15" incidenttime="02:05:00" incidentnumber="15219385" address="1300 block E Carson St" type="OFFENSE" age="" gender="" description="*********************************************** &lt;br/&gt;5503, Disorderly Conduct.&lt;br/&gt;"/><marker lat="40.39363295973483" lng="-80.009339764541707" zone="Zone 6" incidentdate="2015-11-15" incidenttime="08:00:00" incidentnumber="15219406" address="1400 block Milan Ave" type="OFFENSE" age="" gender="" description="*********************************************** &lt;br/&gt;9490, Missing Persons (18 and Over)&lt;br/&gt;"/><marker lat="40.414743757491522" lng="-79.945331821154184" zone="Zone 4" incidentdate="2015-11-15" incidenttime="21:20:00" incidentnumber="15219858" address="4600 block Chatsworth Ave" type="OFFENSE" age="" gender="" description="*********************************************** &lt;br/&gt;1543, Driving While Operating Privilege is Suspended or Revoked.&lt;br/&gt;2701(a)(1), Simple Assault - Intent., Know., Reckless.Cause Bod. Injury&lt;br/&gt;3928, Unauthorized Use of Automobile and Other Vehicles.&lt;br/&gt;"/><marker lat="40.428684832699354" lng="-79.983306706238423" zone="Zone 3" incidentdate="2015-11-15" incidenttime="19:33:00" incidentnumber="15219815" address="1500 block E Carson St" type="OFFENSE" age="" gender="" description="*********************************************** &lt;br/&gt;5104, Resisting Arrest or Other Law Enforcement.&lt;br/&gt;2702, Aggravated Assault.&lt;br/&gt;2701, Simple Assault.&lt;br/&gt;5505, Public Drunkenness&lt;br/&gt;3503.B1I, DEF. TRESPASS ACTUAL COMMUNICATION&lt;br/&gt;5503(a)(1), DISORDERLY CONDUCT - ENGAGE IN FIGHTING&lt;br/&gt;"/><marker lat="40.45411894889228" lng="-79.944034255308623" zone="Zone 5" incidentdate="2015-11-15" incidenttime="03:26:00" incidentnumber="15219427" address="5000 block Centre Ave" type="OFFENSE" age="" gender="" description="*********************************************** &lt;br/&gt;13(a)(31), Marijuana: Possession Small Amount&lt;br/&gt;5104, Resisting Arrest or Other Law Enforcement.&lt;br/&gt;2702, Aggravated Assault.&lt;br/&gt;5505, Public Drunkenness&lt;br/&gt;5123, Contraband.&lt;br/&gt;5503(a)(2), DISORDERLY CONDUCT - UNREASONABLE NOISE&lt;br/&gt;"/><marker lat="40.428310737985385" lng="-79.973109967204991" zone="Zone 3" incidentdate="2015-11-15" incidenttime="03:37:00" incidentnumber="15219430" address="100 block S 23rd St" type="OFFENSE" age="" gender="" description="*********************************************** &lt;br/&gt;5505, Public Drunkenness&lt;br/&gt;3503(a), Criminal Trespass&lt;br/&gt;"/><marker lat="40.446314652723053" lng="-80.016316228653437" zone="Zone 1" incidentdate="2015-11-15" incidenttime="18:30:00" incidentnumber="15219790" address="100 block Art Rooney Ave" type="OFFENSE" age="" gender="" description="*********************************************** &lt;br/&gt;9490, Missing Persons (18 and Over)&lt;br/&gt;"/><marker lat="40.449715263079867" lng="-80.018412722358093" zone="Zone 1" incidentdate="2015-11-15" incidenttime="11:50:00" incidentnumber="15219592" address="Ridge Ave" type="OFFENSE" age="" gender="" description="*********************************************** &lt;br/&gt;13(a)(31), Marijuana: Possession Small Amount&lt;br/&gt;"/><marker lat="40.426239520978015" lng="-79.927907558073457" zone="Zone 4" incidentdate="2015-11-15" incidenttime="19:00:00" incidentnumber="15219819" address="4000 block Murray Ave" type="OFFENSE" age="" gender="" description="*********************************************** &lt;br/&gt;3502, Burglary.&lt;br/&gt;"/><marker lat="40.471411423607833" lng="-79.959830139270579" zone="Zone 2" incidentdate="2015-11-15" incidenttime="16:56:00" incidentnumber="15219737" address="200 block 4th Ave" type="OFFENSE" age="" gender="" description="*********************************************** &lt;br/&gt;3934, Theft from Vehicle&lt;br/&gt;"/><marker lat="40.415050819482282" lng="-79.990622790173717" zone="Zone 3" incidentdate="2015-11-15" incidenttime="16:49:00" incidentnumber="15219733" address="200 block Rochelle St" type="OFFENSE" age="" gender="" description="*********************************************** &lt;br/&gt;2702, Aggravated Assault.&lt;br/&gt;5511, Cruelty to Animals.&lt;br/&gt;"/><marker lat="40.451106151966066" lng="-79.983959059845972" zone="Zone 2" incidentdate="2015-11-15" incidenttime="19:15:00" incidentnumber="15219810" address="20th St &amp; Penn Ave" type="OFFENSE" age="" gender="" description="*********************************************** &lt;br/&gt;3745, Accidents Involving Damage to Unattended Veh.or Prop.&lt;br/&gt;"/><marker lat="40.455273086676286" lng="-80.008870414965187" zone="Zone 1" incidentdate="2015-11-15" incidenttime="21:35:00" incidentnumber="15219864" address="200 block North Shore Dr" type="OFFENSE" age="" gender="" description="*********************************************** &lt;br/&gt;9999, 9999 - (Misc. Incident):&lt;br/&gt;"/><marker lat="40.466772646024531" lng="-79.964043690486676" zone="Zone 2" incidentdate="2015-11-15" incidenttime="22:35:00" incidentnumber="15219884" address="3800 block Butler St" type="OFFENSE" age="" gender="" description="*********************************************** &lt;br/&gt;3929, Retail Theft.&lt;br/&gt;"/><marker lat="40.428834925885639" lng="-79.982047583109136" zone="Zone 3" incidentdate="2015-11-15" incidenttime="01:40:00" incidentnumber="15219323" address="S 17th St &amp; E Carson St" type="OFFENSE" age="" gender="" description="*********************************************** &lt;br/&gt;601.16, Public Urination And Defecation&lt;br/&gt;"/><marker lat="40.459511335885011" lng="-79.915628812080826" zone="Zone 5" incidentdate="2015-11-15" incidenttime="04:04:00" incidentnumber="15219439" address="6400 block Hamilton Ave" type="OFFENSE" age="" gender="" description="*********************************************** &lt;br/&gt;3701, Robbery.&lt;br/&gt;"/><marker lat="40.475639774908238" lng="-80.030763711820484" zone="Zone 1" incidentdate="2015-11-15" incidenttime="00:12:00" incidentnumber="15219304" address="3200 block Brighton Rd" type="OFFENSE" age="" gender="" description="*********************************************** &lt;br/&gt;9488, False  Burglar Alarm&lt;br/&gt;"/><marker lat="40.429479578090266" lng="-79.982684256549106" zone="Zone 3" incidentdate="2015-11-15" incidenttime="01:10:00" incidentnumber="15219360" address="S 16th St &amp; Bingham St" type="OFFENSE" age="" gender="" description="*********************************************** &lt;br/&gt;7513, Restriction on Alcoholic Beverages - Open Container&lt;br/&gt;"/><marker lat="40.478038107418683" lng="-80.001803139555449" zone="Zone 1" incidentdate="2015-11-15" incidenttime="16:51:00" incidentnumber="15219730" address="1300 block Chicago St" type="OFFENSE" age="" gender="" description="*********************************************** &lt;br/&gt;2701, Simple Assault.&lt;br/&gt;"/><marker lat="40.451299046694452" lng="-80.020070605282626" zone="Zone 1" incidentdate="2015-11-15" incidenttime="15:52:00" incidentnumber="15219700" address="Western Ave &amp; Bidwell St" type="OFFENSE" age="" gender="" description="*********************************************** &lt;br/&gt;3743, Accidents Involving Damage to Attended Veh. or Property&lt;br/&gt;"/><marker lat="40.431441882854926" lng="-80.01078734053786" zone="Zone 3" incidentdate="2015-11-15" incidenttime="22:37:00" incidentnumber="15219881" address="300 block Virginia Ave" type="OFFENSE" age="" gender="" description="*********************************************** &lt;br/&gt;3701, Robbery.&lt;br/&gt;"/><marker lat="40.41585770010623" lng="-79.988118814925556" zone="Zone 3" incidentdate="2015-11-15" incidenttime="13:55:00" incidentnumber="15219657" address="100 block Zara St" type="OFFENSE" age="" gender="" description="*********************************************** &lt;br/&gt;2702, Aggravated Assault.&lt;br/&gt;"/><marker lat="40.45593744064977" lng="-80.006790672902611" zone="Zone 1" incidentdate="2015-11-15" incidenttime="19:47:00" incidentnumber="15219818" address="Federal St N &amp; Citron Way" type="OFFENSE" age="" gender="" description="*********************************************** &lt;br/&gt;3701, Robbery.&lt;br/&gt;"/><marker lat="40.450588490629549" lng="-79.935462167387811" zone="Zone 4" incidentdate="2015-11-15" incidenttime="02:00:00" incidentnumber="15219425" address="5400 block Walnut St" type="OFFENSE" age="" gender="" description="*********************************************** &lt;br/&gt;9489, Found Property&lt;br/&gt;"/><marker lat="40.1914522" lng="-79.5976800" zone="Zone OSC" incidentdate="2015-11-15" incidenttime="17:45:00" incidentnumber="15219729" address="unknown" type="OFFENSE" age="" gender="" description="*********************************************** &lt;br/&gt;9094, Recovered Stolen Vehicle (OUTSIDE CITY)&lt;br/&gt;"/><marker lat="40.454541169277128" lng="-80.0481434831065" zone="Zone 6" incidentdate="2015-11-15" incidenttime="18:15:00" incidentnumber="15219766" address="2700 block Stafford St" type="OFFENSE" age="" gender="" description="*********************************************** &lt;br/&gt;2706, Terroristic Threats.&lt;br/&gt;"/><marker lat="40.470559349698817" lng="-79.994946939312101" zone="Zone 1" incidentdate="2015-11-15" incidenttime="23:48:00" incidentnumber="15219910" address="400 block East Commons" type="OFFENSE" age="" gender="" description="*********************************************** &lt;br/&gt;9488, False  Burglar Alarm&lt;br/&gt;"/><marker lat="40.428799178836528" lng="-79.984145739682731" zone="Zone 3" incidentdate="2015-11-15" incidenttime="02:00:00" incidentnumber="15219388" address="S 14th St &amp; E Carson St" type="OFFENSE" age="" gender="" description="*********************************************** &lt;br/&gt;5503(a)(4), DISORDERLY CONDUCT - HAZARDOUS/PHYS. OFF&lt;br/&gt;5503(a)(1), DISORDERLY CONDUCT - ENGAGE IN FIGHTING&lt;br/&gt;"/><marker lat="40.443230518813948" lng="-80.000259352054542" zone="Zone 2" incidentdate="2015-11-15" incidenttime="02:22:00" incidentnumber="15219394" address="Penn Ave &amp; 7th St" type="OFFENSE" age="" gender="" description="*********************************************** &lt;br/&gt;3733, Fleeing or Attempting to Elude Police Officer&lt;br/&gt;"/><marker lat="40.482879021356389" lng="-80.04453300763744" zone="Zone 1" incidentdate="2015-11-15" incidenttime="01:39:00" incidentnumber="15219365" address="2000 block Termon Ave" type="OFFENSE" age="" gender="" description="*********************************************** &lt;br/&gt;029, Missing Juvenile&lt;br/&gt;"/><marker lat="40.442333233318983" lng="-80.000227624515944" zone="Zone 2" incidentdate="2015-11-15" incidenttime="18:40:00" incidentnumber="15219811" address="6th Ave &amp; Liberty Ave" type="OFFENSE" age="" gender="" description="*********************************************** &lt;br/&gt;3921(a), Theft by Unlawful Taking or Disposition - Movable item&lt;br/&gt;"/><marker lat="40.451987340067703" lng="-80.008730717465113" zone="Zone 1" incidentdate="2015-11-15" incidenttime="11:30:00" incidentnumber="15219615" address="Ridge Ave &amp; Arch St" type="OFFENSE" age="" gender="" description="*********************************************** &lt;br/&gt;3934, Theft from Vehicle&lt;br/&gt;"/><marker lat="40.4683703008184" lng="-80.020060498907839" zone="Zone 1" incidentdate="2015-11-15" incidenttime="12:40:00" incidentnumber="15219609" address="800 block Marshall Ave" type="OFFENSE" age="" gender="" description="*********************************************** &lt;br/&gt;9497, Aided Case&lt;br/&gt;"/><marker lat="40.475723563766358" lng="-79.89836747148847" zone="Zone 5" incidentdate="2015-11-15" incidenttime="04:57:00" incidentnumber="15219450" address="6900 block Wiltsie St" type="OFFENSE" age="" gender="" description="*********************************************** &lt;br/&gt;9999, 9999 - (Misc. Incident):&lt;br/&gt;"/><marker lat="40.3866792" lng="-79.9326340" zone="Zone 1" incidentdate="2015-11-15" incidenttime="03:13:00" incidentnumber="15219421" address="Marshall Ave &amp; Ohio River Blvd Ramp" type="OFFENSE" age="" gender="" description="*********************************************** &lt;br/&gt;1501, Drivers Required to be Licensed.&lt;br/&gt;3743, Accidents Involving Damage to Attended Veh. or Property&lt;br/&gt;"/><marker lat="40.439648091150396" lng="-79.951184074922125" zone="Zone 4" incidentdate="2015-11-15" incidenttime="03:00:00" incidentnumber="15219449" address="Boundary St" type="OFFENSE" age="" gender="" description="*********************************************** &lt;br/&gt;3701, Robbery.&lt;br/&gt;"/><marker lat="40.4406248" lng="-79.9958864" zone="Zone 5" incidentdate="2015-11-15" incidenttime="21:38:00" incidentnumber="15219854" address="Paul Scuillo Memorial Field Park" type="OFFENSE" age="" gender="" description="*********************************************** &lt;br/&gt;9501, Bench Warrant&lt;br/&gt;"/><marker lat="40.420505409445411" lng="-79.986336687578529" zone="Zone 3" incidentdate="2015-11-15" incidenttime="19:30:00" incidentnumber="15219809" address="Wachter St &amp; S 18th St" type="OFFENSE" age="" gender="" description="*********************************************** &lt;br/&gt;1501, Drivers Required to be Licensed.&lt;br/&gt;3925, Receiving Stolen Property.&lt;br/&gt;"/><marker lat="40.407555203418084" lng="-79.948139123759546" zone="Zone 4" incidentdate="2015-11-15" incidenttime="22:30:00" incidentnumber="15219937" address="5000 block Langhorn St" type="OFFENSE" age="" gender="" description="*********************************************** &lt;br/&gt;3921(a), Theft by Unlawful Taking or Disposition - Movable item&lt;br/&gt;"/><marker lat="40.44445207973979" lng="-79.94195184941762" zone="Zone 4" incidentdate="2015-11-15" incidenttime="13:01:00" incidentnumber="15219626" address="Forbes Ave &amp; Morewood Ave" type="OFFENSE" age="" gender="" description="*********************************************** &lt;br/&gt;2709(b), Stalking&lt;br/&gt;2709(a)(2), Harassment by Following Person in Public Place(s)&lt;br/&gt;"/><marker lat="40.415771208351892" lng="-79.969766503539745" zone="Zone 3" incidentdate="2015-11-15" incidenttime="08:16:00" incidentnumber="15219483" address="Spring St &amp; Cologne St" type="OFFENSE" age="" gender="" description="*********************************************** &lt;br/&gt;9999, 9999 - (Misc. Incident):&lt;br/&gt;"/><marker lat="40.467927247545596" lng="-79.903236719793938" zone="Zone 5" incidentdate="2015-11-15" incidenttime="04:35:00" incidentnumber="15081439" address="1200 block Paulson Ave" type="ARREST" age="32" gender="F" description="*********************************************** &lt;br/&gt;3921(a), Theft by Unlawful Taking or Disposition - Movable item&lt;br/&gt;2701(a)(1), Simple Assault - Intent., Know., Reckless.Cause Bod. Injury&lt;br/&gt;"/><marker lat="40.443352274206227" lng="-79.998165416406081" zone="Zone 2" incidentdate="2015-11-15" incidenttime="22:33:00" incidentnumber="15219821" address="9th St &amp; Exchange Way" type="ARREST" age="37" gender="F" description="*********************************************** &lt;br/&gt;3802(a)(1), DUI - General Impairment&lt;br/&gt;"/><marker lat="40.481903120722876" lng="-80.041764242183035" zone="Zone 1" incidentdate="2015-11-15" incidenttime="19:07:00" incidentnumber="15217871" address="California Ave &amp; Termon Ave" type="ARREST" age="43" gender="M" description="*********************************************** &lt;br/&gt;3743, Accidents Involving Damage to Attended Veh. or Property&lt;br/&gt;"/><marker lat="40.478038107418683" lng="-80.001803139555449" zone="Zone 1" incidentdate="2015-11-15" incidenttime="17:00:00" incidentnumber="15219730" address="1300 block Chicago St" type="ARREST" age="37" gender="M" description="*********************************************** &lt;br/&gt;2701, Simple Assault.&lt;br/&gt;"/><marker lat="40.430802070924834" lng="-80.009581175018482" zone="Zone 3" incidentdate="2015-11-15" incidenttime="18:40:00" incidentnumber="15200980" address="200 block Virginia Ave" type="ARREST" age="15" gender="M" description="*********************************************** &lt;br/&gt;2701, Simple Assault.&lt;br/&gt;2709(a)(1), Harassment by Physical Contact, or Attempts or Threats&lt;br/&gt;"/><marker lat="40.4406248" lng="-79.9958864" zone="Zone 5" incidentdate="2015-11-15" incidenttime="21:38:00" incidentnumber="15219854" address="Paul Scuillo Memorial Field Park" type="ARREST" age="38" gender="M" description="*********************************************** &lt;br/&gt;9501, Bench Warrant&lt;br/&gt;"/><marker lat="40.428310737985385" lng="-79.973109967204991" zone="Zone 3" incidentdate="2015-11-15" incidenttime="03:55:00" incidentnumber="15219430" address="100 block S 23rd St" type="ARREST" age="27" gender="M" description="*********************************************** &lt;br/&gt;5505, Public Drunkenness&lt;br/&gt;3503(a), Criminal Trespass&lt;br/&gt;"/><marker lat="40.420505409445411" lng="-79.986336687578529" zone="Zone 3" incidentdate="2015-11-15" incidenttime="19:30:00" incidentnumber="15219809" address="Wachter St &amp; S 18th St" type="ARREST" age="19" gender="M" description="*********************************************** &lt;br/&gt;1501, Drivers Required to be Licensed.&lt;br/&gt;3925, Receiving Stolen Property.&lt;br/&gt;"/><marker lat="40.434696587775576" lng="-79.996300985228572" zone="Zone 2" incidentdate="2015-11-15" incidenttime="20:00:00" incidentnumber="15208188" address="600 block 1st Ave" type="ARREST" age="24" gender="M" description="*********************************************** &lt;br/&gt;2701, Simple Assault.&lt;br/&gt;2902, Unlawful Restraint.&lt;br/&gt;2706, Terroristic Threats.&lt;br/&gt;2901, Kidnapping.&lt;br/&gt;"/><marker lat="40.45411894889228" lng="-79.944034255308623" zone="Zone 5" incidentdate="2015-11-15" incidenttime="03:28:00" incidentnumber="15219427" address="5000 block Centre Ave" type="ARREST" age="31" gender="M" description="*********************************************** &lt;br/&gt;13(a)(31), Marijuana: Possession Small Amount&lt;br/&gt;5104, Resisting Arrest or Other Law Enforcement.&lt;br/&gt;2702, Aggravated Assault.&lt;br/&gt;5505, Public Drunkenness&lt;br/&gt;5123, Contraband.&lt;br/&gt;5503(a)(2), DISORDERLY CONDUCT - UNREASONABLE NOISE&lt;br/&gt;"/><marker lat="40.414743757491522" lng="-79.945331821154184" zone="Zone 4" incidentdate="2015-11-15" incidenttime="21:45:00" incidentnumber="15219858" address="4600 block Chatsworth Ave" type="ARREST" age="33" gender="M" description="*********************************************** &lt;br/&gt;1543, Driving While Operating Privilege is Suspended or Revoked.&lt;br/&gt;2701(a)(1), Simple Assault - Intent., Know., Reckless.Cause Bod. Injury&lt;br/&gt;3928, Unauthorized Use of Automobile and Other Vehicles.&lt;br/&gt;"/><marker lat="40.449715263079867" lng="-80.018412722358093" zone="Zone 1" incidentdate="2015-11-15" incidenttime="11:50:00" incidentnumber="15219592" address="Ridge Ave" type="ARREST" age="27" gender="M" description="*********************************************** &lt;br/&gt;13(a)(31), Marijuana: Possession Small Amount&lt;br/&gt;"/><marker lat="40.449715263079867" lng="-80.018412722358093" zone="Zone 1" incidentdate="2015-11-15" incidenttime="11:50:00" incidentnumber="15219592" address="Ridge Ave" type="ARREST" age="52" gender="F" description="*********************************************** &lt;br/&gt;13(a)(31), Marijuana: Possession Small Amount&lt;br/&gt;"/><marker lat="40.449715263079867" lng="-80.018412722358093" zone="Zone 1" incidentdate="2015-11-15" incidenttime="11:50:00" incidentnumber="15219592" address="Ridge Ave" type="ARREST" age="30" gender="M" description="*********************************************** &lt;br/&gt;13(a)(31), Marijuana: Possession Small Amount&lt;br/&gt;"/><marker lat="40.428746746224945" lng="-79.982646526389246" zone="Zone 3" incidentdate="2015-11-15" incidenttime="00:10:00" incidentnumber="15219295" address="1600 block E Carson St" type="ARREST" age="20" gender="F" description="*********************************************** &lt;br/&gt;5104, Resisting Arrest or Other Law Enforcement.&lt;br/&gt;6308(a), Underage Purchase, Consume, Possessed or Transport Liquor&lt;br/&gt;5505, Public Drunkenness&lt;br/&gt;2709(a)(1), Harassment by Physical Contact, or Attempts or Threats&lt;br/&gt;3503.B1I, DEF. TRESPASS ACTUAL COMMUNICATION&lt;br/&gt;4914, False Identification to Law Enforcement Authorities&lt;br/&gt;"/><marker lat="40.454893172635735" lng="-79.978354258304591" zone="Zone 2" incidentdate="2015-11-15" incidenttime="02:00:00" incidentnumber="15219353" address="2600 block Penn Ave" type="ARREST" age="30" gender="M" description="*********************************************** &lt;br/&gt;5104, Resisting Arrest or Other Law Enforcement.&lt;br/&gt;4914, False Identification to Law Enforcement Authorities&lt;br/&gt;7513, Restriction on Alcoholic Beverages - Open Container&lt;br/&gt;"/><marker lat="40.41585770010623" lng="-79.988118814925556" zone="Zone 3" incidentdate="2015-11-15" incidenttime="14:30:00" incidentnumber="15219657" address="100 block Zara St" type="ARREST" age="58" gender="M" description="*********************************************** &lt;br/&gt;2702, Aggravated Assault.&lt;br/&gt;"/><marker lat="40.428684832699354" lng="-79.983306706238423" zone="Zone 3" incidentdate="2015-11-15" incidenttime="19:39:00" incidentnumber="15219815" address="1500 block E Carson St" type="ARREST" age="" gender="M" description="*********************************************** &lt;br/&gt;5104, Resisting Arrest or Other Law Enforcement.&lt;br/&gt;2702, Aggravated Assault.&lt;br/&gt;2701, Simple Assault.&lt;br/&gt;5505, Public Drunkenness&lt;br/&gt;3503.B1I, DEF. TRESPASS ACTUAL COMMUNICATION&lt;br/&gt;5503(a)(1), DISORDERLY CONDUCT - ENGAGE IN FIGHTING&lt;br/&gt;"/></markers>
