<?xml version="1.0"?>
<markers><marker lat="40.4467664" lng="-80.0200742" zone="Zone 1" incidentdate="2014-07-20" incidenttime="00:35:00" incidentnumber="14141045" address="Casino Drive, Pittsburgh, PA 15212, USA" type="OFFENSE" description="*********************************************** &lt;br/&gt;9999, 9999 - (Misc. Incident):&lt;br/&gt;"/><marker lat="40.4615213" lng="-80.0157685" zone="Zone 1" incidentdate="2014-07-20" incidenttime="00:52:00" incidentnumber="14141065" address="Overlook Street, Pittsburgh, PA 15214, USA" type="OFFENSE" description="*********************************************** &lt;br/&gt;9123, Miscellaneous Fire Other Investigation to Continue&lt;br/&gt;"/><marker lat="40.4540982" lng="-79.9968246" zone="Zone 1" incidentdate="2014-07-20" incidenttime="01:33:00" incidentnumber="14141009" address="East Ohio Street &amp; Madison Avenue, Pittsburgh, PA 15212, USA" type="ARREST" description="*********************************************** &lt;br/&gt;3802(a)(1), DUI - General Impairment&lt;br/&gt;3802(c), DUI - Highest Rate of Alcohol - BAC &gt;= .16%&lt;br/&gt;"/><marker lat="40.4905978" lng="-80.0319253" zone="Zone 1" incidentdate="2014-07-20" incidenttime="02:00:00" incidentnumber="14141141" address="Flora Street, Pittsburgh, PA 15212, USA" type="OFFENSE" description="*********************************************** &lt;br/&gt;3921(a), Theft by Unlawful Taking or Disposition - Movable item&lt;br/&gt;"/><marker lat="40.4573734" lng="-79.9977296" zone="Zone 1" incidentdate="2014-07-20" incidenttime="02:35:00" incidentnumber="14141146" address="800 Spring Garden Avenue, Pittsburgh, PA 15212, USA" type="ARREST" description="*********************************************** &lt;br/&gt;3308, One-Way Roadways and Rotary Traffic Islands.&lt;br/&gt;3802(a)(1), DUI - General Impairment&lt;br/&gt;3802(c), DUI - Highest Rate of Alcohol - BAC &gt;= .16%&lt;br/&gt;3308, One-Way Roadways and Rotary Traffic Islands.&lt;br/&gt;3802(a)(1), DUI - General Impairment&lt;br/&gt;3802(c), DUI - Highest Rate of Alcohol - BAC &gt;= .16%&lt;br/&gt;"/><marker lat="40.4573734" lng="-79.9977296" zone="Zone 1" incidentdate="2014-07-20" incidenttime="02:35:00" incidentnumber="14141146" address="800 Spring Garden Avenue, Pittsburgh, PA 15212, USA" type="OFFENSE" description="*********************************************** &lt;br/&gt;3308, One-Way Roadways and Rotary Traffic Islands.&lt;br/&gt;3802(a)(1), DUI - General Impairment&lt;br/&gt;3802(c), DUI - Highest Rate of Alcohol - BAC &gt;= .16%&lt;br/&gt;3308, One-Way Roadways and Rotary Traffic Islands.&lt;br/&gt;3802(a)(1), DUI - General Impairment&lt;br/&gt;3802(c), DUI - Highest Rate of Alcohol - BAC &gt;= .16%&lt;br/&gt;"/><marker lat="40.4626148" lng="-80.008287" zone="Zone 1" incidentdate="2014-07-20" incidenttime="04:30:00" incidentnumber="14141221" address="1700 Letsche Street, Pittsburgh, PA 15214, USA" type="OFFENSE" description="*********************************************** &lt;br/&gt;9999, 9999 - (Misc. Incident):&lt;br/&gt;"/><marker lat="40.448415" lng="-80.00395" zone="Zone 1" incidentdate="2014-07-20" incidenttime="07:17:00" incidentnumber="14141255" address="200 Federal Street, Pittsburgh, PA 15212, USA" type="OFFENSE" description="*********************************************** &lt;br/&gt;9488, False  Burglar Alarm&lt;br/&gt;"/><marker lat="40.466019" lng="-80.0305962" zone="Zone 1" incidentdate="2014-07-20" incidenttime="07:46:00" incidentnumber="14141266" address="1400 Ingham Street, Pittsburgh, PA 15212, USA" type="OFFENSE" description="*********************************************** &lt;br/&gt;9488, False  Burglar Alarm&lt;br/&gt;"/><marker lat="40.4796802" lng="-80.042802" zone="Zone 1" incidentdate="2014-07-20" incidenttime="08:00:00" incidentnumber="14141308" address="3600 Grenada Street, Pittsburgh, PA 15212, USA" type="OFFENSE" description="*********************************************** &lt;br/&gt;2709(a)(5), Harassment Communicates Repeatedly in Anonymous Manner&lt;br/&gt;"/><marker lat="40.454828" lng="-80.013548" zone="Zone 1" incidentdate="2014-07-20" incidenttime="08:35:00" incidentnumber="14141279" address="1200 Buena Vista Street, Pittsburgh, PA 15212, USA" type="OFFENSE" description="*********************************************** &lt;br/&gt;3304, Criminal Mischief.&lt;br/&gt;"/><marker lat="40.467322" lng="-79.981177" zone="Zone 1" incidentdate="2014-07-20" incidenttime="11:28:00" incidentnumber="14141364" address="1800 Sundeman Street, Pittsburgh, PA 15212, USA" type="OFFENSE" description="*********************************************** &lt;br/&gt;2709, Harassment (Non-Specific)&lt;br/&gt;9012, Non-Violent Domestic&lt;br/&gt;"/><marker lat="40.4702156" lng="-80.0126609" zone="Zone 1" incidentdate="2014-07-20" incidenttime="14:20:00" incidentnumber="14141463" address="2600 Norwood Avenue, Pittsburgh, PA 15214, USA" type="OFFENSE" description="*********************************************** &lt;br/&gt;9488, False  Burglar Alarm&lt;br/&gt;"/><marker lat="40.4528407" lng="-80.0223764" zone="Zone 1" incidentdate="2014-07-20" incidenttime="14:20:00" incidentnumber="14141472" address="1200 West North Avenue, Pittsburgh, PA 15233, USA" type="OFFENSE" description="*********************************************** &lt;br/&gt;2701, Simple Assault.&lt;br/&gt;"/><marker lat="40.4631521" lng="-80.0237228" zone="Zone 1" incidentdate="2014-07-20" incidenttime="15:50:00" incidentnumber="14141503" address="1100 Success Street, Pittsburgh, PA 15212, USA" type="OFFENSE" description="*********************************************** &lt;br/&gt;2701, Simple Assault.&lt;br/&gt;3701, Robbery.&lt;br/&gt;"/><marker lat="40.455802" lng="-80.0082509" zone="Zone 1" incidentdate="2014-07-20" incidenttime="18:00:00" incidentnumber="14141588" address="1200 Butterfield Way, Pittsburgh, PA 15212, USA" type="OFFENSE" description="*********************************************** &lt;br/&gt;2709(a), Harassment.&lt;br/&gt;"/><marker lat="40.4579862" lng="-80.0093687" zone="Zone 1" incidentdate="2014-07-20" incidenttime="21:00:00" incidentnumber="14141695" address="1500 Arch Street, Pittsburgh, PA 15212, USA" type="OFFENSE" description="*********************************************** &lt;br/&gt;3921(a), Theft by Unlawful Taking or Disposition - Movable item&lt;br/&gt;"/><marker lat="40.4601128" lng="-80.0178469" zone="Zone 1" incidentdate="2014-07-20" incidenttime="21:17:00" incidentnumber="14141701" address="Brighton Road &amp; Brighton Place, Pittsburgh, PA 15212, USA" type="OFFENSE" description="*********************************************** &lt;br/&gt;13(a)(31), Marijuana: Possession Small Amount&lt;br/&gt;4303, General Lighting Requirements.&lt;br/&gt;4581, Restraint Systems.&lt;br/&gt;13(a)(31), Marijuana: Possession Small Amount&lt;br/&gt;4303, General Lighting Requirements.&lt;br/&gt;4581, Restraint Systems.&lt;br/&gt;4581, Restraint Systems.&lt;br/&gt;"/><marker lat="40.4601128" lng="-80.0178469" zone="Zone 1" incidentdate="2014-07-20" incidenttime="21:25:00" incidentnumber="14141701" address="Brighton Road &amp; Brighton Place, Pittsburgh, PA 15212, USA" type="ARREST" description="*********************************************** &lt;br/&gt;13(a)(31), Marijuana: Possession Small Amount&lt;br/&gt;4303, General Lighting Requirements.&lt;br/&gt;4581, Restraint Systems.&lt;br/&gt;13(a)(31), Marijuana: Possession Small Amount&lt;br/&gt;4303, General Lighting Requirements.&lt;br/&gt;4581, Restraint Systems.&lt;br/&gt;4581, Restraint Systems.&lt;br/&gt;"/><marker lat="40.435467" lng="-79.996404" zone="Zone 2" incidentdate="2014-07-20" incidenttime="00:05:00" incidentnumber="14121592" address="600 1st Avenue, Pittsburgh, PA 15219, USA" type="ARREST" description="*********************************************** &lt;br/&gt;3925, Receiving Stolen Property.&lt;br/&gt;3934, Theft from Vehicle&lt;br/&gt;"/><marker lat="40.4352639" lng="-79.994398" zone="Zone 2" incidentdate="2014-07-20" incidenttime="00:15:00" incidentnumber="14119706" address="700 2nd Avenue, Pittsburgh, PA 15219, USA" type="ARREST" description="*********************************************** &lt;br/&gt;13(a)(16), Possession of Controlled Substance&lt;br/&gt;5123, Contraband.&lt;br/&gt;"/><marker lat="40.4404416" lng="-79.9892866" zone="Zone 2" incidentdate="2014-07-20" incidenttime="00:49:00" incidentnumber="14141063" address="Centre Avenue &amp; Mario Lemieux Place, Pittsburgh, PA 15219, USA" type="ARREST" description="*********************************************** &lt;br/&gt;13(a)(31), Marijuana: Possession Small Amount&lt;br/&gt;3733, Fleeing or Attempting to Elude Police Officer&lt;br/&gt;5121, Escape.&lt;br/&gt;6106, Firearms not to be Carried without a License.&lt;br/&gt;13(a)(31), Marijuana: Possession Small Amount&lt;br/&gt;3733, Fleeing or Attempting to Elude Police Officer&lt;br/&gt;5121, Escape.&lt;br/&gt;6106, Firearms not to be Carried without a License.&lt;br/&gt;"/><marker lat="40.4404416" lng="-79.9892866" zone="Zone 2" incidentdate="2014-07-20" incidenttime="00:49:00" incidentnumber="14141063" address="Centre Avenue &amp; Mario Lemieux Place, Pittsburgh, PA 15219, USA" type="OFFENSE" description="*********************************************** &lt;br/&gt;13(a)(31), Marijuana: Possession Small Amount&lt;br/&gt;3733, Fleeing or Attempting to Elude Police Officer&lt;br/&gt;5121, Escape.&lt;br/&gt;6106, Firearms not to be Carried without a License.&lt;br/&gt;13(a)(31), Marijuana: Possession Small Amount&lt;br/&gt;3733, Fleeing or Attempting to Elude Police Officer&lt;br/&gt;5121, Escape.&lt;br/&gt;6106, Firearms not to be Carried without a License.&lt;br/&gt;"/><marker lat="40.4464758" lng="-79.9683908" zone="Zone 2" incidentdate="2014-07-20" incidenttime="01:20:00" incidentnumber="14141091" address="500 Watt Street, Pittsburgh, PA 15219, USA" type="OFFENSE" description="*********************************************** &lt;br/&gt;9496, Dead on Arrival (DOA)&lt;br/&gt;"/><marker lat="40.445237" lng="-79.999039" zone="Zone 2" incidentdate="2014-07-20" incidenttime="02:29:00" incidentnumber="14141137" address="Fort Duquesne Boulevard &amp; 9th Street, Pittsburgh, PA 15222, USA" type="OFFENSE" description="*********************************************** &lt;br/&gt;3334, Turning Movements and Required Signals.&lt;br/&gt;3802(a)(1), DUI - General Impairment&lt;br/&gt;3802(c), DUI - Highest Rate of Alcohol - BAC &gt;= .16%&lt;br/&gt;3334, Turning Movements and Required Signals.&lt;br/&gt;3802(a)(1), DUI - General Impairment&lt;br/&gt;3802(c), DUI - Highest Rate of Alcohol - BAC &gt;= .16%&lt;br/&gt;"/><marker lat="40.445237" lng="-79.999039" zone="Zone 2" incidentdate="2014-07-20" incidenttime="02:29:00" incidentnumber="14141137" address="Fort Duquesne Boulevard &amp; 9th Street, Pittsburgh, PA 15222, USA" type="ARREST" description="*********************************************** &lt;br/&gt;3334, Turning Movements and Required Signals.&lt;br/&gt;3802(a)(1), DUI - General Impairment&lt;br/&gt;3802(c), DUI - Highest Rate of Alcohol - BAC &gt;= .16%&lt;br/&gt;3334, Turning Movements and Required Signals.&lt;br/&gt;3802(a)(1), DUI - General Impairment&lt;br/&gt;3802(c), DUI - Highest Rate of Alcohol - BAC &gt;= .16%&lt;br/&gt;"/><marker lat="40.4659326" lng="-79.9535825" zone="Zone 2" incidentdate="2014-07-20" incidenttime="02:33:00" incidentnumber="14141154" address="Penn Avenue &amp; 44th Street, Pittsburgh, PA 15224, USA" type="OFFENSE" description="*********************************************** &lt;br/&gt;1301, Registration and Certificate of Title Required.&lt;br/&gt;7122, Altered, Forged or Counterfeit Documents and Plates&lt;br/&gt;"/><marker lat="40.438389" lng="-79.9849459" zone="Zone 2" incidentdate="2014-07-20" incidenttime="05:00:00" incidentnumber="14141228" address="1500 Fifth Avenue, Pittsburgh, PA 15219, USA" type="OFFENSE" description="*********************************************** &lt;br/&gt;2701, Simple Assault.&lt;br/&gt;2701, Simple Assault.&lt;br/&gt;2701, Simple Assault.&lt;br/&gt;"/><marker lat="40.438389" lng="-79.9849459" zone="Zone 2" incidentdate="2014-07-20" incidenttime="05:20:00" incidentnumber="14141228" address="1500 Fifth Avenue, Pittsburgh, PA 15219, USA" type="ARREST" description="*********************************************** &lt;br/&gt;2701, Simple Assault.&lt;br/&gt;2701, Simple Assault.&lt;br/&gt;2701, Simple Assault.&lt;br/&gt;"/><marker lat="40.438389" lng="-79.9849459" zone="Zone 2" incidentdate="2014-07-20" incidenttime="05:20:00" incidentnumber="14141228" address="1500 Fifth Avenue, Pittsburgh, PA 15219, USA" type="ARREST" description="*********************************************** &lt;br/&gt;2701, Simple Assault.&lt;br/&gt;2701, Simple Assault.&lt;br/&gt;2701, Simple Assault.&lt;br/&gt;"/><marker lat="40.443561" lng="-79.98004" zone="Zone 2" incidentdate="2014-07-20" incidenttime="07:15:00" incidentnumber="14141258" address="2000 Centre Avenue, Pittsburgh, PA 15219, USA" type="OFFENSE" description="*********************************************** &lt;br/&gt;9501, Bench Warrant&lt;br/&gt;9501, Bench Warrant&lt;br/&gt;"/><marker lat="40.443561" lng="-79.98004" zone="Zone 2" incidentdate="2014-07-20" incidenttime="07:15:00" incidentnumber="14141258" address="2000 Centre Avenue, Pittsburgh, PA 15219, USA" type="ARREST" description="*********************************************** &lt;br/&gt;9501, Bench Warrant&lt;br/&gt;9501, Bench Warrant&lt;br/&gt;"/><marker lat="40.4554249" lng="-79.7174868" zone="Zone 2" incidentdate="2014-07-20" incidenttime="08:47:00" incidentnumber="14141551" address="900 OBlock Road, Pittsburgh, PA 15239, USA" type="OFFENSE" description="*********************************************** &lt;br/&gt;3921(a), Theft by Unlawful Taking or Disposition - Movable item&lt;br/&gt;"/><marker lat="40.4687821" lng="-79.958033" zone="Zone 2" incidentdate="2014-07-20" incidenttime="09:00:00" incidentnumber="14141378" address="300 42nd Street, Pittsburgh, PA 15201, USA" type="OFFENSE" description="*********************************************** &lt;br/&gt;3304, Criminal Mischief.&lt;br/&gt;"/><marker lat="40.456765" lng="-79.9650644" zone="Zone 2" incidentdate="2014-07-20" incidenttime="12:00:00" incidentnumber="14141389" address="Hancock Street &amp; Brereton Street, Pittsburgh, PA 15219, USA" type="OFFENSE" description="*********************************************** &lt;br/&gt;3745, Accidents Involving Damage to Unattended Veh.or Prop.&lt;br/&gt;"/><marker lat="40.4415049" lng="-79.9972876" zone="Zone 2" incidentdate="2014-07-20" incidenttime="15:00:00" incidentnumber="14141626" address="600 Smithfield Street, Pittsburgh, PA 15222, USA" type="OFFENSE" description="*********************************************** &lt;br/&gt;3304, Criminal Mischief.&lt;br/&gt;3934, Theft from Vehicle&lt;br/&gt;4106, Access Device Fraud&lt;br/&gt;3925, Receiving Stolen Property.&lt;br/&gt;"/><marker lat="40.477463" lng="-79.9574279" zone="Zone 2" incidentdate="2014-07-20" incidenttime="18:45:00" incidentnumber="14141607" address="4900 Hatfield Street, Pittsburgh, PA 15201, USA" type="OFFENSE" description="*********************************************** &lt;br/&gt;3921(a), Theft by Unlawful Taking or Disposition - Movable item&lt;br/&gt;"/><marker lat="40.4489181" lng="-79.9809294" zone="Zone 2" incidentdate="2014-07-20" incidenttime="20:18:00" incidentnumber="14141671" address="900 Memory Lane, Pittsburgh, PA 15219, USA" type="OFFENSE" description="*********************************************** &lt;br/&gt;13(a)(31)*, Hashish - Possession Small Amount&lt;br/&gt;1372, Unauthorized Transfer or Use of Registration.&lt;br/&gt;1543, Driving While Operating Privilege is Suspended or Revoked.&lt;br/&gt;1958, Certificate of Inspection.&lt;br/&gt;13(a)(31), Marijuana: Possession Small Amount&lt;br/&gt;1372, Unauthorized Transfer or Use of Registration.&lt;br/&gt;1543, Driving While Operating Privilege is Suspended or Revoked.&lt;br/&gt;1958, Certificate of Inspection.&lt;br/&gt;"/><marker lat="40.4393736" lng="-79.9796844" zone="Zone 2" incidentdate="2014-07-20" incidenttime="20:23:00" incidentnumber="14141675" address="Diaz Way &amp; Wick Street, Pittsburgh, PA 15219, USA" type="OFFENSE" description="*********************************************** &lt;br/&gt;13(a)(16), Possession of Controlled Substance&lt;br/&gt;13(a)(32), Paraphernalia - Use or Possession&lt;br/&gt;4910, Tampering with or Fabricating Physical Evidence.&lt;br/&gt;13(a)(16), Possession of Controlled Substance&lt;br/&gt;13(a)(32), Paraphernalia - Use or Possession&lt;br/&gt;4910, Tampering with or Fabricating Physical Evidence.&lt;br/&gt;13(a)(16), Possession of Controlled Substance&lt;br/&gt;13(a)(32), Paraphernalia - Use or Possession&lt;br/&gt;"/><marker lat="40.4393736" lng="-79.9796844" zone="Zone 2" incidentdate="2014-07-20" incidenttime="20:23:00" incidentnumber="14141675" address="Diaz Way &amp; Wick Street, Pittsburgh, PA 15219, USA" type="ARREST" description="*********************************************** &lt;br/&gt;13(a)(16), Possession of Controlled Substance&lt;br/&gt;13(a)(32), Paraphernalia - Use or Possession&lt;br/&gt;4910, Tampering with or Fabricating Physical Evidence.&lt;br/&gt;13(a)(16), Possession of Controlled Substance&lt;br/&gt;13(a)(32), Paraphernalia - Use or Possession&lt;br/&gt;4910, Tampering with or Fabricating Physical Evidence.&lt;br/&gt;13(a)(16), Possession of Controlled Substance&lt;br/&gt;13(a)(32), Paraphernalia - Use or Possession&lt;br/&gt;"/><marker lat="40.4393736" lng="-79.9796844" zone="Zone 2" incidentdate="2014-07-20" incidenttime="20:23:00" incidentnumber="14141675" address="Diaz Way &amp; Wick Street, Pittsburgh, PA 15219, USA" type="ARREST" description="*********************************************** &lt;br/&gt;13(a)(16), Possession of Controlled Substance&lt;br/&gt;13(a)(32), Paraphernalia - Use or Possession&lt;br/&gt;4910, Tampering with or Fabricating Physical Evidence.&lt;br/&gt;13(a)(16), Possession of Controlled Substance&lt;br/&gt;13(a)(32), Paraphernalia - Use or Possession&lt;br/&gt;4910, Tampering with or Fabricating Physical Evidence.&lt;br/&gt;13(a)(16), Possession of Controlled Substance&lt;br/&gt;13(a)(32), Paraphernalia - Use or Possession&lt;br/&gt;"/><marker lat="40.4489181" lng="-79.9809294" zone="Zone 2" incidentdate="2014-07-20" incidenttime="20:25:00" incidentnumber="14141671" address="900 Memory Lane, Pittsburgh, PA 15219, USA" type="ARREST" description="*********************************************** &lt;br/&gt;13(a)(31)*, Hashish - Possession Small Amount&lt;br/&gt;1372, Unauthorized Transfer or Use of Registration.&lt;br/&gt;1543, Driving While Operating Privilege is Suspended or Revoked.&lt;br/&gt;1958, Certificate of Inspection.&lt;br/&gt;13(a)(31), Marijuana: Possession Small Amount&lt;br/&gt;1372, Unauthorized Transfer or Use of Registration.&lt;br/&gt;1543, Driving While Operating Privilege is Suspended or Revoked.&lt;br/&gt;1958, Certificate of Inspection.&lt;br/&gt;"/><marker lat="40.479917" lng="-79.718811" zone="Zone 2" incidentdate="2014-07-20" incidenttime="21:05:00" incidentnumber="14141698" address="2000 OBlock Road, Pittsburgh, PA 15239, USA" type="OFFENSE" description="*********************************************** &lt;br/&gt;2702, Aggravated Assault.&lt;br/&gt;2706, Terroristic Threats.&lt;br/&gt;5505, Public Drunkenness&lt;br/&gt;2702, Aggravated Assault.&lt;br/&gt;2706, Terroristic Threats.&lt;br/&gt;5505, Public Drunkenness&lt;br/&gt;5505, Public Drunkenness&lt;br/&gt;"/><marker lat="40.479917" lng="-79.718811" zone="Zone 2" incidentdate="2014-07-20" incidenttime="21:12:00" incidentnumber="14141698" address="2000 OBlock Road, Pittsburgh, PA 15239, USA" type="ARREST" description="*********************************************** &lt;br/&gt;2702, Aggravated Assault.&lt;br/&gt;2706, Terroristic Threats.&lt;br/&gt;5505, Public Drunkenness&lt;br/&gt;2702, Aggravated Assault.&lt;br/&gt;2706, Terroristic Threats.&lt;br/&gt;5505, Public Drunkenness&lt;br/&gt;5505, Public Drunkenness&lt;br/&gt;"/><marker lat="40.4170888" lng="-80.0144872" zone="Zone 3" incidentdate="2014-07-20" incidenttime="00:24:00" incidentnumber="14141044" address="Saw Mill Run Boulevard &amp; Crane Avenue, Pittsburgh, PA 15226, USA" type="OFFENSE" description="*********************************************** &lt;br/&gt;13(a)(16), Possession of Controlled Substance&lt;br/&gt;13(a)(31)(i), Marijuana - Possess Small Amt for Personal Use&lt;br/&gt;13(a)(31)(i), Marijuana - Possess Small Amt for Personal Use&lt;br/&gt;13(a)(16), Possession of Controlled Substance&lt;br/&gt;3503(b)(1)(i), Actual Communication&lt;br/&gt;5505, Public Drunkenness&lt;br/&gt;"/><marker lat="40.4170888" lng="-80.0144872" zone="Zone 3" incidentdate="2014-07-20" incidenttime="00:27:00" incidentnumber="14141044" address="Saw Mill Run Boulevard &amp; Crane Avenue, Pittsburgh, PA 15226, USA" type="ARREST" description="*********************************************** &lt;br/&gt;13(a)(16), Possession of Controlled Substance&lt;br/&gt;13(a)(31)(i), Marijuana - Possess Small Amt for Personal Use&lt;br/&gt;13(a)(31)(i), Marijuana - Possess Small Amt for Personal Use&lt;br/&gt;13(a)(16), Possession of Controlled Substance&lt;br/&gt;3503(b)(1)(i), Actual Communication&lt;br/&gt;5505, Public Drunkenness&lt;br/&gt;"/><marker lat="40.4170888" lng="-80.0144872" zone="Zone 3" incidentdate="2014-07-20" incidenttime="00:27:00" incidentnumber="14141044" address="Saw Mill Run Boulevard &amp; Crane Avenue, Pittsburgh, PA 15226, USA" type="ARREST" description="*********************************************** &lt;br/&gt;13(a)(16), Possession of Controlled Substance&lt;br/&gt;13(a)(31)(i), Marijuana - Possess Small Amt for Personal Use&lt;br/&gt;13(a)(31)(i), Marijuana - Possess Small Amt for Personal Use&lt;br/&gt;13(a)(16), Possession of Controlled Substance&lt;br/&gt;3503(b)(1)(i), Actual Communication&lt;br/&gt;5505, Public Drunkenness&lt;br/&gt;"/><marker lat="40.4343897" lng="-80.0048651" zone="Zone 3" incidentdate="2014-07-20" incidenttime="01:00:00" incidentnumber="14141077" address="200 West Station Square Drive, Pittsburgh, PA 15219, USA" type="OFFENSE" description="*********************************************** &lt;br/&gt;3503(b)(1)(i), Actual Communication&lt;br/&gt;5505, Public Drunkenness&lt;br/&gt;"/><marker lat="40.4286494" lng="-79.9840364" zone="Zone 3" incidentdate="2014-07-20" incidenttime="02:14:00" incidentnumber="14141135" address="1400 East Carson Street, Pittsburgh, PA 15203, USA" type="ARREST" description="*********************************************** &lt;br/&gt;2701, Simple Assault.&lt;br/&gt;2702, Aggravated Assault.&lt;br/&gt;5104, Resisting Arrest or Other Law Enforcement.&lt;br/&gt;5503(a)(4), DISORDERLY CONDUCT - HAZARDOUS/PHYS. OFF&lt;br/&gt;5505, Public Drunkenness&lt;br/&gt;5101, Obstructing Admin. of Law&lt;br/&gt;5104, Resisting Arrest or Other Law Enforcement.&lt;br/&gt;5503, Disorderly Conduct.&lt;br/&gt;5505, Public Drunkenness&lt;br/&gt;601.12, Interference with Official Duties&lt;br/&gt;2701, Simple Assault.&lt;br/&gt;2702, Aggravated Assault.&lt;br/&gt;416, Obstructions&lt;br/&gt;5104, Resisting Arrest or Other Law Enforcement.&lt;br/&gt;5503(a)(4), DISORDERLY CONDUCT - HAZARDOUS/PHYS. OFF&lt;br/&gt;5505, Public Drunkenness&lt;br/&gt;601.12, Interference with Official Duties&lt;br/&gt;"/><marker lat="40.4286494" lng="-79.9840364" zone="Zone 3" incidentdate="2014-07-20" incidenttime="02:14:00" incidentnumber="14141135" address="1400 East Carson Street, Pittsburgh, PA 15203, USA" type="ARREST" description="*********************************************** &lt;br/&gt;2701, Simple Assault.&lt;br/&gt;2702, Aggravated Assault.&lt;br/&gt;5104, Resisting Arrest or Other Law Enforcement.&lt;br/&gt;5503(a)(4), DISORDERLY CONDUCT - HAZARDOUS/PHYS. OFF&lt;br/&gt;5505, Public Drunkenness&lt;br/&gt;5101, Obstructing Admin. of Law&lt;br/&gt;5104, Resisting Arrest or Other Law Enforcement.&lt;br/&gt;5503, Disorderly Conduct.&lt;br/&gt;5505, Public Drunkenness&lt;br/&gt;601.12, Interference with Official Duties&lt;br/&gt;2701, Simple Assault.&lt;br/&gt;2702, Aggravated Assault.&lt;br/&gt;416, Obstructions&lt;br/&gt;5104, Resisting Arrest or Other Law Enforcement.&lt;br/&gt;5503(a)(4), DISORDERLY CONDUCT - HAZARDOUS/PHYS. OFF&lt;br/&gt;5505, Public Drunkenness&lt;br/&gt;601.12, Interference with Official Duties&lt;br/&gt;"/><marker lat="40.4286494" lng="-79.9840364" zone="Zone 3" incidentdate="2014-07-20" incidenttime="02:14:00" incidentnumber="14141135" address="1400 East Carson Street, Pittsburgh, PA 15203, USA" type="OFFENSE" description="*********************************************** &lt;br/&gt;2701, Simple Assault.&lt;br/&gt;2702, Aggravated Assault.&lt;br/&gt;5104, Resisting Arrest or Other Law Enforcement.&lt;br/&gt;5503(a)(4), DISORDERLY CONDUCT - HAZARDOUS/PHYS. OFF&lt;br/&gt;5505, Public Drunkenness&lt;br/&gt;5101, Obstructing Admin. of Law&lt;br/&gt;5104, Resisting Arrest or Other Law Enforcement.&lt;br/&gt;5503, Disorderly Conduct.&lt;br/&gt;5505, Public Drunkenness&lt;br/&gt;601.12, Interference with Official Duties&lt;br/&gt;2701, Simple Assault.&lt;br/&gt;2702, Aggravated Assault.&lt;br/&gt;416, Obstructions&lt;br/&gt;5104, Resisting Arrest or Other Law Enforcement.&lt;br/&gt;5503(a)(4), DISORDERLY CONDUCT - HAZARDOUS/PHYS. OFF&lt;br/&gt;5505, Public Drunkenness&lt;br/&gt;601.12, Interference with Official Duties&lt;br/&gt;"/><marker lat="40.4353288" lng="-80.0129296" zone="Zone 3" incidentdate="2014-07-20" incidenttime="02:15:00" incidentnumber="14141140" address="100 Merrimac Street, Pittsburgh, PA 15211, USA" type="OFFENSE" description="*********************************************** &lt;br/&gt;3934, Theft from Vehicle&lt;br/&gt;5505, Public Drunkenness&lt;br/&gt;5506, Loitering and Prowling at Night&lt;br/&gt;3934, Theft from Vehicle&lt;br/&gt;5505, Public Drunkenness&lt;br/&gt;5506, Loitering and Prowling at Night&lt;br/&gt;"/><marker lat="40.4353288" lng="-80.0129296" zone="Zone 3" incidentdate="2014-07-20" incidenttime="02:19:00" incidentnumber="14141140" address="100 Merrimac Street, Pittsburgh, PA 15211, USA" type="ARREST" description="*********************************************** &lt;br/&gt;3934, Theft from Vehicle&lt;br/&gt;5505, Public Drunkenness&lt;br/&gt;5506, Loitering and Prowling at Night&lt;br/&gt;3934, Theft from Vehicle&lt;br/&gt;5505, Public Drunkenness&lt;br/&gt;5506, Loitering and Prowling at Night&lt;br/&gt;"/><marker lat="40.4315952" lng="-80.0066734" zone="Zone 3" incidentdate="2014-07-20" incidenttime="02:30:00" incidentnumber="14141169" address="100 Grandview Avenue, Pittsburgh, PA 15211, USA" type="OFFENSE" description="*********************************************** &lt;br/&gt;3309, Driving on Roadways Laned for Traffic.&lt;br/&gt;3802(a)(1), DUI - General Impairment&lt;br/&gt;3802(c), DUI - Highest Rate of Alcohol - BAC &gt;= .16%&lt;br/&gt;3802(e), DUI - Minors - BAC &gt;=.02%&lt;br/&gt;3309, Driving on Roadways Laned for Traffic.&lt;br/&gt;3802(a)(1), DUI - General Impairment&lt;br/&gt;3802(c), DUI - Highest Rate of Alcohol - BAC &gt;= .16%&lt;br/&gt;3802(e), DUI - Minors - BAC &gt;=.02%&lt;br/&gt;"/><marker lat="40.4315952" lng="-80.0066734" zone="Zone 3" incidentdate="2014-07-20" incidenttime="02:40:00" incidentnumber="14141169" address="100 Grandview Avenue, Pittsburgh, PA 15211, USA" type="ARREST" description="*********************************************** &lt;br/&gt;3309, Driving on Roadways Laned for Traffic.&lt;br/&gt;3802(a)(1), DUI - General Impairment&lt;br/&gt;3802(c), DUI - Highest Rate of Alcohol - BAC &gt;= .16%&lt;br/&gt;3802(e), DUI - Minors - BAC &gt;=.02%&lt;br/&gt;3309, Driving on Roadways Laned for Traffic.&lt;br/&gt;3802(a)(1), DUI - General Impairment&lt;br/&gt;3802(c), DUI - Highest Rate of Alcohol - BAC &gt;= .16%&lt;br/&gt;3802(e), DUI - Minors - BAC &gt;=.02%&lt;br/&gt;"/><marker lat="40.4155484" lng="-79.9905984" zone="Zone 3" incidentdate="2014-07-20" incidenttime="03:00:00" incidentnumber="14141352" address="100 Knox Avenue, Pittsburgh, PA 15210, USA" type="OFFENSE" description="*********************************************** &lt;br/&gt;3921(a), Theft by Unlawful Taking or Disposition - Movable item&lt;br/&gt;4106, Access Device Fraud&lt;br/&gt;"/><marker lat="40.4254652" lng="-80.0104622" zone="Zone 3" incidentdate="2014-07-20" incidenttime="03:26:00" incidentnumber="14141193" address="400 Norton Street, Pittsburgh, PA 15211, USA" type="OFFENSE" description="*********************************************** &lt;br/&gt;2701, Simple Assault.&lt;br/&gt;2902, Unlawful Restraint.&lt;br/&gt;4304(a)(1), Endangering Welfare of Children.&lt;br/&gt;2701, Simple Assault.&lt;br/&gt;2902, Unlawful Restraint.&lt;br/&gt;4304(a)(1), Endangering Welfare of Children.&lt;br/&gt;"/><marker lat="40.4300641" lng="-80.0016661" zone="Zone 3" incidentdate="2014-07-20" incidenttime="03:37:00" incidentnumber="14141208" address="P J McArdle Roadway, Pittsburgh, PA, USA" type="OFFENSE" description="*********************************************** &lt;br/&gt;3802(a)(1), DUI - General Impairment&lt;br/&gt;3802(c), DUI - Highest Rate of Alcohol - BAC &gt;= .16%&lt;br/&gt;3802(a)(1), DUI - General Impairment&lt;br/&gt;3802(c), DUI - Highest Rate of Alcohol - BAC &gt;= .16%&lt;br/&gt;"/><marker lat="40.4300641" lng="-80.0016661" zone="Zone 3" incidentdate="2014-07-20" incidenttime="03:45:00" incidentnumber="14141208" address="P J McArdle Roadway, Pittsburgh, PA, USA" type="ARREST" description="*********************************************** &lt;br/&gt;3802(a)(1), DUI - General Impairment&lt;br/&gt;3802(c), DUI - Highest Rate of Alcohol - BAC &gt;= .16%&lt;br/&gt;3802(a)(1), DUI - General Impairment&lt;br/&gt;3802(c), DUI - Highest Rate of Alcohol - BAC &gt;= .16%&lt;br/&gt;"/><marker lat="40.4346901" lng="-80.006389" zone="Zone 3" incidentdate="2014-07-20" incidenttime="04:21:00" incidentnumber="14141214" address="300 West Station Square Drive, Pittsburgh, PA 15219, USA" type="OFFENSE" description="*********************************************** &lt;br/&gt;9496, Dead on Arrival (DOA)&lt;br/&gt;"/><marker lat="40.4254652" lng="-80.0104622" zone="Zone 3" incidentdate="2014-07-20" incidenttime="06:01:00" incidentnumber="14141193" address="400 Norton Street, Pittsburgh, PA 15211, USA" type="ARREST" description="*********************************************** &lt;br/&gt;2701, Simple Assault.&lt;br/&gt;2902, Unlawful Restraint.&lt;br/&gt;4304(a)(1), Endangering Welfare of Children.&lt;br/&gt;2701, Simple Assault.&lt;br/&gt;2902, Unlawful Restraint.&lt;br/&gt;4304(a)(1), Endangering Welfare of Children.&lt;br/&gt;"/><marker lat="40.4248616" lng="-79.9798982" zone="Zone 3" incidentdate="2014-07-20" incidenttime="08:00:00" incidentnumber="14141278" address="South 18th Street &amp; Josephine Street, Pittsburgh, PA 15203, USA" type="OFFENSE" description="*********************************************** &lt;br/&gt;3745, Accidents Involving Damage to Unattended Veh.or Prop.&lt;br/&gt;"/><marker lat="40.4286713" lng="-79.9791177" zone="Zone 3" incidentdate="2014-07-20" incidenttime="09:00:00" incidentnumber="14141301" address="South 19th Street, Pittsburgh, PA 15203, USA" type="OFFENSE" description="*********************************************** &lt;br/&gt;3304, Criminal Mischief.&lt;br/&gt;"/><marker lat="40.416869" lng="-79.977651" zone="Zone 3" incidentdate="2014-07-20" incidenttime="10:41:00" incidentnumber="14141340" address="2100 Spring Street, Pittsburgh, PA 15210, USA" type="OFFENSE" description="*********************************************** &lt;br/&gt;3745, Accidents Involving Damage to Unattended Veh.or Prop.&lt;br/&gt;"/><marker lat="40.416968" lng="-79.974461" zone="Zone 3" incidentdate="2014-07-20" incidenttime="11:15:00" incidentnumber="14141357" address="2300 Arlington Avenue, Pittsburgh, PA 15210, USA" type="OFFENSE" description="*********************************************** &lt;br/&gt;3502, Burglary.&lt;br/&gt;3701, Robbery.&lt;br/&gt;"/><marker lat="40.4363956" lng="-80.0156434" zone="Zone 3" incidentdate="2014-07-20" incidenttime="12:00:00" incidentnumber="14141502" address="100 Labelle Street, Pittsburgh, PA 15211, USA" type="OFFENSE" description="*********************************************** &lt;br/&gt;3934, Theft from Vehicle&lt;br/&gt;"/><marker lat="40.421536" lng="-79.9935859" zone="Zone 3" incidentdate="2014-07-20" incidenttime="13:00:00" incidentnumber="14129728" address="800 East Warrington Avenue, Pittsburgh, PA 15210, USA" type="ARREST" description="*********************************************** &lt;br/&gt;2701, Simple Assault.&lt;br/&gt;"/><marker lat="40.3844713" lng="-79.9864482" zone="Zone 3" incidentdate="2014-07-20" incidenttime="15:30:00" incidentnumber="14141573" address="Maytide Street, Pittsburgh, PA 15227, USA" type="OFFENSE" description="*********************************************** &lt;br/&gt;2709(a)(5), Harassment Communicates Repeatedly in Anonymous Manner&lt;br/&gt;"/><marker lat="40.417043" lng="-79.993231" zone="Zone 3" incidentdate="2014-07-20" incidenttime="16:00:00" incidentnumber="14141512" address="300 Jucunda Street, Pittsburgh, PA 15210, USA" type="OFFENSE" description="*********************************************** &lt;br/&gt;3502, Burglary.&lt;br/&gt;"/><marker lat="40.3881577" lng="-79.9893975" zone="Zone 3" incidentdate="2014-07-20" incidenttime="19:40:00" incidentnumber="14141652" address="2300 Spokane Avenue, Pittsburgh, PA 15210, USA" type="OFFENSE" description="*********************************************** &lt;br/&gt;9489, Found Property&lt;br/&gt;9489, Found Property&lt;br/&gt;"/><marker lat="40.4303015" lng="-79.9177299" zone="Zone 4" incidentdate="2014-07-20" incidenttime="01:10:00" incidentnumber="14141089" address="6400 Nicholson Street, Pittsburgh, PA 15217, USA" type="OFFENSE" description="*********************************************** &lt;br/&gt;3304, Criminal Mischief.&lt;br/&gt;"/><marker lat="40.4380545" lng="-79.922969" zone="Zone 4" incidentdate="2014-07-20" incidenttime="09:34:00" incidentnumber="14141341" address="Forbes Avenue &amp; Murray Avenue, Pittsburgh, PA 15217, USA" type="OFFENSE" description="*********************************************** &lt;br/&gt;3921(a), Theft by Unlawful Taking or Disposition - Movable item&lt;br/&gt;"/><marker lat="40.4215546" lng="-79.9261621" zone="Zone 4" incidentdate="2014-07-20" incidenttime="13:07:00" incidentnumber="14141423" address="6400 Landview Road, Pittsburgh, PA 15217, USA" type="OFFENSE" description="*********************************************** &lt;br/&gt;2709(a)(3), Harassment No Legitimate Purpose&lt;br/&gt;"/><marker lat="40.4343192" lng="-79.954221" zone="Zone 4" incidentdate="2014-07-20" incidenttime="17:21:00" incidentnumber="14141566" address="3600 Boulevard of the Allies, Pittsburgh, PA 15213, USA" type="OFFENSE" description="*********************************************** &lt;br/&gt;9999, 9999 - (Misc. Incident):&lt;br/&gt;9999, 9999 - (Misc. Incident):&lt;br/&gt;"/><marker lat="40.4696662" lng="-79.9210303" zone="Zone 5" incidentdate="2014-07-20" incidenttime="01:09:00" incidentnumber="14141083" address="Stanton Avenue &amp; North Highland Avenue, Pittsburgh, PA 15206, USA" type="OFFENSE" description="*********************************************** &lt;br/&gt;3802(a)(1), DUI - General Impairment&lt;br/&gt;3802(c), DUI - Highest Rate of Alcohol - BAC &gt;= .16%&lt;br/&gt;3802(a)(1), DUI - General Impairment&lt;br/&gt;3802(c), DUI - Highest Rate of Alcohol - BAC &gt;= .16%&lt;br/&gt;"/><marker lat="40.4696662" lng="-79.9210303" zone="Zone 5" incidentdate="2014-07-20" incidenttime="01:24:00" incidentnumber="14141083" address="Stanton Avenue &amp; North Highland Avenue, Pittsburgh, PA 15206, USA" type="ARREST" description="*********************************************** &lt;br/&gt;3802(a)(1), DUI - General Impairment&lt;br/&gt;3802(c), DUI - Highest Rate of Alcohol - BAC &gt;= .16%&lt;br/&gt;3802(a)(1), DUI - General Impairment&lt;br/&gt;3802(c), DUI - Highest Rate of Alcohol - BAC &gt;= .16%&lt;br/&gt;"/><marker lat="40.475121" lng="-79.9236183" zone="Zone 5" incidentdate="2014-07-20" incidenttime="03:30:00" incidentnumber="14141173" address="Hampton Street &amp; Portland Street, Pittsburgh, PA 15206, USA" type="OFFENSE" description="*********************************************** &lt;br/&gt;3304, Criminal Mischief.&lt;br/&gt;"/><marker lat="40.4647652" lng="-79.9349269" zone="Zone 5" incidentdate="2014-07-20" incidenttime="08:13:00" incidentnumber="14141273" address="Penn Avenue &amp; North Graham Street, Pittsburgh, PA 15206, USA" type="OFFENSE" description="*********************************************** &lt;br/&gt;13(a)(31), Marijuana: Possession Small Amount&lt;br/&gt;1543, Driving While Operating Privilege is Suspended or Revoked.&lt;br/&gt;4303, General Lighting Requirements.&lt;br/&gt;13(a)(31), Marijuana: Possession Small Amount&lt;br/&gt;1543, Driving While Operating Privilege is Suspended or Revoked.&lt;br/&gt;4303, General Lighting Requirements.&lt;br/&gt;"/><marker lat="40.4647652" lng="-79.9349269" zone="Zone 5" incidentdate="2014-07-20" incidenttime="08:20:00" incidentnumber="14141273" address="Penn Avenue &amp; North Graham Street, Pittsburgh, PA 15206, USA" type="ARREST" description="*********************************************** &lt;br/&gt;13(a)(31), Marijuana: Possession Small Amount&lt;br/&gt;1543, Driving While Operating Privilege is Suspended or Revoked.&lt;br/&gt;4303, General Lighting Requirements.&lt;br/&gt;13(a)(31), Marijuana: Possession Small Amount&lt;br/&gt;1543, Driving While Operating Privilege is Suspended or Revoked.&lt;br/&gt;4303, General Lighting Requirements.&lt;br/&gt;"/><marker lat="40.4687104" lng="-79.9240586" zone="Zone 5" incidentdate="2014-07-20" incidenttime="11:00:00" incidentnumber="14141365" address="700 North Euclid Avenue, Pittsburgh, PA 15206, USA" type="OFFENSE" description="*********************************************** &lt;br/&gt;3921, Theft by Unlawful Taking or Disposition.&lt;br/&gt;"/><marker lat="40.498195" lng="-79.853756" zone="Zone 5" incidentdate="2014-07-20" incidenttime="12:53:00" incidentnumber="14141416" address="800 Freeport Road, Pittsburgh, PA 15238, USA" type="ARREST" description="*********************************************** &lt;br/&gt;3929, Retail Theft.&lt;br/&gt;3929, Retail Theft.&lt;br/&gt;"/><marker lat="40.498195" lng="-79.853756" zone="Zone 5" incidentdate="2014-07-20" incidenttime="12:53:00" incidentnumber="14141416" address="800 Freeport Road, Pittsburgh, PA 15238, USA" type="OFFENSE" description="*********************************************** &lt;br/&gt;3929, Retail Theft.&lt;br/&gt;3929, Retail Theft.&lt;br/&gt;"/><marker lat="40.4589892" lng="-79.8898649" zone="Zone 5" incidentdate="2014-07-20" incidenttime="13:43:00" incidentnumber="14141434" address="1200 Pineridge Street, Pittsburgh, PA 15208, USA" type="OFFENSE" description="*********************************************** &lt;br/&gt;9496, Dead on Arrival (DOA)&lt;br/&gt;"/><marker lat="40.454804" lng="-79.894833" zone="Zone 5" incidentdate="2014-07-20" incidenttime="15:15:00" incidentnumber="14141478" address="7300 Kelly Street, Pittsburgh, PA 15208, USA" type="OFFENSE" description="*********************************************** &lt;br/&gt;029, Missing Juvenile&lt;br/&gt;"/><marker lat="40.452853" lng="-79.891066" zone="Zone 5" incidentdate="2014-07-20" incidenttime="15:42:00" incidentnumber="14141500" address="7600 Hamilton Avenue, Pittsburgh, PA 15208, USA" type="OFFENSE" description="*********************************************** &lt;br/&gt;2702, Aggravated Assault.&lt;br/&gt;2705, Recklessly Endangering Another Person.&lt;br/&gt;2707, Propulsion of Missiles&lt;br/&gt;2709(a)(1), Harassment by Physical Contact, or Attempts or Threats&lt;br/&gt;3304, Criminal Mischief.&lt;br/&gt;4304(a)(1), Endangering Welfare of Children.&lt;br/&gt;"/><marker lat="40.4691851" lng="-79.9379033" zone="Zone 5" incidentdate="2014-07-20" incidenttime="15:45:00" incidentnumber="14141529" address="5300 Columbo Street, Pittsburgh, PA 15224, USA" type="OFFENSE" description="*********************************************** &lt;br/&gt;2709, Harassment (Non-Specific)&lt;br/&gt;"/><marker lat="40.4684363" lng="-79.9454294" zone="Zone 5" incidentdate="2014-07-20" incidenttime="17:00:00" incidentnumber="14141548" address="4800 Rosetta Street, Pittsburgh, PA 15224, USA" type="OFFENSE" description="*********************************************** &lt;br/&gt;4106, Access Device Fraud&lt;br/&gt;"/><marker lat="40.457447" lng="-79.893795" zone="Zone 5" incidentdate="2014-07-20" incidenttime="17:25:00" incidentnumber="14141571" address="7300 Idlewild Street, Pittsburgh, PA 15208, USA" type="OFFENSE" description="*********************************************** &lt;br/&gt;13(a)(16), Possession of Controlled Substance&lt;br/&gt;13(a)(30), Possession w/ Intent to Del. Controlled Substance&lt;br/&gt;3502, Burglary.&lt;br/&gt;13(a)(16), Possession of Controlled Substance&lt;br/&gt;13(a)(30), Possession w/ Intent to Del. Controlled Substance&lt;br/&gt;3502, Burglary.&lt;br/&gt;"/><marker lat="40.457447" lng="-79.893795" zone="Zone 5" incidentdate="2014-07-20" incidenttime="17:50:00" incidentnumber="14141571" address="7300 Idlewild Street, Pittsburgh, PA 15208, USA" type="ARREST" description="*********************************************** &lt;br/&gt;13(a)(16), Possession of Controlled Substance&lt;br/&gt;13(a)(30), Possession w/ Intent to Del. Controlled Substance&lt;br/&gt;3502, Burglary.&lt;br/&gt;13(a)(16), Possession of Controlled Substance&lt;br/&gt;13(a)(30), Possession w/ Intent to Del. Controlled Substance&lt;br/&gt;3502, Burglary.&lt;br/&gt;"/><marker lat="40.4545418" lng="-79.8741914" zone="Zone 5" incidentdate="2014-07-20" incidenttime="19:50:00" incidentnumber="14136634" address="2100 Park Hill Drive, Pittsburgh, PA 15221, USA" type="ARREST" description="*********************************************** &lt;br/&gt;3701, Robbery.&lt;br/&gt;"/><marker lat="40.4557759" lng="-79.8816701" zone="Zone 5" incidentdate="2014-07-20" incidenttime="21:05:00" incidentnumber="14141699" address="1000 Lawndale Street, Pittsburgh, PA 15221, USA" type="OFFENSE" description="*********************************************** &lt;br/&gt;2706, Terroristic Threats.&lt;br/&gt;2706, Terroristic Threats.&lt;br/&gt;"/><marker lat="40.4392434" lng="-80.0556352" zone="Zone 6" incidentdate="2014-07-20" incidenttime="08:00:00" incidentnumber="14141556" address="100 Elmont Street, Pittsburgh, PA 15205, USA" type="OFFENSE" description="*********************************************** &lt;br/&gt;3304, Criminal Mischief.&lt;br/&gt;"/><marker lat="40.403718" lng="-80.023796" zone="Zone 6" incidentdate="2014-07-20" incidenttime="08:55:00" incidentnumber="14141288" address="2200 Lonergan Street, Pittsburgh, PA 15216, USA" type="OFFENSE" description="*********************************************** &lt;br/&gt;3304, Criminal Mischief.&lt;br/&gt;3934, Theft from Vehicle&lt;br/&gt;"/><marker lat="40.412028" lng="-80.020425" zone="Zone 6" incidentdate="2014-07-20" incidenttime="10:30:00" incidentnumber="14141587" address="1500 Rockland Avenue, Pittsburgh, PA 15216, USA" type="OFFENSE" description="*********************************************** &lt;br/&gt;3304, Criminal Mischief.&lt;br/&gt;"/><marker lat="40.4050439" lng="-80.021703" zone="Zone 6" incidentdate="2014-07-20" incidenttime="11:17:00" incidentnumber="14141369" address="1900 Kiralfy Avenue, Pittsburgh, PA 15216, USA" type="OFFENSE" description="*********************************************** &lt;br/&gt;3304, Criminal Mischief.&lt;br/&gt;"/><marker lat="40.4050439" lng="-80.021703" zone="Zone 6" incidentdate="2014-07-20" incidenttime="11:17:00" incidentnumber="14141360" address="1900 Kiralfy Avenue, Pittsburgh, PA 15216, USA" type="OFFENSE" description="*********************************************** &lt;br/&gt;3934, Theft from Vehicle&lt;br/&gt;"/><marker lat="40.4449245" lng="-80.040677" zone="Zone 6" incidentdate="2014-07-20" incidenttime="12:10:00" incidentnumber="14141517" address="Bucyrus Street, Pittsburgh, PA 15220, USA" type="OFFENSE" description="*********************************************** &lt;br/&gt;3921(a), Theft by Unlawful Taking or Disposition - Movable item&lt;br/&gt;"/><marker lat="40.395271" lng="-80.017897" zone="Zone 6" incidentdate="2014-07-20" incidenttime="16:08:00" incidentnumber="14141511" address="800 Gallion Avenue, Pittsburgh, PA 15226, USA" type="OFFENSE" description="*********************************************** &lt;br/&gt;9496, Dead on Arrival (DOA)&lt;br/&gt;"/><marker lat="40.4560149" lng="-80.0648138" zone="Zone 6" incidentdate="2014-07-20" incidenttime="17:12:00" incidentnumber="14141545" address="1200 Stanhope Street, Pittsburgh, PA 15204, USA" type="OFFENSE" description="*********************************************** &lt;br/&gt;9489, Found Property&lt;br/&gt;"/><marker lat="40.3974027" lng="-80.0187081" zone="Zone 6" incidentdate="2014-07-20" incidenttime="17:35:00" incidentnumber="14141578" address="700 Berwin Avenue, Pittsburgh, PA 15226, USA" type="OFFENSE" description="*********************************************** &lt;br/&gt;9123, Miscellaneous Fire Other Investigation to Continue&lt;br/&gt;"/><marker lat="40.418064" lng="-80.0244" zone="Zone 6" incidentdate="2014-07-20" incidenttime="17:40:00" incidentnumber="14141586" address="1100 Gladys Avenue, Pittsburgh, PA 15216, USA" type="OFFENSE" description="*********************************************** &lt;br/&gt;3304, Criminal Mischief.&lt;br/&gt;3934, Theft from Vehicle&lt;br/&gt;"/><marker lat="40.395359" lng="-79.998793" zone="Zone 6" incidentdate="2014-07-20" incidenttime="19:21:00" incidentnumber="14141638" address="1800 Whited Street, Pittsburgh, PA 15210, USA" type="OFFENSE" description="*********************************************** &lt;br/&gt;3745, Accidents Involving Damage to Unattended Veh.or Prop.&lt;br/&gt;"/><marker lat="40.391604" lng="-80.015432" zone="Zone 6" incidentdate="2014-07-20" incidenttime="19:45:00" incidentnumber="14141648" address="1100 Brookline Boulevard, Pittsburgh, PA 15226, USA" type="OFFENSE" description="*********************************************** &lt;br/&gt;9489, Found Property&lt;br/&gt;"/></markers>
