<?xml version="1.0"?>
<markers><marker lat="40.47790948333602" lng="-79.920706197448837" zone="Zone 5" incidentdate="2015-04-12" incidenttime="04:47:00" incidentnumber="15063311" address="1400 block Mellon St" type="OFFENSE" age="" gender="" description="*********************************************** &lt;br/&gt;13(a)(31), Marijuana: Possession Small Amount&lt;br/&gt;2706, Terroristic Threats.&lt;br/&gt;13(a)(32), Paraphernalia - Use or Possession&lt;br/&gt;3304, Criminal Mischief.&lt;br/&gt;3503, Criminal Trespass&lt;br/&gt;"/><marker lat="40.420303526572376" lng="-79.945549130499913" zone="Zone 4" incidentdate="2015-04-12" incidenttime="10:03:00" incidentnumber="15063396" address="4300 block Bristol St" type="OFFENSE" age="" gender="" description="*********************************************** &lt;br/&gt;9999, 9999 - (Misc. Incident):&lt;br/&gt;"/><marker lat="40.426751427575063" lng="-80.06024245592009" zone="Zone 6" incidentdate="2015-04-12" incidenttime="16:45:00" incidentnumber="15063523" address="2400 block Baldwick Rd" type="OFFENSE" age="" gender="" description="*********************************************** &lt;br/&gt;2706, Terroristic Threats.&lt;br/&gt;5104, Resisting Arrest or Other Law Enforcement.&lt;br/&gt;"/><marker lat="40.473397444218627" lng="-79.922479713605313" zone="Zone 5" incidentdate="2015-04-12" incidenttime="00:04:00" incidentnumber="15063136" address="100 block N St Clair St" type="OFFENSE" age="" gender="" description="*********************************************** &lt;br/&gt;2702, Aggravated Assault.&lt;br/&gt;3701, Robbery.&lt;br/&gt;6110.2, Possesion of Firearm with Altered Mfg. Number&lt;br/&gt;6106, Firearms not to be Carried without a License.&lt;br/&gt;2701(a)(3), Simple Assault - Attempts by Physical Menace&lt;br/&gt;2706, Terroristic Threats.&lt;br/&gt;3925, Receiving Stolen Property.&lt;br/&gt;6105(a)(1), Persons not to possess, use, manufacture, control, sell or transfer firearms: Former convict enumerated in subsection (b)&lt;br/&gt;"/><marker lat="40.4283102180068" lng="-79.977507484026688" zone="Zone 3" incidentdate="2015-04-12" incidenttime="20:09:00" incidentnumber="15063648" address="2000 block E Carson St" type="OFFENSE" age="" gender="" description="*********************************************** &lt;br/&gt;3921, Theft by Unlawful Taking or Disposition.&lt;br/&gt;"/><marker lat="40.465661540899092" lng="-80.024746213476632" zone="Zone 1" incidentdate="2015-04-12" incidenttime="04:30:00" incidentnumber="15063380" address="2400 block Brighton Rd" type="OFFENSE" age="" gender="" description="*********************************************** &lt;br/&gt;3304, Criminal Mischief.&lt;br/&gt;"/><marker lat="40.441374477166953" lng="-80.002034043128006" zone="Zone 2" incidentdate="2015-04-12" incidenttime="22:10:00" incidentnumber="15063702" address="500 block Market St" type="OFFENSE" age="" gender="" description="*********************************************** &lt;br/&gt;3503.B1I, DEF. TRESPASS ACTUAL COMMUNICATION&lt;br/&gt;5104, Resisting Arrest or Other Law Enforcement.&lt;br/&gt;"/><marker lat="40.445640297979047" lng="-79.981797214737767" zone="Zone 2" incidentdate="2015-04-12" incidenttime="19:00:00" incidentnumber="15063560" address="2000 block Webster Ave" type="OFFENSE" age="" gender="" description="*********************************************** &lt;br/&gt;029, Missing Juvenile&lt;br/&gt;"/><marker lat="40.450901096519573" lng="-79.930622154707279" zone="Zone 5" incidentdate="2015-04-12" incidenttime="18:00:00" incidentnumber="15063575" address="900 block N Negley Ave" type="OFFENSE" age="" gender="" description="*********************************************** &lt;br/&gt;029, Missing Juvenile&lt;br/&gt;"/><marker lat="40.456980231479058" lng="-80.014545283293415" zone="Zone 1" incidentdate="2015-04-12" incidenttime="14:55:00" incidentnumber="15063488" address="Buena Vista St &amp; Jacksonia St" type="OFFENSE" age="" gender="" description="*********************************************** &lt;br/&gt;9999, 9999 - (Misc. Incident):&lt;br/&gt;"/><marker lat="40.452042212663898" lng="-80.008738896002342" zone="Zone 1" incidentdate="2015-04-12" incidenttime="00:23:00" incidentnumber="15063154" address="200 block Ridge Ave" type="OFFENSE" age="" gender="" description="*********************************************** &lt;br/&gt;029, Missing Juvenile&lt;br/&gt;"/><marker lat="40.483069745658021" lng="-79.915702101752672" zone="Zone 5" incidentdate="2015-04-12" incidenttime="14:00:00" incidentnumber="15063463" address="300 block Reservoir Dr" type="OFFENSE" age="" gender="" description="*********************************************** &lt;br/&gt;3745, Accidents Involving Damage to Unattended Veh.or Prop.&lt;br/&gt;"/><marker lat="40.415305169007219" lng="-79.998124705200198" zone="Zone 3" incidentdate="2015-04-12" incidenttime="19:20:00" incidentnumber="15063635" address="Bausman St &amp; Bernd St" type="OFFENSE" age="" gender="" description="*********************************************** &lt;br/&gt;9489, Found Property&lt;br/&gt;"/><marker lat="40.428585203983602" lng="-79.981869007680203" zone="Zone 3" incidentdate="2015-04-12" incidenttime="00:43:00" incidentnumber="15063157" address="1700 block E Carson St" type="OFFENSE" age="" gender="" description="*********************************************** &lt;br/&gt;5505, Public Drunkenness&lt;br/&gt;3503.B1I, DEF. TRESPASS ACTUAL COMMUNICATION&lt;br/&gt;"/><marker lat="40.465687173209062" lng="-79.948109454264625" zone="Zone 5" incidentdate="2015-04-12" incidenttime="03:48:00" incidentnumber="15063292" address="100 block Pearl St" type="OFFENSE" age="" gender="" description="*********************************************** &lt;br/&gt;3745, Accidents Involving Damage to Unattended Veh.or Prop.&lt;br/&gt;"/><marker lat="40.455602467562372" lng="-79.95008361176366" zone="Zone 5" incidentdate="2015-04-12" incidenttime="17:54:00" incidentnumber="15063579" address="100 block Morewood Ave" type="OFFENSE" age="" gender="" description="*********************************************** &lt;br/&gt;3745, Accidents Involving Damage to Unattended Veh.or Prop.&lt;br/&gt;"/><marker lat="40.46855136676831" lng="-79.906391023787634" zone="Zone 5" incidentdate="2015-04-12" incidenttime="03:10:00" incidentnumber="15063278" address="6400 block Apple Ave" type="OFFENSE" age="" gender="" description="*********************************************** &lt;br/&gt;3921(a), Theft by Unlawful Taking or Disposition - Movable item&lt;br/&gt;"/><marker lat="40.459587585536347" lng="-79.938050924613449" zone="Zone 5" incidentdate="2015-04-12" incidenttime="12:06:00" incidentnumber="15063410" address="S Aiken Ave &amp; Harriet St" type="OFFENSE" age="" gender="" description="*********************************************** &lt;br/&gt;13(a)(32), Paraphernalia - Use or Possession&lt;br/&gt;"/><marker lat="40.484550069346753" lng="-80.035692783449747" zone="Zone 1" incidentdate="2015-04-12" incidenttime="18:30:00" incidentnumber="15063658" address="3800 block Brighton Rd" type="OFFENSE" age="" gender="" description="*********************************************** &lt;br/&gt;029, Missing Juvenile&lt;br/&gt;"/><marker lat="40.452149094218932" lng="-80.00131982951747" zone="Zone 1" incidentdate="2015-04-12" incidenttime="00:43:00" incidentnumber="15063176" address="Cedar Ave &amp; Lockhart St" type="OFFENSE" age="" gender="" description="*********************************************** &lt;br/&gt;13(a)(32), Paraphernalia - Use or Possession&lt;br/&gt;"/><marker lat="40.484454877545488" lng="-80.040477404897274" zone="Zone 1" incidentdate="2015-04-12" incidenttime="20:58:00" incidentnumber="15063674" address="3800 block California Ave" type="OFFENSE" age="" gender="" description="*********************************************** &lt;br/&gt;3921, Theft by Unlawful Taking or Disposition.&lt;br/&gt;"/><marker lat="40.459241184494772" lng="-80.005548013998464" zone="Zone 1" incidentdate="2015-04-12" incidenttime="10:30:00" incidentnumber="15063387" address="1600 block Sandusky Ct" type="OFFENSE" age="" gender="" description="*********************************************** &lt;br/&gt;13(a)(31), Marijuana: Possession Small Amount&lt;br/&gt;"/><marker lat="40.478493705474932" lng="-80.011971881466806" zone="Zone 1" incidentdate="2015-04-12" incidenttime="19:10:00" incidentnumber="15063646" address="Watson Blvd" type="OFFENSE" age="" gender="" description="*********************************************** &lt;br/&gt;2702, Aggravated Assault.&lt;br/&gt;2701, Simple Assault.&lt;br/&gt;5503, Disorderly Conduct.&lt;br/&gt;5101, Obstructing Admin. of Law&lt;br/&gt;5505, Public Drunkenness&lt;br/&gt;5502, Failure of Disorderly Persons to Disperse&lt;br/&gt;5104, Resisting Arrest or Other Law Enforcement.&lt;br/&gt;2706, Terroristic Threats.&lt;br/&gt;5507, Obstructing Highways and Passages.&lt;br/&gt;3503.B1I, DEF. TRESPASS ACTUAL COMMUNICATION&lt;br/&gt;"/><marker lat="40.465536604598562" lng="-79.920628603663715" zone="Zone 5" incidentdate="2015-04-12" incidenttime="15:00:00" incidentnumber="15063510" address="500 block Sheridan Ave" type="OFFENSE" age="" gender="" description="*********************************************** &lt;br/&gt;4106, Access Device Fraud&lt;br/&gt;4120, Identity Theft&lt;br/&gt;"/><marker lat="40.466877756870879" lng="-79.994177935104844" zone="Zone 1" incidentdate="2015-04-12" incidenttime="15:20:00" incidentnumber="15063497" address="100 block Rhine Pl" type="OFFENSE" age="" gender="" description="*********************************************** &lt;br/&gt;9999, 9999 - (Misc. Incident):&lt;br/&gt;"/><marker lat="40.457627539844381" lng="-79.931466548365393" zone="Zone 4" incidentdate="2015-04-12" incidenttime="02:21:00" incidentnumber="15063241" address="5800 block Centre Ave" type="OFFENSE" age="" gender="" description="*********************************************** &lt;br/&gt;4302, Periods for Requiring Lighted Lamps.&lt;br/&gt;1543, Driving While Operating Privilege is Suspended or Revoked.&lt;br/&gt;3802(b), DUI - High Rate of Alchol - BAC &gt;=.10% &lt;.16%&lt;br/&gt;3802(a)(1), DUI - General Impairment&lt;br/&gt;3809(a), Restriction on Alcoholic Beverages in Vehicle&lt;br/&gt;"/><marker lat="40.468693075773288" lng="-79.961677392158549" zone="Zone 2" incidentdate="2015-04-12" incidenttime="17:01:00" incidentnumber="15063550" address="4000 block Butler St" type="OFFENSE" age="" gender="" description="*********************************************** &lt;br/&gt;3921(a), Theft by Unlawful Taking or Disposition - Movable item&lt;br/&gt;"/><marker lat="40.478493705474932" lng="-80.011971881466806" zone="Zone 1" incidentdate="2015-04-12" incidenttime="19:00:00" incidentnumber="15063608" address="Watson Blvd" type="OFFENSE" age="" gender="" description="*********************************************** &lt;br/&gt;3928, Unauthorized Use of Automobile and Other Vehicles.&lt;br/&gt;"/><marker lat="40.484550069346753" lng="-80.035692783449747" zone="Zone 1" incidentdate="2015-04-12" incidenttime="18:30:00" incidentnumber="15063660" address="3800 block Brighton Rd" type="OFFENSE" age="" gender="" description="*********************************************** &lt;br/&gt;029, Missing Juvenile&lt;br/&gt;"/><marker lat="40.443580942147605" lng="-79.979979097296493" zone="Zone 2" incidentdate="2015-04-12" incidenttime="11:10:00" incidentnumber="15063402" address="2000 block Centre Ave" type="OFFENSE" age="" gender="" description="*********************************************** &lt;br/&gt;13(a)(16), Possession of Controlled Substance&lt;br/&gt;"/><marker lat="40.475420659618891" lng="-79.924554304168524" zone="Zone 5" incidentdate="2015-04-12" incidenttime="20:41:00" incidentnumber="15063669" address="N Negley Ave &amp; Hampton St" type="OFFENSE" age="" gender="" description="*********************************************** &lt;br/&gt;3323, Stop Signs and Yield Signs.&lt;br/&gt;3802(a)(1), DUI - General Impairment&lt;br/&gt;3802(c), DUI - Highest Rate of Alcohol - BAC &gt;= .16%&lt;br/&gt;"/><marker lat="40.441526598038756" lng="-79.896008458504895" zone="Zone 4" incidentdate="2015-04-12" incidenttime="03:02:00" incidentnumber="15063276" address="7700 block Cromwell St" type="OFFENSE" age="" gender="" description="*********************************************** &lt;br/&gt;3745, Accidents Involving Damage to Unattended Veh.or Prop.&lt;br/&gt;"/><marker lat="40.429505937952463" lng="-79.977548578170712" zone="Zone 3" incidentdate="2015-04-12" incidenttime="00:32:00" incidentnumber="15063161" address="Sidney St &amp; S 20th St" type="OFFENSE" age="" gender="" description="*********************************************** &lt;br/&gt;601.16, Public Urination And Defecation&lt;br/&gt;"/><marker lat="40.462556446850741" lng="-79.897377342404567" zone="Zone 5" incidentdate="2015-04-12" incidenttime="03:19:00" incidentnumber="15063280" address="7100 block Upland St" type="OFFENSE" age="" gender="" description="*********************************************** &lt;br/&gt;2702, Aggravated Assault.&lt;br/&gt;"/><marker lat="40.478493705474932" lng="-80.011971881466806" zone="Zone 1" incidentdate="2015-04-12" incidenttime="19:10:00" incidentnumber="15063630" address="Watson Blvd" type="OFFENSE" age="" gender="" description="*********************************************** &lt;br/&gt;3502, Burglary.&lt;br/&gt;"/><marker lat="40.473927946275474" lng="-80.028829566091972" zone="Zone 1" incidentdate="2015-04-12" incidenttime="07:57:00" incidentnumber="15063338" address="3100 block Brighton Rd" type="OFFENSE" age="" gender="" description="*********************************************** &lt;br/&gt;3921, Theft by Unlawful Taking or Disposition.&lt;br/&gt;"/><marker lat="40.479404139578051" lng="-79.952653932272639" zone="Zone 2" incidentdate="2015-04-12" incidenttime="00:22:00" incidentnumber="15063142" address="5200 block Keystone St" type="OFFENSE" age="" gender="" description="*********************************************** &lt;br/&gt;029, Missing Juvenile&lt;br/&gt;"/><marker lat="40.463786091580488" lng="-80.007489911239233" zone="Zone 1" incidentdate="2015-04-12" incidenttime="02:30:00" incidentnumber="15063230" address="200 block Marsonia St" type="OFFENSE" age="" gender="" description="*********************************************** &lt;br/&gt;2701, Simple Assault.&lt;br/&gt;"/><marker lat="40.466195226278067" lng="-79.952149926209557" zone="Zone 5" incidentdate="2015-04-12" incidenttime="05:30:00" incidentnumber="15063316" address="4500 block Penn Ave" type="OFFENSE" age="" gender="" description="*********************************************** &lt;br/&gt;1543, Driving While Operating Privilege is Suspended or Revoked.&lt;br/&gt;3802(a)(2), DUI - BAC &gt;.08% &lt;.10%&lt;br/&gt;5505, Public Drunkenness&lt;br/&gt;3309, Driving on Roadways Laned for Traffic.&lt;br/&gt;3361, Driving Vehicle at Safe Speed.&lt;br/&gt;3745, Accidents Involving Damage to Unattended Veh.or Prop.&lt;br/&gt;3802(a)(1), DUI - General Impairment&lt;br/&gt;4703, Operation of Vehicle without Official Certif. of Inspection&lt;br/&gt;3742, Accidents Involving Death or Personal Injury&lt;br/&gt;1786, Required Financial Responsibility.&lt;br/&gt;2705, Recklessly Endangering Another Person.&lt;br/&gt;5506, Loitering and Prowling at Night&lt;br/&gt;"/><marker lat="40.45214861508245" lng="-80.052719374965619" zone="Zone 6" incidentdate="2015-04-12" incidenttime="02:08:00" incidentnumber="15063208" address="700 block Municipal St" type="OFFENSE" age="" gender="" description="*********************************************** &lt;br/&gt;3714, Careless Driving&lt;br/&gt;3802(a)(1), DUI - General Impairment&lt;br/&gt;"/><marker lat="40.431441882854926" lng="-80.01078734053786" zone="Zone 3" incidentdate="2015-04-12" incidenttime="02:30:00" incidentnumber="15063243" address="300 block Virginia Ave" type="OFFENSE" age="" gender="" description="*********************************************** &lt;br/&gt;5503, Disorderly Conduct.&lt;br/&gt;2706, Terroristic Threats.&lt;br/&gt;5505, Public Drunkenness&lt;br/&gt;"/><marker lat="40.451157723858437" lng="-79.933848831107525" zone="Zone 4" incidentdate="2015-04-12" incidenttime="01:45:00" incidentnumber="15063223" address="Walnut St &amp; Bellefonte St" type="OFFENSE" age="" gender="" description="*********************************************** &lt;br/&gt;5503(a)(4), DISORDERLY CONDUCT - HAZARDOUS/PHYS. OFF&lt;br/&gt;3503.B1I, DEF. TRESPASS ACTUAL COMMUNICATION&lt;br/&gt;5505, Public Drunkenness&lt;br/&gt;"/><marker lat="40.44812579049853" lng="-79.895062719289299" zone="Zone 4" incidentdate="2015-04-12" incidenttime="15:00:00" incidentnumber="15063483" address="7500 block Meade St" type="OFFENSE" age="" gender="" description="*********************************************** &lt;br/&gt;3929, Retail Theft.&lt;br/&gt;"/><marker lat="40.457245182596367" lng="-79.994195852189222" zone="Zone 1" incidentdate="2015-04-12" incidenttime="19:32:00" incidentnumber="15063637" address="1000 block Constance St" type="OFFENSE" age="" gender="" description="*********************************************** &lt;br/&gt;3304(a)(4), CRIMINAL MISCHIEF- Intentionally Damage Property (By Graffiti, Aerosol Spray Paint, Broad Tip Marker, or Similar)&lt;br/&gt;3304(a)(5), CRIMINAL MISCHIEF - Intentionally Damages Real Or Personal Property Of Another&lt;br/&gt;"/><marker lat="40.453924619230364" lng="-79.88411574455624" zone="Zone 5" incidentdate="2015-04-12" incidenttime="01:00:00" incidentnumber="15063238" address="8000 block Bennett St" type="OFFENSE" age="" gender="" description="*********************************************** &lt;br/&gt;2701, Simple Assault.&lt;br/&gt;"/><marker lat="40.443580942147605" lng="-79.979979097296493" zone="Zone 2" incidentdate="2015-04-12" incidenttime="02:10:00" incidentnumber="15063254" address="2000 block Centre Ave" type="OFFENSE" age="" gender="" description="*********************************************** &lt;br/&gt;9489, Found Property&lt;br/&gt;"/><marker lat="40.4627137134433" lng="-79.897502712280485" zone="Zone 5" incidentdate="2015-04-12" incidenttime="12:00:00" incidentnumber="15063416" address="1500 block N Lang Ave" type="OFFENSE" age="" gender="" description="*********************************************** &lt;br/&gt;2709.A1, HARASSMENT SUBJECT OTHER TO PHYSICAL CONTACT&lt;br/&gt;"/><marker lat="40.431337853528241" lng="-79.959101226728478" zone="Zone 4" incidentdate="2015-04-12" incidenttime="04:30:00" incidentnumber="15063427" address="Bates St" type="OFFENSE" age="" gender="" description="*********************************************** &lt;br/&gt;3921, Theft by Unlawful Taking or Disposition.&lt;br/&gt;"/><marker lat="40.40378173317221" lng="-80.030679629402584" zone="Zone 6" incidentdate="2015-04-12" incidenttime="09:45:00" incidentnumber="15063366" address="2200 block Broadway Ave" type="OFFENSE" age="" gender="" description="*********************************************** &lt;br/&gt;2701, Simple Assault.&lt;br/&gt;"/><marker lat="40.399129724873369" lng="-80.006153316398439" zone="Zone 6" incidentdate="2015-04-12" incidenttime="14:22:00" incidentnumber="15063388" address="1600 block Fiat St" type="OFFENSE" age="" gender="" description="*********************************************** &lt;br/&gt;607.03, Discharging Firearm or Airgun&lt;br/&gt;"/><marker lat="40.438369941847732" lng="-79.986310041229473" zone="Zone 2" incidentdate="2015-04-12" incidenttime="20:12:00" incidentnumber="15063651" address="1400 block 5th Ave" type="OFFENSE" age="" gender="" description="*********************************************** &lt;br/&gt;602.04, Panhandling and Prohibited Conduct&lt;br/&gt;3503.B1I, DEF. TRESPASS ACTUAL COMMUNICATION&lt;br/&gt;5507, Obstructing Highways and Passages.&lt;br/&gt;"/><marker lat="40.438917876440819" lng="-80.001250590800993" zone="Zone 2" incidentdate="2015-04-12" incidenttime="20:00:00" incidentnumber="15063641" address="300 block Wood St" type="OFFENSE" age="" gender="" description="*********************************************** &lt;br/&gt;2709(a), Harassment.&lt;br/&gt;"/><marker lat="40.442390418433455" lng="-79.999846344464984" zone="Zone 2" incidentdate="2015-04-12" incidenttime="14:10:00" incidentnumber="15063472" address="700 block Liberty Ave" type="OFFENSE" age="" gender="" description="*********************************************** &lt;br/&gt;9491, Industrial Accident&lt;br/&gt;"/><marker lat="40.47597732572121" lng="-79.921138032804592" zone="Zone 5" incidentdate="2015-04-12" incidenttime="02:00:00" incidentnumber="15063299" address="5700 block Bryant St" type="OFFENSE" age="" gender="" description="*********************************************** &lt;br/&gt;9490, Missing Persons (18 and Over)&lt;br/&gt;"/><marker lat="40.427654537579159" lng="-79.99075427842574" zone="Zone 3" incidentdate="2015-04-12" incidenttime="02:30:00" incidentnumber="15063447" address="800 block E Carson St" type="OFFENSE" age="" gender="" description="*********************************************** &lt;br/&gt;3502, Burglary.&lt;br/&gt;"/><marker lat="40.40223990034977" lng="-79.98625089325769" zone="Zone 3" incidentdate="2015-04-12" incidenttime="21:56:00" incidentnumber="15063699" address="200 block Birmingham Ave" type="OFFENSE" age="" gender="" description="*********************************************** &lt;br/&gt;13(a)(32), Paraphernalia - Use or Possession&lt;br/&gt;"/><marker lat="40.479863979313805" lng="-79.953465448846373" zone="Zone 2" incidentdate="2015-04-12" incidenttime="01:30:00" incidentnumber="15063565" address="5200 block Carnegie St" type="OFFENSE" age="" gender="" description="*********************************************** &lt;br/&gt;3304, Criminal Mischief.&lt;br/&gt;"/><marker lat="40.428695537448661" lng="-79.986387155223355" zone="Zone 3" incidentdate="2015-04-12" incidenttime="23:27:00" incidentnumber="15063745" address="1200 block E Carson St" type="OFFENSE" age="" gender="" description="*********************************************** &lt;br/&gt;2701, Simple Assault.&lt;br/&gt;"/><marker lat="40.433891542802876" lng="-79.960377840951992" zone="Zone 4" incidentdate="2015-04-12" incidenttime="02:54:00" incidentnumber="15063267" address="3200 block Niagara Sq" type="OFFENSE" age="" gender="" description="*********************************************** &lt;br/&gt;3502, Burglary.&lt;br/&gt;"/><marker lat="40.428648587693665" lng="-79.984030978724903" zone="Zone 3" incidentdate="2015-04-12" incidenttime="02:45:00" incidentnumber="15063253" address="1400 block E Carson St" type="OFFENSE" age="" gender="" description="*********************************************** &lt;br/&gt;5505, Public Drunkenness&lt;br/&gt;"/><marker lat="40.427081781994367" lng="-79.967068291202835" zone="Zone 3" incidentdate="2015-04-12" incidenttime="01:05:00" incidentnumber="15063189" address="E Carson St &amp; S 27th St" type="OFFENSE" age="" gender="" description="*********************************************** &lt;br/&gt;3736, Reckless Driving&lt;br/&gt;3743, Accidents Involving Damage to Attended Veh. or Property&lt;br/&gt;3802(a)(1), DUI - General Impairment&lt;br/&gt;1786, Required Financial Responsibility.&lt;br/&gt;3802(c), DUI - Highest Rate of Alcohol - BAC &gt;= .16%&lt;br/&gt;"/><marker lat="40.455801927699859" lng="-79.978472251870272" zone="Zone 2" incidentdate="2015-04-12" incidenttime="18:50:00" incidentnumber="15063624" address="2600 block Smallman St" type="OFFENSE" age="" gender="" description="*********************************************** &lt;br/&gt;3921(a), Theft by Unlawful Taking or Disposition - Movable item&lt;br/&gt;"/><marker lat="40.42812884585404" lng="-79.979451152464478" zone="Zone 3" incidentdate="2015-04-12" incidenttime="16:02:00" incidentnumber="15063518" address="100 block S 19th St" type="OFFENSE" age="" gender="" description="*********************************************** &lt;br/&gt;3934, Theft from Vehicle&lt;br/&gt;"/><marker lat="40.458418873987092" lng="-79.91209589239331" zone="Zone 5" incidentdate="2015-04-12" incidenttime="03:07:00" incidentnumber="15063283" address="Romley Way &amp; Hamilton Ave" type="OFFENSE" age="" gender="" description="*********************************************** &lt;br/&gt;13(a)(16), Possession of Controlled Substance&lt;br/&gt;13(a)(30), Possession w/ Intent to Del. Controlled Substance&lt;br/&gt;6105(a)(1), Persons not to possess, use, manufacture, control, sell or transfer firearms: Former convict enumerated in subsection (b)&lt;br/&gt;6106, Firearms not to be Carried without a License.&lt;br/&gt;"/><marker lat="40.446346164512178" lng="-79.994318011299683" zone="Zone 2" incidentdate="2015-04-12" incidenttime="11:41:00" incidentnumber="15063406" address="11th St" type="OFFENSE" age="" gender="" description="*********************************************** &lt;br/&gt;9497, Aided Case&lt;br/&gt;"/><marker lat="40.438091155451616" lng="-80.001853342344887" zone="Zone 2" incidentdate="2015-04-12" incidenttime="15:20:00" incidentnumber="15063494" address="300 block Blvd Of The Allies" type="OFFENSE" age="" gender="" description="*********************************************** &lt;br/&gt;13(a)(31), Marijuana: Possession Small Amount&lt;br/&gt;5123, Contraband.&lt;br/&gt;"/><marker lat="40.451157723858437" lng="-79.933848831107525" zone="Zone 4" incidentdate="2015-04-12" incidenttime="02:14:00" incidentnumber="15063223" address="Walnut St &amp; Bellefonte St" type="ARREST" age="27" gender="F" description="*********************************************** &lt;br/&gt;5503(a)(4), DISORDERLY CONDUCT - HAZARDOUS/PHYS. OFF&lt;br/&gt;3503.B1I, DEF. TRESPASS ACTUAL COMMUNICATION&lt;br/&gt;5505, Public Drunkenness&lt;br/&gt;"/><marker lat="40.452149094218932" lng="-80.00131982951747" zone="Zone 1" incidentdate="2015-04-12" incidenttime="00:45:00" incidentnumber="15063176" address="Cedar Ave &amp; Lockhart St" type="ARREST" age="51" gender="M" description="*********************************************** &lt;br/&gt;13(a)(32), Paraphernalia - Use or Possession&lt;br/&gt;"/><marker lat="40.40378173317221" lng="-80.030679629402584" zone="Zone 6" incidentdate="2015-04-12" incidenttime="10:06:00" incidentnumber="15063366" address="2200 block Broadway Ave" type="ARREST" age="21" gender="M" description="*********************************************** &lt;br/&gt;2701, Simple Assault.&lt;br/&gt;"/><marker lat="40.45214861508245" lng="-80.052719374965619" zone="Zone 6" incidentdate="2015-04-12" incidenttime="02:08:00" incidentnumber="15063208" address="700 block Municipal St" type="ARREST" age="38" gender="M" description="*********************************************** &lt;br/&gt;3714, Careless Driving&lt;br/&gt;3802(a)(1), DUI - General Impairment&lt;br/&gt;"/><marker lat="40.442741998688419" lng="-80.002149663856855" zone="Zone 2" incidentdate="2015-04-12" incidenttime="20:35:00" incidentnumber="15047738" address="Penn Ave &amp; 6th St" type="ARREST" age="56" gender="M" description="*********************************************** &lt;br/&gt;5505, Public Drunkenness&lt;br/&gt;5503, Disorderly Conduct.&lt;br/&gt;"/><marker lat="40.473397444218627" lng="-79.922479713605313" zone="Zone 5" incidentdate="2015-04-12" incidenttime="01:41:00" incidentnumber="15063136" address="100 block N St Clair St" type="ARREST" age="43" gender="M" description="*********************************************** &lt;br/&gt;2702, Aggravated Assault.&lt;br/&gt;3701, Robbery.&lt;br/&gt;6110.2, Possesion of Firearm with Altered Mfg. Number&lt;br/&gt;6106, Firearms not to be Carried without a License.&lt;br/&gt;2701(a)(3), Simple Assault - Attempts by Physical Menace&lt;br/&gt;2706, Terroristic Threats.&lt;br/&gt;3925, Receiving Stolen Property.&lt;br/&gt;6105(a)(1), Persons not to possess, use, manufacture, control, sell or transfer firearms: Former convict enumerated in subsection (b)&lt;br/&gt;"/><marker lat="40.466195226278067" lng="-79.952149926209557" zone="Zone 5" incidentdate="2015-04-12" incidenttime="06:27:00" incidentnumber="15063316" address="4500 block Penn Ave" type="ARREST" age="29" gender="M" description="*********************************************** &lt;br/&gt;1543, Driving While Operating Privilege is Suspended or Revoked.&lt;br/&gt;3802(a)(2), DUI - BAC &gt;.08% &lt;.10%&lt;br/&gt;5505, Public Drunkenness&lt;br/&gt;3309, Driving on Roadways Laned for Traffic.&lt;br/&gt;3361, Driving Vehicle at Safe Speed.&lt;br/&gt;3745, Accidents Involving Damage to Unattended Veh.or Prop.&lt;br/&gt;3802(a)(1), DUI - General Impairment&lt;br/&gt;4703, Operation of Vehicle without Official Certif. of Inspection&lt;br/&gt;3742, Accidents Involving Death or Personal Injury&lt;br/&gt;1786, Required Financial Responsibility.&lt;br/&gt;2705, Recklessly Endangering Another Person.&lt;br/&gt;5506, Loitering and Prowling at Night&lt;br/&gt;"/><marker lat="40.428585203983602" lng="-79.981869007680203" zone="Zone 3" incidentdate="2015-04-12" incidenttime="00:43:00" incidentnumber="15063157" address="1700 block E Carson St" type="ARREST" age="26" gender="M" description="*********************************************** &lt;br/&gt;5505, Public Drunkenness&lt;br/&gt;3503.B1I, DEF. TRESPASS ACTUAL COMMUNICATION&lt;br/&gt;"/><marker lat="40.431441882854926" lng="-80.01078734053786" zone="Zone 3" incidentdate="2015-04-12" incidenttime="02:40:00" incidentnumber="15063243" address="300 block Virginia Ave" type="ARREST" age="27" gender="M" description="*********************************************** &lt;br/&gt;5503, Disorderly Conduct.&lt;br/&gt;2706, Terroristic Threats.&lt;br/&gt;5505, Public Drunkenness&lt;br/&gt;"/><marker lat="40.459241184494772" lng="-80.005548013998464" zone="Zone 1" incidentdate="2015-04-12" incidenttime="10:30:00" incidentnumber="15063387" address="1600 block Sandusky Ct" type="ARREST" age="38" gender="M" description="*********************************************** &lt;br/&gt;13(a)(31), Marijuana: Possession Small Amount&lt;br/&gt;"/><marker lat="40.475420659618891" lng="-79.924554304168524" zone="Zone 5" incidentdate="2015-04-12" incidenttime="20:41:00" incidentnumber="15063669" address="N Negley Ave &amp; Hampton St" type="ARREST" age="60" gender="M" description="*********************************************** &lt;br/&gt;3323, Stop Signs and Yield Signs.&lt;br/&gt;3802(a)(1), DUI - General Impairment&lt;br/&gt;3802(c), DUI - Highest Rate of Alcohol - BAC &gt;= .16%&lt;br/&gt;"/><marker lat="40.478493705474932" lng="-80.011971881466806" zone="Zone 1" incidentdate="2015-04-12" incidenttime="19:40:00" incidentnumber="15063646" address="Watson Blvd" type="ARREST" age="26" gender="F" description="*********************************************** &lt;br/&gt;2702, Aggravated Assault.&lt;br/&gt;2701, Simple Assault.&lt;br/&gt;5503, Disorderly Conduct.&lt;br/&gt;5101, Obstructing Admin. of Law&lt;br/&gt;5505, Public Drunkenness&lt;br/&gt;5502, Failure of Disorderly Persons to Disperse&lt;br/&gt;5104, Resisting Arrest or Other Law Enforcement.&lt;br/&gt;2706, Terroristic Threats.&lt;br/&gt;5507, Obstructing Highways and Passages.&lt;br/&gt;3503.B1I, DEF. TRESPASS ACTUAL COMMUNICATION&lt;br/&gt;"/><marker lat="40.427081781994367" lng="-79.967068291202835" zone="Zone 3" incidentdate="2015-04-12" incidenttime="01:20:00" incidentnumber="15063189" address="E Carson St &amp; S 27th St" type="ARREST" age="45" gender="M" description="*********************************************** &lt;br/&gt;3736, Reckless Driving&lt;br/&gt;3743, Accidents Involving Damage to Attended Veh. or Property&lt;br/&gt;3802(a)(1), DUI - General Impairment&lt;br/&gt;1786, Required Financial Responsibility.&lt;br/&gt;3802(c), DUI - Highest Rate of Alcohol - BAC &gt;= .16%&lt;br/&gt;"/><marker lat="40.462556446850741" lng="-79.897377342404567" zone="Zone 5" incidentdate="2015-04-12" incidenttime="03:22:00" incidentnumber="15063280" address="7100 block Upland St" type="ARREST" age="59" gender="M" description="*********************************************** &lt;br/&gt;2702, Aggravated Assault.&lt;br/&gt;"/><marker lat="40.443580942147605" lng="-79.979979097296493" zone="Zone 2" incidentdate="2015-04-12" incidenttime="11:10:00" incidentnumber="15063402" address="2000 block Centre Ave" type="ARREST" age="46" gender="M" description="*********************************************** &lt;br/&gt;13(a)(16), Possession of Controlled Substance&lt;br/&gt;"/><marker lat="40.438091155451616" lng="-80.001853342344887" zone="Zone 2" incidentdate="2015-04-12" incidenttime="15:30:00" incidentnumber="15063494" address="300 block Blvd Of The Allies" type="ARREST" age="29" gender="M" description="*********************************************** &lt;br/&gt;13(a)(31), Marijuana: Possession Small Amount&lt;br/&gt;5123, Contraband.&lt;br/&gt;"/><marker lat="40.47790948333602" lng="-79.920706197448837" zone="Zone 5" incidentdate="2015-04-12" incidenttime="06:48:00" incidentnumber="15063311" address="1400 block Mellon St" type="ARREST" age="27" gender="F" description="*********************************************** &lt;br/&gt;13(a)(31), Marijuana: Possession Small Amount&lt;br/&gt;2706, Terroristic Threats.&lt;br/&gt;13(a)(32), Paraphernalia - Use or Possession&lt;br/&gt;3304, Criminal Mischief.&lt;br/&gt;3503, Criminal Trespass&lt;br/&gt;"/><marker lat="40.459587585536347" lng="-79.938050924613449" zone="Zone 5" incidentdate="2015-04-12" incidenttime="12:06:00" incidentnumber="15063410" address="S Aiken Ave &amp; Harriet St" type="ARREST" age="47" gender="F" description="*********************************************** &lt;br/&gt;13(a)(32), Paraphernalia - Use or Possession&lt;br/&gt;"/><marker lat="40.457627539844381" lng="-79.931466548365393" zone="Zone 4" incidentdate="2015-04-12" incidenttime="02:35:00" incidentnumber="15063241" address="5800 block Centre Ave" type="ARREST" age="33" gender="M" description="*********************************************** &lt;br/&gt;4302, Periods for Requiring Lighted Lamps.&lt;br/&gt;1543, Driving While Operating Privilege is Suspended or Revoked.&lt;br/&gt;3802(b), DUI - High Rate of Alchol - BAC &gt;=.10% &lt;.16%&lt;br/&gt;3802(a)(1), DUI - General Impairment&lt;br/&gt;3809(a), Restriction on Alcoholic Beverages in Vehicle&lt;br/&gt;"/><marker lat="40.438369941847732" lng="-79.986310041229473" zone="Zone 2" incidentdate="2015-04-12" incidenttime="20:20:00" incidentnumber="15063651" address="1400 block 5th Ave" type="ARREST" age="34" gender="M" description="*********************************************** &lt;br/&gt;602.04, Panhandling and Prohibited Conduct&lt;br/&gt;3503.B1I, DEF. TRESPASS ACTUAL COMMUNICATION&lt;br/&gt;5507, Obstructing Highways and Passages.&lt;br/&gt;"/><marker lat="40.458418873987092" lng="-79.91209589239331" zone="Zone 5" incidentdate="2015-04-12" incidenttime="03:10:00" incidentnumber="15063283" address="Romley Way &amp; Hamilton Ave" type="ARREST" age="30" gender="M" description="*********************************************** &lt;br/&gt;13(a)(16), Possession of Controlled Substance&lt;br/&gt;13(a)(30), Possession w/ Intent to Del. Controlled Substance&lt;br/&gt;6105(a)(1), Persons not to possess, use, manufacture, control, sell or transfer firearms: Former convict enumerated in subsection (b)&lt;br/&gt;6106, Firearms not to be Carried without a License.&lt;br/&gt;"/><marker lat="40.426751427575063" lng="-80.06024245592009" zone="Zone 6" incidentdate="2015-04-12" incidenttime="16:45:00" incidentnumber="15063523" address="2400 block Baldwick Rd" type="ARREST" age="50" gender="F" description="*********************************************** &lt;br/&gt;2706, Terroristic Threats.&lt;br/&gt;5104, Resisting Arrest or Other Law Enforcement.&lt;br/&gt;"/><marker lat="40.433891542802876" lng="-79.960377840951992" zone="Zone 4" incidentdate="2015-04-12" incidenttime="02:59:00" incidentnumber="15063267" address="3200 block Niagara Sq" type="ARREST" age="24" gender="M" description="*********************************************** &lt;br/&gt;3502, Burglary.&lt;br/&gt;"/><marker lat="40.40223990034977" lng="-79.98625089325769" zone="Zone 3" incidentdate="2015-04-12" incidenttime="22:05:00" incidentnumber="15063699" address="200 block Birmingham Ave" type="ARREST" age="32" gender="M" description="*********************************************** &lt;br/&gt;13(a)(32), Paraphernalia - Use or Possession&lt;br/&gt;"/><marker lat="40.441374477166953" lng="-80.002034043128006" zone="Zone 2" incidentdate="2015-04-12" incidenttime="22:10:00" incidentnumber="15063702" address="500 block Market St" type="ARREST" age="21" gender="F" description="*********************************************** &lt;br/&gt;3503.B1I, DEF. TRESPASS ACTUAL COMMUNICATION&lt;br/&gt;5104, Resisting Arrest or Other Law Enforcement.&lt;br/&gt;"/><marker lat="40.463786091580488" lng="-80.007489911239233" zone="Zone 1" incidentdate="2015-04-12" incidenttime="02:40:00" incidentnumber="15063230" address="200 block Marsonia St" type="ARREST" age="21" gender="M" description="*********************************************** &lt;br/&gt;2701, Simple Assault.&lt;br/&gt;"/><marker lat="40.478493705474932" lng="-80.011971881466806" zone="Zone 1" incidentdate="2015-04-12" incidenttime="19:30:00" incidentnumber="15063646" address="Watson Blvd" type="ARREST" age="29" gender="M" description="*********************************************** &lt;br/&gt;2702, Aggravated Assault.&lt;br/&gt;2701, Simple Assault.&lt;br/&gt;5503, Disorderly Conduct.&lt;br/&gt;5101, Obstructing Admin. of Law&lt;br/&gt;5505, Public Drunkenness&lt;br/&gt;5502, Failure of Disorderly Persons to Disperse&lt;br/&gt;5104, Resisting Arrest or Other Law Enforcement.&lt;br/&gt;2706, Terroristic Threats.&lt;br/&gt;5507, Obstructing Highways and Passages.&lt;br/&gt;3503.B1I, DEF. TRESPASS ACTUAL COMMUNICATION&lt;br/&gt;"/></markers>
