<?xml version="1.0"?>
<markers><marker lat="40.4538415518075" lng="-80.065153503817712" zone="Zone 6" incidentdate="2015-02-15" incidenttime="05:41:00" incidentnumber="15027316" address="1300 block Jeffers St" type="OFFENSE" age="" gender="" description="*********************************************** &lt;br/&gt;2701, Simple Assault.&lt;br/&gt;"/><marker lat="40.442465287182827" lng="-79.969989365185654" zone="Zone 2" incidentdate="2015-02-15" incidenttime="11:30:00" incidentnumber="15027420" address="400 block Garner Ct" type="OFFENSE" age="" gender="" description="*********************************************** &lt;br/&gt;3304, Criminal Mischief.&lt;br/&gt;901, Criminal Attempt&lt;br/&gt;"/><marker lat="40.435349442250079" lng="-80.012933395122715" zone="Zone 3" incidentdate="2015-02-15" incidenttime="21:15:00" incidentnumber="15027670" address="Grandview Ave &amp; Merrimac St" type="OFFENSE" age="" gender="" description="*********************************************** &lt;br/&gt;3736, Reckless Driving&lt;br/&gt;3802(a)(1), DUI - General Impairment&lt;br/&gt;3802(c), DUI - Highest Rate of Alcohol - BAC &gt;= .16%&lt;br/&gt;"/><marker lat="40.414110231246191" lng="-79.921537610824799" zone="Zone 4" incidentdate="2015-02-15" incidenttime="18:00:00" incidentnumber="15027628" address="Garetta St" type="OFFENSE" age="" gender="" description="*********************************************** &lt;br/&gt;3921(a), Theft by Unlawful Taking or Disposition - Movable item&lt;br/&gt;"/><marker lat="40.447054980783577" lng="-80.051047596405752" zone="Zone 6" incidentdate="2015-02-15" incidenttime="05:12:00" incidentnumber="15027310" address="Woodlow St &amp; Crucible St" type="OFFENSE" age="" gender="" description="*********************************************** &lt;br/&gt;903, Criminal Conspiracy.&lt;br/&gt;2702, Aggravated Assault.&lt;br/&gt;"/><marker lat="40.483041135050279" lng="-80.003896194315018" zone="Zone 1" incidentdate="2015-02-15" incidenttime="09:06:00" incidentnumber="15027361" address="300 block Mt Pleasant Rd" type="OFFENSE" age="" gender="" description="*********************************************** &lt;br/&gt;9488, False  Burglar Alarm&lt;br/&gt;"/><marker lat="40.415529700692531" lng="-80.075598637756741" zone="Zone 6" incidentdate="2015-02-15" incidenttime="11:52:00" incidentnumber="15027426" address="900 block Idlewood Ave" type="OFFENSE" age="" gender="" description="*********************************************** &lt;br/&gt;94951, Suicide&lt;br/&gt;"/><marker lat="40.443336606679345" lng="-80.028791309734899" zone="Zone 6" incidentdate="2015-02-15" incidenttime="16:45:00" incidentnumber="15027552" address="W End Cir &amp; S Main St" type="OFFENSE" age="" gender="" description="*********************************************** &lt;br/&gt;3743, Accidents Involving Damage to Attended Veh. or Property&lt;br/&gt;"/><marker lat="40.46662742030572" lng="-79.928790301736456" zone="Zone 5" incidentdate="2015-02-15" incidenttime="19:50:00" incidentnumber="15027644" address="N Negley Ave &amp; Rippey St" type="OFFENSE" age="" gender="" description="*********************************************** &lt;br/&gt;1511, Carrying and Exhibiting Drivers License on Demand.&lt;br/&gt;3743, Accidents Involving Damage to Attended Veh. or Property&lt;br/&gt;1786, Required Financial Responsibility.&lt;br/&gt;1311, Registration Card to be Signed and Exhibited on Demand.&lt;br/&gt;"/><marker lat="40.449988004093029" lng="-79.874166059210836" zone="Zone 5" incidentdate="2015-02-15" incidenttime="03:35:00" incidentnumber="15027289" address="2000 block Swissvale Ave" type="OFFENSE" age="" gender="" description="*********************************************** &lt;br/&gt;3745, Accidents Involving Damage to Unattended Veh.or Prop.&lt;br/&gt;"/><marker lat="40.478447322011057" lng="-79.934135625494164" zone="Zone 5" incidentdate="2015-02-15" incidenttime="18:07:00" incidentnumber="15027594" address="5000 block Somerville St" type="OFFENSE" age="" gender="" description="*********************************************** &lt;br/&gt;3304, Criminal Mischief.&lt;br/&gt;9012, Non-Violent Domestic&lt;br/&gt;"/><marker lat="40.40650049746138" lng="-79.946508566469447" zone="Zone 4" incidentdate="2015-02-15" incidenttime="16:45:00" incidentnumber="15027659" address="5100 block Blair St" type="OFFENSE" age="" gender="" description="*********************************************** &lt;br/&gt;9090, Recovered Firearm&lt;br/&gt;"/><marker lat="40.455614810370541" lng="-79.867943288231572" zone="Zone 5" incidentdate="2015-02-15" incidenttime="08:00:00" incidentnumber="15027366" address="Bracey Ct" type="OFFENSE" age="" gender="" description="*********************************************** &lt;br/&gt;3502, Burglary.&lt;br/&gt;"/><marker lat="40.491292855083536" lng="-80.018849494671784" zone="Zone 1" incidentdate="2015-02-15" incidenttime="00:59:00" incidentnumber="15027224" address="4000 block Franklin Rd" type="OFFENSE" age="" gender="" description="*********************************************** &lt;br/&gt;9488, False  Burglar Alarm&lt;br/&gt;"/><marker lat="40.438411104332907" lng="-79.960897379202279" zone="Zone 4" incidentdate="2015-02-15" incidenttime="20:00:00" incidentnumber="15027661" address="3400 block Forbes Ave" type="OFFENSE" age="" gender="" description="*********************************************** &lt;br/&gt;3929, Retail Theft.&lt;br/&gt;"/><marker lat="40.473683378789787" lng="-80.033644409230092" zone="Zone 1" incidentdate="2015-02-15" incidenttime="17:06:00" incidentnumber="15027559" address="1400 block Geyer Ave" type="OFFENSE" age="" gender="" description="*********************************************** &lt;br/&gt;3745, Accidents Involving Damage to Unattended Veh.or Prop.&lt;br/&gt;"/><marker lat="40.417033670470893" lng="-79.995310183576279" zone="Zone 3" incidentdate="2015-02-15" incidenttime="01:30:00" incidentnumber="15027278" address="400 block Jucunda St" type="OFFENSE" age="" gender="" description="*********************************************** &lt;br/&gt;3502, Burglary.&lt;br/&gt;"/><marker lat="40.467053173058993" lng="-80.013437231031602" zone="Zone 1" incidentdate="2015-02-15" incidenttime="18:51:00" incidentnumber="15027613" address="300 block Elsdon St" type="OFFENSE" age="" gender="" description="*********************************************** &lt;br/&gt;2709.2, Stalking Conduct or Repeatedly Communicates&lt;br/&gt;2709(a)(1), Harassment by Physical Contact, or Attempts or Threats&lt;br/&gt;2706, Terroristic Threats.&lt;br/&gt;"/><marker lat="40.467053173058993" lng="-80.013437231031602" zone="Zone 1" incidentdate="2015-02-15" incidenttime="19:20:00" incidentnumber="15027635" address="Somewhere On Crosstown Blvd" type="OFFENSE" age="" gender="" description="*********************************************** &lt;br/&gt;3743, Accidents Involving Damage to Attended Veh. or Property&lt;br/&gt;"/><marker lat="40.477795033498602" lng="-79.954860601661395" zone="Zone 2" incidentdate="2015-02-15" incidenttime="12:00:00" incidentnumber="15027442" address="Stanton Ave &amp; Carnegie St" type="OFFENSE" age="" gender="" description="*********************************************** &lt;br/&gt;3745, Accidents Involving Damage to Unattended Veh.or Prop.&lt;br/&gt;"/><marker lat="40.387933902248847" lng="-79.987406647853405" zone="Zone 3" incidentdate="2015-02-15" incidenttime="19:10:00" incidentnumber="15027624" address="2300 block Valera St" type="OFFENSE" age="" gender="" description="*********************************************** &lt;br/&gt;4106, Access Device Fraud&lt;br/&gt;"/><marker lat="40.477795033498602" lng="-79.954860601661395" zone="Zone 2" incidentdate="2015-02-15" incidenttime="12:00:00" incidentnumber="15027432" address="Stanton Ave &amp; Carnegie St" type="OFFENSE" age="" gender="" description="*********************************************** &lt;br/&gt;3745, Accidents Involving Damage to Unattended Veh.or Prop.&lt;br/&gt;"/><marker lat="40.40650049746138" lng="-79.946508566469447" zone="Zone 4" incidentdate="2015-02-15" incidenttime="16:06:00" incidentnumber="15027519" address="5100 block Blair St" type="OFFENSE" age="" gender="" description="*********************************************** &lt;br/&gt;9011, Gun Related&lt;br/&gt;"/><marker lat="40.455694030415088" lng="-80.002527535183575" zone="Zone 1" incidentdate="2015-02-15" incidenttime="00:16:00" incidentnumber="15027194" address="700 block Cedar Ave" type="OFFENSE" age="" gender="" description="*********************************************** &lt;br/&gt;2709(a), Harassment.&lt;br/&gt;"/><marker lat="40.456900620854491" lng="-79.99871422615206" zone="Zone 1" incidentdate="2015-02-15" incidenttime="17:00:00" incidentnumber="15027574" address="300 block E North Ave" type="OFFENSE" age="" gender="" description="*********************************************** &lt;br/&gt;13(a)(16), Possession of Controlled Substance&lt;br/&gt;"/><marker lat="40.440405419312356" lng="-79.987695575442999" zone="Zone 2" incidentdate="2015-02-15" incidenttime="03:00:00" incidentnumber="15027276" address="1400 block Centre Ave" type="OFFENSE" age="" gender="" description="*********************************************** &lt;br/&gt;2702, Aggravated Assault.&lt;br/&gt;2701, Simple Assault.&lt;br/&gt;903, Criminal Conspiracy.&lt;br/&gt;"/><marker lat="40.4663649029889" lng="-79.925477498421884" zone="Zone 5" incidentdate="2015-02-15" incidenttime="13:51:00" incidentnumber="15027473" address="5800 block Borland St" type="OFFENSE" age="" gender="" description="*********************************************** &lt;br/&gt;9093, Indirect Criminal Contempt&lt;br/&gt;"/><marker lat="40.392434202556579" lng="-80.02462361997334" zone="Zone 6" incidentdate="2015-02-15" incidenttime="03:32:00" incidentnumber="15027286" address="2800 block Castlegate Ave" type="OFFENSE" age="" gender="" description="*********************************************** &lt;br/&gt;9999, 9999 - (Misc. Incident):&lt;br/&gt;"/><marker lat="40.455593869338273" lng="-80.029823068037729" zone="Zone 1" incidentdate="2015-02-15" incidenttime="06:25:00" incidentnumber="15027322" address="2900 block Beaver Ave" type="OFFENSE" age="" gender="" description="*********************************************** &lt;br/&gt;9488, False  Burglar Alarm&lt;br/&gt;"/><marker lat="40.456946782110407" lng="-80.021251406677706" zone="Zone 1" incidentdate="2015-02-15" incidenttime="10:29:00" incidentnumber="15027385" address="Allegheny Ave" type="OFFENSE" age="" gender="" description="*********************************************** &lt;br/&gt;9999, 9999 - (Misc. Incident):&lt;br/&gt;"/><marker lat="40.484550069346753" lng="-80.035692783449747" zone="Zone 1" incidentdate="2015-02-15" incidenttime="15:30:00" incidentnumber="15027537" address="3800 block Brighton Rd" type="OFFENSE" age="" gender="" description="*********************************************** &lt;br/&gt;029, Missing Juvenile&lt;br/&gt;"/><marker lat="40.392267825167423" lng="-80.01088322841882" zone="Zone 6" incidentdate="2015-02-15" incidenttime="19:22:00" incidentnumber="15027626" address="Brookline Blvd &amp; Breining St" type="OFFENSE" age="" gender="" description="*********************************************** &lt;br/&gt;13(a)(31), Marijuana: Possession Small Amount&lt;br/&gt;13(a)(32), Paraphernalia - Use or Possession&lt;br/&gt;"/><marker lat="40.444200272919588" lng="-80.040607296470199" zone="Zone 6" incidentdate="2015-02-15" incidenttime="06:25:00" incidentnumber="15027314" address="1000 block Chartiers Ave" type="OFFENSE" age="" gender="" description="*********************************************** &lt;br/&gt;9488, False  Burglar Alarm&lt;br/&gt;"/><marker lat="40.456713754097855" lng="-80.01317087359827" zone="Zone 1" incidentdate="2015-02-15" incidenttime="00:40:00" incidentnumber="15027210" address="1400 block Monterey St" type="OFFENSE" age="" gender="" description="*********************************************** &lt;br/&gt;9488, False  Burglar Alarm&lt;br/&gt;"/><marker lat="40.455593869338273" lng="-80.029823068037729" zone="Zone 1" incidentdate="2015-02-15" incidenttime="01:34:00" incidentnumber="15027234" address="2900 block Beaver Ave" type="OFFENSE" age="" gender="" description="*********************************************** &lt;br/&gt;9488, False  Burglar Alarm&lt;br/&gt;"/><marker lat="40.393380706513028" lng="-79.982765808254797" zone="Zone 3" incidentdate="2015-02-15" incidenttime="00:22:00" incidentnumber="15027218" address="200 block Madeline St" type="OFFENSE" age="" gender="" description="*********************************************** &lt;br/&gt;3743, Accidents Involving Damage to Attended Veh. or Property&lt;br/&gt;"/><marker lat="40.428684832699354" lng="-79.983306706238423" zone="Zone 3" incidentdate="2015-02-15" incidenttime="00:45:00" incidentnumber="15027199" address="1500 block E Carson St" type="OFFENSE" age="" gender="" description="*********************************************** &lt;br/&gt;601.08(a), Alcohol or Liquor Consumption on Streets or Sidewalks&lt;br/&gt;"/><marker lat="40.461767093483665" lng="-80.010412720044926" zone="Zone 1" incidentdate="2015-02-15" incidenttime="01:32:00" incidentnumber="15027228" address="1900 block Clayton Ave" type="OFFENSE" age="" gender="" description="*********************************************** &lt;br/&gt;9488, False  Burglar Alarm&lt;br/&gt;"/><marker lat="40.460623402161843" lng="-79.932766652756285" zone="Zone 5" incidentdate="2015-02-15" incidenttime="16:00:00" incidentnumber="15027534" address="300 block S Negley Ave" type="OFFENSE" age="" gender="" description="*********************************************** &lt;br/&gt;9490, Missing Persons (18 and Over)&lt;br/&gt;"/><marker lat="40.404939361855945" lng="-79.990899233620965" zone="Zone 3" incidentdate="2015-02-15" incidenttime="11:15:00" incidentnumber="15027403" address="1100 block Brownsville Rd" type="OFFENSE" age="" gender="" description="*********************************************** &lt;br/&gt;3929, Retail Theft.&lt;br/&gt;"/><marker lat="40.491171083037642" lng="-80.019869774112294" zone="Zone 1" incidentdate="2015-02-15" incidenttime="17:25:00" incidentnumber="15027564" address="4000 block Perrysville Ave" type="OFFENSE" age="" gender="" description="*********************************************** &lt;br/&gt;029, Missing Juvenile&lt;br/&gt;"/><marker lat="40.458351669961353" lng="-79.933819364536987" zone="Zone 5" incidentdate="2015-02-15" incidenttime="13:10:00" incidentnumber="15027437" address="Baum Blvd &amp; S Negley Ave" type="OFFENSE" age="" gender="" description="*********************************************** &lt;br/&gt;9489, Found Property&lt;br/&gt;"/><marker lat="40.402546708833945" lng="-79.939317681602134" zone="Zone 4" incidentdate="2015-02-15" incidenttime="02:01:00" incidentnumber="15027250" address="Cust St" type="OFFENSE" age="" gender="" description="*********************************************** &lt;br/&gt;9122, Miscellaneous Fire Vehicle Investigation to Continue&lt;br/&gt;"/><marker lat="40.428438567956732" lng="-79.983105958684874" zone="Zone 3" incidentdate="2015-02-15" incidenttime="08:00:00" incidentnumber="15027543" address="100 block S 16th St" type="OFFENSE" age="" gender="" description="*********************************************** &lt;br/&gt;9504, Lost Property&lt;br/&gt;"/><marker lat="40.382241593231498" lng="-79.996118235014023" zone="Zone 3" incidentdate="2015-02-15" incidenttime="18:05:00" incidentnumber="15027592" address="2500 block Library Rd" type="OFFENSE" age="" gender="" description="*********************************************** &lt;br/&gt;2701(a)(3), Simple Assault - Attempts by Physical Menace&lt;br/&gt;3701, Robbery.&lt;br/&gt;3502, Burglary.&lt;br/&gt;"/><marker lat="40.399184649147095" lng="-80.025493435297477" zone="Zone 6" incidentdate="2015-02-15" incidenttime="00:06:00" incidentnumber="15027205" address="2500 block West Liberty Ave" type="OFFENSE" age="" gender="" description="*********************************************** &lt;br/&gt;3743, Accidents Involving Damage to Attended Veh. or Property&lt;br/&gt;"/><marker lat="40.450792849888991" lng="-79.995470213594501" zone="Zone 3" incidentdate="2015-02-15" incidenttime="04:30:00" incidentnumber="15027298" address="2000 block saw mill Rd" type="OFFENSE" age="" gender="" description="*********************************************** &lt;br/&gt;9999, 9999 - (Misc. Incident):&lt;br/&gt;"/><marker lat="40.462786844681453" lng="-79.946826718386404" zone="Zone 5" incidentdate="2015-02-15" incidenttime="15:50:00" incidentnumber="15027511" address="S Mathilda St &amp; Friendship Ave" type="OFFENSE" age="" gender="" description="*********************************************** &lt;br/&gt;3701, Robbery.&lt;br/&gt;"/><marker lat="40.428536467617867" lng="-79.968996245067828" zone="Zone 3" incidentdate="2015-02-15" incidenttime="20:41:00" incidentnumber="15027674" address="2500 block Sidney St" type="OFFENSE" age="" gender="" description="*********************************************** &lt;br/&gt;2702, Aggravated Assault.&lt;br/&gt;3701, Robbery.&lt;br/&gt;"/><marker lat="40.46478538934133" lng="-80.011461117060747" zone="Zone 1" incidentdate="2015-02-15" incidenttime="05:47:00" incidentnumber="15027317" address="100 block Lafayette Ave" type="OFFENSE" age="" gender="" description="*********************************************** &lt;br/&gt;2701(a)(1), Simple Assault - Intent., Know., Reckless.Cause Bod. Injury&lt;br/&gt;"/><marker lat="40.424793983821537" lng="-79.974236581076795" zone="Zone 3" incidentdate="2015-02-15" incidenttime="02:26:00" incidentnumber="15027260" address="Josephine St &amp; Greeley St" type="OFFENSE" age="" gender="" description="*********************************************** &lt;br/&gt;13(a)(16), Possession of Controlled Substance&lt;br/&gt;1543, Driving While Operating Privilege is Suspended or Revoked.&lt;br/&gt;13(a)(30), Possession w/ Intent to Del. Controlled Substance&lt;br/&gt;13(a)(32), Paraphernalia - Use or Possession&lt;br/&gt;3361, Driving Vehicle at Safe Speed.&lt;br/&gt;3736, Reckless Driving&lt;br/&gt;3802(b), DUI - High Rate of Alchol - BAC &gt;=.10% &lt;.16%&lt;br/&gt;3802(a)(1), DUI - General Impairment&lt;br/&gt;3745, Accidents Involving Damage to Unattended Veh.or Prop.&lt;br/&gt;"/><marker lat="40.442689761955755" lng="-79.996613897174697" zone="Zone 2" incidentdate="2015-02-15" incidenttime="15:00:00" incidentnumber="15027669" address="400 block 7th Ave" type="OFFENSE" age="" gender="" description="*********************************************** &lt;br/&gt;2709(a)(5), Harassment Communicates Repeatedly in Anonymous Manner&lt;br/&gt;"/><marker lat="40.438610014203924" lng="-79.968020290435504" zone="Zone 2" incidentdate="2015-02-15" incidenttime="19:05:00" incidentnumber="15027617" address="200 block Burrows St" type="OFFENSE" age="" gender="" description="*********************************************** &lt;br/&gt;3745, Accidents Involving Damage to Unattended Veh.or Prop.&lt;br/&gt;"/><marker lat="40.478859164708972" lng="-80.035014040959211" zone="Zone 1" incidentdate="2015-02-15" incidenttime="01:04:00" incidentnumber="15027223" address="3500 block Mc Clure Ave" type="OFFENSE" age="" gender="" description="*********************************************** &lt;br/&gt;9488, False  Burglar Alarm&lt;br/&gt;"/><marker lat="40.456900620854491" lng="-79.99871422615206" zone="Zone 1" incidentdate="2015-02-15" incidenttime="15:15:00" incidentnumber="15027538" address="300 block E North Ave" type="OFFENSE" age="" gender="" description="*********************************************** &lt;br/&gt;2702, Aggravated Assault.&lt;br/&gt;2705, Recklessly Endangering Another Person.&lt;br/&gt;"/><marker lat="40.427908148048772" lng="-79.970792974138448" zone="Zone 3" incidentdate="2015-02-15" incidenttime="02:13:00" incidentnumber="15027251" address="2400 block E Carson St" type="OFFENSE" age="" gender="" description="*********************************************** &lt;br/&gt;3353, Prohibitions in Specified Places.&lt;br/&gt;3802(c), DUI - Highest Rate of Alcohol - BAC &gt;= .16%&lt;br/&gt;3802(a)(1), DUI - General Impairment&lt;br/&gt;"/><marker lat="40.452834878769579" lng="-79.898225534451143" zone="Zone 5" incidentdate="2015-02-15" incidenttime="16:40:00" incidentnumber="15027549" address="7300 block Finance St" type="OFFENSE" age="" gender="" description="*********************************************** &lt;br/&gt;3502, Burglary.&lt;br/&gt;"/><marker lat="40.425716012763552" lng="-79.931408560775779" zone="Zone 4" incidentdate="2015-02-15" incidenttime="00:52:00" incidentnumber="15027221" address="1000 block Welfer St" type="OFFENSE" age="" gender="" description="*********************************************** &lt;br/&gt;9018, Accidental Fire&lt;br/&gt;"/><marker lat="40.44490518577846" lng="-79.99377796067661" zone="Zone 2" incidentdate="2015-02-15" incidenttime="01:30:00" incidentnumber="15027339" address="1100 block Penn Ave" type="OFFENSE" age="" gender="" description="*********************************************** &lt;br/&gt;3304, Criminal Mischief.&lt;br/&gt;"/><marker lat="40.459907567660288" lng="-80.005930216500616" zone="Zone 1" incidentdate="2015-02-15" incidenttime="07:38:00" incidentnumber="15027354" address="1600 block Sandusky Ct" type="OFFENSE" age="" gender="" description="*********************************************** &lt;br/&gt;2701, Simple Assault.&lt;br/&gt;"/><marker lat="40.434661931745872" lng="-79.945244994242827" zone="Zone 4" incidentdate="2015-02-15" incidenttime="15:42:00" incidentnumber="15027527" address="100 block Overlook Dr" type="OFFENSE" age="" gender="" description="*********************************************** &lt;br/&gt;3745, Accidents Involving Damage to Unattended Veh.or Prop.&lt;br/&gt;"/><marker lat="40.443797250690899" lng="-80.038898645046316" zone="Zone 6" incidentdate="2015-02-15" incidenttime="15:47:00" incidentnumber="15027528" address="300 block Ainsworth St" type="OFFENSE" age="" gender="" description="*********************************************** &lt;br/&gt;9496, Dead on Arrival (DOA)&lt;br/&gt;"/><marker lat="40.466347107869026" lng="-79.916650415004099" zone="Zone 5" incidentdate="2015-02-15" incidenttime="20:00:00" incidentnumber="15027645" address="6200 block Auburn St" type="OFFENSE" age="" gender="" description="*********************************************** &lt;br/&gt;4101, Forgery.&lt;br/&gt;"/><marker lat="40.483041135050279" lng="-80.003896194315018" zone="Zone 1" incidentdate="2015-02-15" incidenttime="14:22:00" incidentnumber="15027530" address="500 block Mt Pleasant Rd" type="OFFENSE" age="" gender="" description="*********************************************** &lt;br/&gt;9093, Indirect Criminal Contempt&lt;br/&gt;"/><marker lat="40.452217114460204" lng="-79.87049050279137" zone="Zone 5" incidentdate="2015-02-15" incidenttime="08:39:00" incidentnumber="15027359" address="2000 block Frankella Ave" type="OFFENSE" age="" gender="" description="*********************************************** &lt;br/&gt;3745, Accidents Involving Damage to Unattended Veh.or Prop.&lt;br/&gt;"/><marker lat="40.452834878769579" lng="-79.898225534451143" zone="Zone 5" incidentdate="2015-02-15" incidenttime="16:30:00" incidentnumber="15027561" address="7300 block Finance St" type="OFFENSE" age="" gender="" description="*********************************************** &lt;br/&gt;3304, Criminal Mischief.&lt;br/&gt;3502, Burglary.&lt;br/&gt;"/><marker lat="40.450582136575271" lng="-79.996101770176892" zone="Zone 1" incidentdate="2015-02-15" incidenttime="01:12:00" incidentnumber="15027229" address="700 block E Lacock St" type="OFFENSE" age="" gender="" description="*********************************************** &lt;br/&gt;9488, False  Burglar Alarm&lt;br/&gt;"/><marker lat="40.443089171908184" lng="-79.932049783269605" zone="Zone 4" incidentdate="2015-02-15" incidenttime="09:28:00" incidentnumber="15027367" address="1300 block Inverness Sq" type="OFFENSE" age="" gender="" description="*********************************************** &lt;br/&gt;9488, False  Burglar Alarm&lt;br/&gt;"/><marker lat="40.455664748662002" lng="-79.889975638189611" zone="Zone 5" incidentdate="2015-02-15" incidenttime="18:15:00" incidentnumber="15027595" address="7600 block Frankstown Ave" type="OFFENSE" age="" gender="" description="*********************************************** &lt;br/&gt;3502, Burglary.&lt;br/&gt;"/><marker lat="40.46478538934133" lng="-80.011461117060747" zone="Zone 1" incidentdate="2015-02-15" incidenttime="06:18:00" incidentnumber="15027317" address="100 block Lafayette Ave" type="ARREST" age="21" gender="F" description="*********************************************** &lt;br/&gt;2701(a)(1), Simple Assault - Intent., Know., Reckless.Cause Bod. Injury&lt;br/&gt;"/><marker lat="40.4538415518075" lng="-80.065153503817712" zone="Zone 6" incidentdate="2015-02-15" incidenttime="06:15:00" incidentnumber="15027316" address="1300 block Jeffers St" type="ARREST" age="24" gender="M" description="*********************************************** &lt;br/&gt;2701, Simple Assault.&lt;br/&gt;"/><marker lat="40.392267825167423" lng="-80.01088322841882" zone="Zone 6" incidentdate="2015-02-15" incidenttime="19:22:00" incidentnumber="15027626" address="Brookline Blvd &amp; Breining St" type="ARREST" age="37" gender="M" description="*********************************************** &lt;br/&gt;13(a)(31), Marijuana: Possession Small Amount&lt;br/&gt;13(a)(32), Paraphernalia - Use or Possession&lt;br/&gt;"/><marker lat="40.459907567660288" lng="-80.005930216500616" zone="Zone 1" incidentdate="2015-02-15" incidenttime="07:50:00" incidentnumber="15027354" address="1600 block Sandusky Ct" type="ARREST" age="48" gender="M" description="*********************************************** &lt;br/&gt;2701, Simple Assault.&lt;br/&gt;"/><marker lat="40.404939361855945" lng="-79.990899233620965" zone="Zone 3" incidentdate="2015-02-15" incidenttime="11:30:00" incidentnumber="15026279" address="1100 block Brownsville Rd" type="ARREST" age="34" gender="F" description="*********************************************** &lt;br/&gt;3929, Retail Theft.&lt;br/&gt;"/><marker lat="40.456900620854491" lng="-79.99871422615206" zone="Zone 1" incidentdate="2015-02-15" incidenttime="17:20:00" incidentnumber="15027574" address="300 block E North Ave" type="ARREST" age="25" gender="M" description="*********************************************** &lt;br/&gt;13(a)(16), Possession of Controlled Substance&lt;br/&gt;"/><marker lat="40.41227198237857" lng="-79.991352857551959" zone="Zone 3" incidentdate="2015-02-15" incidenttime="01:45:00" incidentnumber="15027198" address="200 block Arabella St" type="ARREST" age="23" gender="M" description="*********************************************** &lt;br/&gt;3921(a), Theft by Unlawful Taking or Disposition - Movable item&lt;br/&gt;2701, Simple Assault.&lt;br/&gt;"/><marker lat="40.404939361855945" lng="-79.990899233620965" zone="Zone 3" incidentdate="2015-02-15" incidenttime="11:30:00" incidentnumber="15027403" address="1100 block Brownsville Rd" type="ARREST" age="34" gender="F" description="*********************************************** &lt;br/&gt;3929, Retail Theft.&lt;br/&gt;"/><marker lat="40.457404486710587" lng="-79.997419814671048" zone="Zone 1" incidentdate="2015-02-15" incidenttime="23:58:00" incidentnumber="15027747" address="3500 block SPRING GARDEN Ave" type="ARREST" age="17" gender="M" description="*********************************************** &lt;br/&gt;3714, Careless Driving&lt;br/&gt;3925, Receiving Stolen Property.&lt;br/&gt;3304(a)(5), CRIMINAL MISCHIEF - Intentionally Damages Real Or Personal Property Of Another&lt;br/&gt;"/><marker lat="40.40758859217906" lng="-79.992422446786662" zone="Zone 3" incidentdate="2015-02-15" incidenttime="08:10:00" incidentnumber="14235122" address="800 block Roll St" type="ARREST" age="28" gender="M" description="*********************************************** &lt;br/&gt;2701(a)(3), Simple Assault - Attempts by Physical Menace&lt;br/&gt;2709(a), Harassment.&lt;br/&gt;2706, Terroristic Threats.&lt;br/&gt;"/><marker lat="40.440405419312356" lng="-79.987695575442999" zone="Zone 2" incidentdate="2015-02-15" incidenttime="03:59:00" incidentnumber="15027276" address="1400 block Centre Ave" type="ARREST" age="23" gender="M" description="*********************************************** &lt;br/&gt;2702, Aggravated Assault.&lt;br/&gt;2701, Simple Assault.&lt;br/&gt;903, Criminal Conspiracy.&lt;br/&gt;"/><marker lat="40.440405419312356" lng="-79.987695575442999" zone="Zone 2" incidentdate="2015-02-15" incidenttime="03:59:00" incidentnumber="15027276" address="1400 block Centre Ave" type="ARREST" age="24" gender="M" description="*********************************************** &lt;br/&gt;2702, Aggravated Assault.&lt;br/&gt;2701, Simple Assault.&lt;br/&gt;903, Criminal Conspiracy.&lt;br/&gt;"/><marker lat="40.435349442250079" lng="-80.012933395122715" zone="Zone 3" incidentdate="2015-02-15" incidenttime="21:15:00" incidentnumber="15027670" address="Grandview Ave &amp; Merrimac St" type="ARREST" age="38" gender="M" description="*********************************************** &lt;br/&gt;3736, Reckless Driving&lt;br/&gt;3802(a)(1), DUI - General Impairment&lt;br/&gt;3802(c), DUI - Highest Rate of Alcohol - BAC &gt;= .16%&lt;br/&gt;"/><marker lat="40.438411104332907" lng="-79.960897379202279" zone="Zone 4" incidentdate="2015-02-15" incidenttime="20:25:00" incidentnumber="15027661" address="3400 block Forbes Ave" type="ARREST" age="58" gender="F" description="*********************************************** &lt;br/&gt;3929, Retail Theft.&lt;br/&gt;"/><marker lat="40.406873765291323" lng="-79.932583643001166" zone="Zone 4" incidentdate="2015-02-15" incidenttime="17:13:00" incidentnumber="14234537" address="900 block Rosselle Ct" type="ARREST" age="50" gender="M" description="*********************************************** &lt;br/&gt;2702, Aggravated Assault.&lt;br/&gt;2705, Recklessly Endangering Another Person.&lt;br/&gt;"/><marker lat="40.424793983821537" lng="-79.974236581076795" zone="Zone 3" incidentdate="2015-02-15" incidenttime="02:26:00" incidentnumber="15027260" address="Josephine St &amp; Greeley St" type="ARREST" age="19" gender="M" description="*********************************************** &lt;br/&gt;13(a)(16), Possession of Controlled Substance&lt;br/&gt;1543, Driving While Operating Privilege is Suspended or Revoked.&lt;br/&gt;13(a)(30), Possession w/ Intent to Del. Controlled Substance&lt;br/&gt;13(a)(32), Paraphernalia - Use or Possession&lt;br/&gt;3361, Driving Vehicle at Safe Speed.&lt;br/&gt;3736, Reckless Driving&lt;br/&gt;3802(b), DUI - High Rate of Alchol - BAC &gt;=.10% &lt;.16%&lt;br/&gt;3802(a)(1), DUI - General Impairment&lt;br/&gt;3745, Accidents Involving Damage to Unattended Veh.or Prop.&lt;br/&gt;"/><marker lat="40.427908148048772" lng="-79.970792974138448" zone="Zone 3" incidentdate="2015-02-15" incidenttime="02:17:00" incidentnumber="15027251" address="2400 block E Carson St" type="ARREST" age="42" gender="M" description="*********************************************** &lt;br/&gt;3353, Prohibitions in Specified Places.&lt;br/&gt;3802(c), DUI - Highest Rate of Alcohol - BAC &gt;= .16%&lt;br/&gt;3802(a)(1), DUI - General Impairment&lt;br/&gt;"/></markers>
