<?xml version="1.0"?>
<markers><marker lat="40.438367" lng="-79.98631" zone="Zone 2" incidentdate="2014-09-21" incidenttime="22:42:00" incidentnumber="14189444" address="1400 Fifth Avenue, Pittsburgh, PA 15219, USA" type="OFFENSE" description="*********************************************** &lt;br/&gt;13(a)(32), Paraphernalia - Use or Possession&lt;br/&gt;"/><marker lat="40.44409" lng="-80.0027923" zone="Zone 2" incidentdate="2014-09-21" incidenttime="00:23:00" incidentnumber="14188841" address="100 6th Street, Pittsburgh, PA 15222, USA" type="OFFENSE" description="*********************************************** &lt;br/&gt;3745, Accidents Involving Damage to Unattended Veh.or Prop.&lt;br/&gt;"/><marker lat="40.4285811" lng="-79.9872581" zone="Zone 3" incidentdate="2014-09-21" incidenttime="00:30:00" incidentnumber="14188856" address="1100 East Carson Street, Pittsburgh, PA 15203, USA" type="OFFENSE" description="*********************************************** &lt;br/&gt;3304(a)(1), CRIMINAL MISCHIEF-Prop Damage By Fire, Explosives, or Other Dangerous Means&lt;br/&gt;2701(a)(1), Simple Assault - Intent., Know., Reckless.Cause Bod. Injury&lt;br/&gt;"/><marker lat="40.46142" lng="-79.924853" zone="Zone 5" incidentdate="2014-09-21" incidenttime="00:30:00" incidentnumber="14188840" address="100 South Highland Avenue, Pittsburgh, PA 15206, USA" type="OFFENSE" description="*********************************************** &lt;br/&gt;9999, 9999 - (Misc. Incident):&lt;br/&gt;"/><marker lat="40.4385472" lng="-80.0401199" zone="Zone 6" incidentdate="2014-09-21" incidenttime="00:35:00" incidentnumber="14188850" address="600 Sedan Way, Pittsburgh, PA 15220, USA" type="OFFENSE" description="*********************************************** &lt;br/&gt;2702, Aggravated Assault.&lt;br/&gt;3502, Burglary.&lt;br/&gt;"/><marker lat="40.461623" lng="-80.053261" zone="Zone 6" incidentdate="2014-09-21" incidenttime="00:36:00" incidentnumber="14188824" address="3300 Oregon Street, Pittsburgh, PA 15204, USA" type="OFFENSE" description="*********************************************** &lt;br/&gt;9999, 9999 - (Misc. Incident):&lt;br/&gt;"/><marker lat="40.406415" lng="-79.946274" zone="Zone 4" incidentdate="2014-09-21" incidenttime="00:48:00" incidentnumber="14188865" address="200 West Elizabeth Street, Pittsburgh, PA 15207, USA" type="OFFENSE" description="*********************************************** &lt;br/&gt;5506, Loitering and Prowling at Night&lt;br/&gt;5505, Public Drunkenness&lt;br/&gt;"/><marker lat="40.44409" lng="-80.0027923" zone="Zone 2" incidentdate="2014-09-21" incidenttime="00:50:00" incidentnumber="14188895" address="100 6th Street, Pittsburgh, PA 15222, USA" type="OFFENSE" description="*********************************************** &lt;br/&gt;3304, Criminal Mischief.&lt;br/&gt;2709(a)(1), Harassment by Physical Contact, or Attempts or Threats&lt;br/&gt;"/><marker lat="40.3945396" lng="-80.0284978" zone="Zone 6" incidentdate="2014-09-21" incidenttime="18:00:00" incidentnumber="14189379" address="3000 Pioneer Avenue, Pittsburgh, PA 15226, USA" type="OFFENSE" description="*********************************************** &lt;br/&gt;3745, Accidents Involving Damage to Unattended Veh.or Prop.&lt;br/&gt;"/><marker lat="40.450445" lng="-79.8906653" zone="Zone 5" incidentdate="2014-09-21" incidenttime="18:10:00" incidentnumber="14189346" address="7700 Susquehanna Street, Pittsburgh, PA 15208, USA" type="OFFENSE" description="*********************************************** &lt;br/&gt;9497, Aided Case&lt;br/&gt;"/><marker lat="40.4442424" lng="-79.9924126" zone="Zone 2" incidentdate="2014-09-21" incidenttime="18:15:00" incidentnumber="14189320" address="1100 Liberty Avenue, Pittsburgh, PA 15222, USA" type="OFFENSE" description="*********************************************** &lt;br/&gt;9999, 9999 - (Misc. Incident):&lt;br/&gt;"/><marker lat="40.4217563" lng="-79.9958263" zone="Zone 3" incidentdate="2014-09-21" incidenttime="18:15:00" incidentnumber="14189317" address="East Warrington Avenue &amp; Millbridge Street, Pittsburgh, PA 15210, USA" type="OFFENSE" description="*********************************************** &lt;br/&gt;13(a)(16), Possession of Controlled Substance&lt;br/&gt;"/><marker lat="40.4181839" lng="-80.025704" zone="Zone 6" incidentdate="2014-09-21" incidenttime="18:45:00" incidentnumber="14189328" address="800 Crane Avenue, Pittsburgh, PA 15216, USA" type="OFFENSE" description="*********************************************** &lt;br/&gt;9999, 9999 - (Misc. Incident):&lt;br/&gt;"/><marker lat="40.4524347" lng="-80.0140176" zone="Zone 1" incidentdate="2014-09-21" incidenttime="18:49:00" incidentnumber="14189335" address="800 Western Avenue, Pittsburgh, PA 15233, USA" type="OFFENSE" description="*********************************************** &lt;br/&gt;9496, Dead on Arrival (DOA)&lt;br/&gt;"/><marker lat="40.4539862" lng="-80.0524091" zone="Zone 6" incidentdate="2014-09-21" incidenttime="19:00:00" incidentnumber="14189354" address="600 Hillsboro Street, Pittsburgh, PA 15204, USA" type="OFFENSE" description="*********************************************** &lt;br/&gt;3921, Theft by Unlawful Taking or Disposition.&lt;br/&gt;3929, Retail Theft.&lt;br/&gt;"/><marker lat="40.4154105" lng="-79.9248088" zone="Zone 4" incidentdate="2014-09-21" incidenttime="19:09:00" incidentnumber="14189350" address="4600 Browns Hill Road, Pittsburgh, PA 15217, USA" type="OFFENSE" description="*********************************************** &lt;br/&gt;3926(a)(1), Theft of Services; Cable, Gas, Taxi, Bill, Tab, etc.&lt;br/&gt;"/><marker lat="40.410443" lng="-80.025013" zone="Zone 6" incidentdate="2014-09-21" incidenttime="19:13:00" incidentnumber="14189352" address="1600 Broadway Avenue, Pittsburgh, PA 15216, USA" type="OFFENSE" description="*********************************************** &lt;br/&gt;2709(a)(1), Harassment by Physical Contact, or Attempts or Threats&lt;br/&gt;"/><marker lat="40.4177342" lng="-79.9633821" zone="Zone 3" incidentdate="2014-09-21" incidenttime="19:16:00" incidentnumber="14189355" address="3100 Cordell Place, Pittsburgh, PA 15210, USA" type="OFFENSE" description="*********************************************** &lt;br/&gt;2701, Simple Assault.&lt;br/&gt;"/><marker lat="40.406281" lng="-79.9681582" zone="Zone 3" incidentdate="2014-09-21" incidenttime="19:40:00" incidentnumber="14189361" address="900 Becks Run Road, Pittsburgh, PA 15210, USA" type="OFFENSE" description="*********************************************** &lt;br/&gt;3304, Criminal Mischief.&lt;br/&gt;2701, Simple Assault.&lt;br/&gt;"/><marker lat="40.4173539" lng="-79.9684438" zone="Zone 3" incidentdate="2014-09-21" incidenttime="20:11:00" incidentnumber="14189383" address="100 Rinne Street, Pittsburgh, PA 15210, USA" type="OFFENSE" description="*********************************************** &lt;br/&gt;2701, Simple Assault.&lt;br/&gt;"/><marker lat="40.4684971" lng="-80.0197904" zone="Zone 1" incidentdate="2014-09-21" incidenttime="20:33:00" incidentnumber="14189384" address="800 Marshall Avenue, Pittsburgh, PA 15214, USA" type="OFFENSE" description="*********************************************** &lt;br/&gt;9497, Aided Case&lt;br/&gt;"/><marker lat="40.4508247" lng="-79.9334641" zone="Zone 4" incidentdate="2014-09-21" incidenttime="21:10:00" incidentnumber="14189423" address="5500 Walnut Street, Pittsburgh, PA 15232, USA" type="OFFENSE" description="*********************************************** &lt;br/&gt;3921, Theft by Unlawful Taking or Disposition.&lt;br/&gt;"/><marker lat="40.395359" lng="-79.998793" zone="Zone 6" incidentdate="2014-09-21" incidenttime="21:15:00" incidentnumber="14189381" address="1800 Whited Street, Pittsburgh, PA 15210, USA" type="OFFENSE" description="*********************************************** &lt;br/&gt;9999, 9999 - (Misc. Incident):&lt;br/&gt;"/><marker lat="40.4304878" lng="-79.9989132" zone="Zone 3" incidentdate="2014-09-21" incidenttime="21:25:00" incidentnumber="14189419" address="South 2nd Street, Pittsburgh, PA 15219, USA" type="OFFENSE" description="*********************************************** &lt;br/&gt;9497, Aided Case&lt;br/&gt;"/><marker lat="40.4665831" lng="-79.9956227" zone="Zone 1" incidentdate="2014-09-21" incidenttime="21:26:00" incidentnumber="14189416" address="1100 Buente Street, Pittsburgh, PA 15212, USA" type="OFFENSE" description="*********************************************** &lt;br/&gt;2701, Simple Assault.&lt;br/&gt;"/><marker lat="40.452265" lng="-79.998701" zone="Zone 1" incidentdate="2014-09-21" incidenttime="21:35:00" incidentnumber="14189412" address="600 Pressley Street, Pittsburgh, PA 15212, USA" type="OFFENSE" description="*********************************************** &lt;br/&gt;2701, Simple Assault.&lt;br/&gt;"/><marker lat="40.406072" lng="-79.94305" zone="Zone 4" incidentdate="2014-09-21" incidenttime="00:05:00" incidentnumber="14189236" address="2nd Ave Opp Johnston, Pittsburgh, PA 15207, USA" type="OFFENSE" description="*********************************************** &lt;br/&gt;2702, Aggravated Assault.&lt;br/&gt;"/><marker lat="40.43493" lng="-79.9564785" zone="Zone 4" incidentdate="2014-09-21" incidenttime="00:52:00" incidentnumber="14188877" address="Bates Street, Pittsburgh, PA 15213, USA" type="OFFENSE" description="*********************************************** &lt;br/&gt;4303, General Lighting Requirements.&lt;br/&gt;3111, Obedience to Traffic-Control Devices.&lt;br/&gt;3802(a)(1), DUI - General Impairment&lt;br/&gt;"/><marker lat="40.4709112" lng="-79.9302807" zone="Zone 5" incidentdate="2014-09-21" incidenttime="01:00:00" incidentnumber="14188889" address="700 Chislett Street, Pittsburgh, PA 15206, USA" type="OFFENSE" description="*********************************************** &lt;br/&gt;029, Missing Juvenile&lt;br/&gt;"/><marker lat="40.4157606" lng="-80.0300361" zone="Zone 6" incidentdate="2014-09-21" incidenttime="01:00:00" incidentnumber="14188866" address="1300 Banksville Road, Pittsburgh, PA 15216, USA" type="OFFENSE" description="*********************************************** &lt;br/&gt;3745, Accidents Involving Damage to Unattended Veh.or Prop.&lt;br/&gt;"/><marker lat="40.4436478" lng="-79.9952433" zone="Zone 2" incidentdate="2014-09-21" incidenttime="01:15:00" incidentnumber="14188871" address="Liberty Avenue &amp; 10th Street, Pittsburgh, PA 15222, USA" type="OFFENSE" description="*********************************************** &lt;br/&gt;3924, Theft of Property Lost, Mislaid or Delivered by Mistake.&lt;br/&gt;"/><marker lat="40.451145" lng="-79.9338504" zone="Zone 4" incidentdate="2014-09-21" incidenttime="01:45:00" incidentnumber="14188927" address="Walnut Street &amp; Bellefonte Street, Pittsburgh, PA 15232, USA" type="OFFENSE" description="*********************************************** &lt;br/&gt;2702, Aggravated Assault.&lt;br/&gt;3503.B1I, DEF. TRESPASS ACTUAL COMMUNICATION&lt;br/&gt;5505, Public Drunkenness&lt;br/&gt;"/><marker lat="40.4624102" lng="-79.9468785" zone="Zone 5" incidentdate="2014-09-21" incidenttime="01:46:00" incidentnumber="14188915" address="300 South Mathilda Street, Pittsburgh, PA 15224, USA" type="OFFENSE" description="*********************************************** &lt;br/&gt;2702, Aggravated Assault.&lt;br/&gt;2902, Unlawful Restraint.&lt;br/&gt;3502, Burglary.&lt;br/&gt;"/><marker lat="40.4319976" lng="-80.0154074" zone="Zone 3" incidentdate="2014-09-21" incidenttime="01:48:00" incidentnumber="14188919" address="700 Virginia Avenue, Pittsburgh, PA 15211, USA" type="OFFENSE" description="*********************************************** &lt;br/&gt;5506, Loitering and Prowling at Night&lt;br/&gt;2709(a)(1), Harassment by Physical Contact, or Attempts or Threats&lt;br/&gt;2709(a), Harassment.&lt;br/&gt;2706, Terroristic Threats.&lt;br/&gt;3304, Criminal Mischief.&lt;br/&gt;"/><marker lat="40.4319976" lng="-80.0154074" zone="Zone 3" incidentdate="2014-09-21" incidenttime="01:48:00" incidentnumber="14188919" address="700 Virginia Avenue, Pittsburgh, PA 15211, USA" type="OFFENSE" description="*********************************************** &lt;br/&gt;5506, Loitering and Prowling at Night&lt;br/&gt;2709(a)(1), Harassment by Physical Contact, or Attempts or Threats&lt;br/&gt;2709(a), Harassment.&lt;br/&gt;2706, Terroristic Threats.&lt;br/&gt;3304, Criminal Mischief.&lt;br/&gt;"/><marker lat="40.4667967" lng="-79.9941518" zone="Zone 1" incidentdate="2014-09-21" incidenttime="01:55:00" incidentnumber="14188929" address="Rhine Place, Pittsburgh, PA 15212, USA" type="OFFENSE" description="*********************************************** &lt;br/&gt;2709(a), Harassment.&lt;br/&gt;"/><marker lat="40.4534768" lng="-80.0005931" zone="Zone 1" incidentdate="2014-09-21" incidenttime="02:06:00" incidentnumber="14188966" address="East Ohio Street &amp; James Street, Pittsburgh, PA 15212, USA" type="OFFENSE" description="*********************************************** &lt;br/&gt;9501, Bench Warrant&lt;br/&gt;"/><marker lat="40.4968174" lng="-79.9451527" zone="Zone 4" incidentdate="2014-09-21" incidenttime="02:10:00" incidentnumber="14188972" address="Walnut Street, Pittsburgh, PA 15223, USA" type="OFFENSE" description="*********************************************** &lt;br/&gt;2702, Aggravated Assault.&lt;br/&gt;5503, Disorderly Conduct.&lt;br/&gt;5505, Public Drunkenness&lt;br/&gt;3304, Criminal Mischief.&lt;br/&gt;"/><marker lat="40.4578371" lng="-79.8743909" zone="Zone 5" incidentdate="2014-09-21" incidenttime="02:46:00" incidentnumber="14188961" address="8600 Bricelyn Street, Pittsburgh, PA 15221, USA" type="OFFENSE" description="*********************************************** &lt;br/&gt;1301, Registration and Certificate of Title Required.&lt;br/&gt;7513, Restriction on Alcoholic Beverages - Open Container&lt;br/&gt;1543, Driving While Operating Privilege is Suspended or Revoked.&lt;br/&gt;4304(a)(1), Endangering Welfare of Children.&lt;br/&gt;13(a)(32), Paraphernalia - Use or Possession&lt;br/&gt;308, Intoxication or Drugged Condition&lt;br/&gt;3925, Receiving Stolen Property.&lt;br/&gt;"/><marker lat="40.4518806" lng="-79.9520029" zone="Zone 4" incidentdate="2014-09-21" incidenttime="02:50:00" incidentnumber="14188982" address="4600 Centre Avenue, Pittsburgh, PA 15213, USA" type="OFFENSE" description="*********************************************** &lt;br/&gt;3929, Retail Theft.&lt;br/&gt;"/><marker lat="40.4196666" lng="-79.9337322" zone="Zone 4" incidentdate="2014-09-21" incidenttime="02:50:00" incidentnumber="14188963" address="Hazelwood Avenue &amp; Bigelow Street, Pittsburgh, PA 15207, USA" type="OFFENSE" description="*********************************************** &lt;br/&gt;9999, 9999 - (Misc. Incident):&lt;br/&gt;"/><marker lat="40.402146" lng="-80.011915" zone="Zone 6" incidentdate="2014-09-21" incidenttime="02:52:00" incidentnumber="14188965" address="700 Dunster Street, Pittsburgh, PA 15226, USA" type="OFFENSE" description="*********************************************** &lt;br/&gt;9999, 9999 - (Misc. Incident):&lt;br/&gt;"/><marker lat="40.427859" lng="-79.9708969" zone="Zone 3" incidentdate="2014-09-21" incidenttime="02:59:00" incidentnumber="14188897" address="2400 East Carson Street, Pittsburgh, PA 15203, USA" type="OFFENSE" description="*********************************************** &lt;br/&gt;3745, Accidents Involving Damage to Unattended Veh.or Prop.&lt;br/&gt;"/><marker lat="40.4295081" lng="-79.9775339" zone="Zone 3" incidentdate="2014-09-21" incidenttime="03:00:00" incidentnumber="14188954" address="Sidney Street &amp; South 20th Street, Pittsburgh, PA 15203, USA" type="OFFENSE" description="*********************************************** &lt;br/&gt;3934, Theft from Vehicle&lt;br/&gt;"/><marker lat="40.3835451" lng="-79.9830551" zone="Zone 3" incidentdate="2014-09-21" incidenttime="03:06:00" incidentnumber="14188977" address="Merritt Avenue, Pittsburgh, PA 15227, USA" type="OFFENSE" description="*********************************************** &lt;br/&gt;5503(a)(2), DISORDERLY CONDUCT - UNREASONABLE NOISE&lt;br/&gt;"/><marker lat="40.467767" lng="-79.9457324" zone="Zone 5" incidentdate="2014-09-21" incidenttime="04:00:00" incidentnumber="14189169" address="400 North Mathilda Street, Pittsburgh, PA 15224, USA" type="OFFENSE" description="*********************************************** &lt;br/&gt;9999, 9999 - (Misc. Incident):&lt;br/&gt;"/><marker lat="40.4687843" lng="-79.9991976" zone="Zone 1" incidentdate="2014-09-21" incidenttime="04:10:00" incidentnumber="14189008" address="2300 Bessie Avenue, Pittsburgh, PA 15212, USA" type="OFFENSE" description="*********************************************** &lt;br/&gt;1543, Driving While Operating Privilege is Suspended or Revoked.&lt;br/&gt;3802(a)(1), DUI - General Impairment&lt;br/&gt;3802(c), DUI - Highest Rate of Alcohol - BAC &gt;= .16%&lt;br/&gt;"/><marker lat="40.44329" lng="-79.999092" zone="Zone 2" incidentdate="2014-09-21" incidenttime="04:15:00" incidentnumber="14189012" address="800 Penn Avenue, Pittsburgh, PA 15222, USA" type="OFFENSE" description="*********************************************** &lt;br/&gt;9488, False  Burglar Alarm&lt;br/&gt;"/><marker lat="40.4395271" lng="-79.9981821" zone="Zone 2" incidentdate="2014-09-21" incidenttime="04:21:00" incidentnumber="14189013" address="400 Fifth Avenue, Pittsburgh, PA 15219, USA" type="OFFENSE" description="*********************************************** &lt;br/&gt;3743, Accidents Involving Damage to Attended Veh. or Property&lt;br/&gt;"/><marker lat="40.46823" lng="-79.894572" zone="Zone 5" incidentdate="2014-09-21" incidenttime="04:40:00" incidentnumber="14189158" address="1500 Westmoreland Avenue, Pittsburgh, PA 15206, USA" type="OFFENSE" description="*********************************************** &lt;br/&gt;2709(a), Harassment.&lt;br/&gt;3701, Robbery.&lt;br/&gt;"/><marker lat="40.4605708" lng="-80.0071651" zone="Zone 1" incidentdate="2014-09-21" incidenttime="05:18:00" incidentnumber="14189034" address="1700 Belleau Drive, Pittsburgh, PA 15212, USA" type="OFFENSE" description="*********************************************** &lt;br/&gt;3701, Robbery.&lt;br/&gt;"/><marker lat="40.4538796" lng="-79.9198723" zone="Zone 4" incidentdate="2014-09-21" incidenttime="06:15:00" incidentnumber="14189083" address="Denniston Street &amp; Kentucky Avenue, Pittsburgh, PA 15206, USA" type="OFFENSE" description="*********************************************** &lt;br/&gt;9125, Possible  Stolen Car Recovered&lt;br/&gt;"/><marker lat="40.4710571" lng="-79.9249449" zone="Zone 5" incidentdate="2014-09-21" incidenttime="06:15:00" incidentnumber="14189041" address="Stanton Avenue &amp; Mellon Street, Pittsburgh, PA 15206, USA" type="OFFENSE" description="*********************************************** &lt;br/&gt;3743, Accidents Involving Damage to Attended Veh. or Property&lt;br/&gt;"/><marker lat="40.4451598" lng="-79.9759813" zone="Zone 2" incidentdate="2014-09-21" incidenttime="06:17:00" incidentnumber="14189043" address="2200 Centre Avenue, Pittsburgh, PA 15219, USA" type="OFFENSE" description="*********************************************** &lt;br/&gt;3304, Criminal Mischief.&lt;br/&gt;"/><marker lat="40.4571291" lng="-79.9334864" zone="Zone 5" incidentdate="2014-09-21" incidenttime="07:00:00" incidentnumber="14189056" address="5700 Centre Avenue, Pittsburgh, PA 15206, USA" type="OFFENSE" description="*********************************************** &lt;br/&gt;3921(a), Theft by Unlawful Taking or Disposition - Movable item&lt;br/&gt;"/><marker lat="40.4382869" lng="-80.0015508" zone="Zone 2" incidentdate="2014-09-21" incidenttime="07:41:00" incidentnumber="14189049" address="300 Boulevard of the Allies, Point Park University, Pittsburgh, PA 15222, USA" type="OFFENSE" description="*********************************************** &lt;br/&gt;2709(a)(1), Harassment by Physical Contact, or Attempts or Threats&lt;br/&gt;"/><marker lat="40.4751297" lng="-79.9606603" zone="Zone 2" incidentdate="2014-09-21" incidenttime="07:50:00" incidentnumber="14189057" address="100 Home Street, Pittsburgh, PA 15201, USA" type="OFFENSE" description="*********************************************** &lt;br/&gt;2701, Simple Assault.&lt;br/&gt;"/><marker lat="40.4670942" lng="-79.9262088" zone="Zone 5" incidentdate="2014-09-21" incidenttime="08:15:00" incidentnumber="14189062" address="500 North Saint Clair Street, Pittsburgh, PA 15206, USA" type="OFFENSE" description="*********************************************** &lt;br/&gt;3921(a), Theft by Unlawful Taking or Disposition - Movable item&lt;br/&gt;"/><marker lat="40.4770514" lng="-80.0346571" zone="Zone 1" incidentdate="2014-09-21" incidenttime="09:00:00" incidentnumber="14189126" address="3400 Gass Avenue, Pittsburgh, PA 15212, USA" type="OFFENSE" description="*********************************************** &lt;br/&gt;3921(a), Theft by Unlawful Taking or Disposition - Movable item&lt;br/&gt;"/><marker lat="40.477683" lng="-80.0090869" zone="Zone 1" incidentdate="2014-09-21" incidenttime="09:13:00" incidentnumber="14189081" address="3100 Tretow Street, Pittsburgh, PA 15214, USA" type="OFFENSE" description="*********************************************** &lt;br/&gt;3745, Accidents Involving Damage to Unattended Veh.or Prop.&lt;br/&gt;"/><marker lat="40.4526072" lng="-79.9496671" zone="Zone 5" incidentdate="2014-09-21" incidenttime="09:15:00" incidentnumber="14189086" address="4700 Centre Avenue, Pittsburgh, PA 15213, USA" type="OFFENSE" description="*********************************************** &lt;br/&gt;3929, Retail Theft.&lt;br/&gt;"/><marker lat="40.4642709" lng="-79.9554082" zone="Zone 5" incidentdate="2014-09-21" incidenttime="09:30:00" incidentnumber="14189093" address="4000 Cabinet Street, Pittsburgh, PA 15224, USA" type="OFFENSE" description="*********************************************** &lt;br/&gt;3921(a), Theft by Unlawful Taking or Disposition - Movable item&lt;br/&gt;"/><marker lat="40.4545418" lng="-79.8741914" zone="Zone 5" incidentdate="2014-09-21" incidenttime="09:30:00" incidentnumber="14189094" address="2100 Park Hill Drive, Pittsburgh, PA 15221, USA" type="OFFENSE" description="*********************************************** &lt;br/&gt;9490, Missing Persons (18 and Over)&lt;br/&gt;"/><marker lat="40.437847" lng="-79.922806" zone="Zone 4" incidentdate="2014-09-21" incidenttime="09:45:00" incidentnumber="14189116" address="5800 Forbes Avenue, Pittsburgh, PA 15217, USA" type="OFFENSE" description="*********************************************** &lt;br/&gt;3502, Burglary.&lt;br/&gt;"/><marker lat="40.4448558" lng="-79.9792727" zone="Zone 2" incidentdate="2014-09-21" incidenttime="10:00:00" incidentnumber="14189353" address="2100 Wylie Avenue, Pittsburgh, PA 15219, USA" type="OFFENSE" description="*********************************************** &lt;br/&gt;3745, Accidents Involving Damage to Unattended Veh.or Prop.&lt;br/&gt;"/><marker lat="40.4172774" lng="-79.9449222" zone="Zone 4" incidentdate="2014-09-21" incidenttime="10:00:00" incidentnumber="14189122" address="Sylvan Avenue, Pittsburgh, PA 15207, USA" type="OFFENSE" description="*********************************************** &lt;br/&gt;9125, Possible  Stolen Car Recovered&lt;br/&gt;"/><marker lat="40.4370751" lng="-79.9609635" zone="Zone 4" incidentdate="2014-09-21" incidenttime="10:00:00" incidentnumber="14189102" address="300 Halket Street, Pittsburgh, PA 15213, USA" type="OFFENSE" description="*********************************************** &lt;br/&gt;9999, 9999 - (Misc. Incident):&lt;br/&gt;"/><marker lat="40.4733503" lng="-80.0331535" zone="Zone 1" incidentdate="2014-09-21" incidenttime="10:10:00" incidentnumber="14189099" address="Complete Street, Pittsburgh, PA 15212, USA" type="OFFENSE" description="*********************************************** &lt;br/&gt;541.01, Prohibitions in Specified Places&lt;br/&gt;"/><marker lat="40.4319976" lng="-80.0154074" zone="Zone 3" incidentdate="2014-09-21" incidenttime="10:15:00" incidentnumber="14189114" address="700 Virginia Avenue, Pittsburgh, PA 15211, USA" type="OFFENSE" description="*********************************************** &lt;br/&gt;3503, Criminal Trespass&lt;br/&gt;"/><marker lat="40.4641974" lng="-79.9302414" zone="Zone 5" incidentdate="2014-09-21" incidenttime="10:24:00" incidentnumber="14189115" address="200 North Negley Avenue, Pittsburgh, PA 15206, USA" type="OFFENSE" description="*********************************************** &lt;br/&gt;3701, Robbery.&lt;br/&gt;"/><marker lat="40.4271492" lng="-79.9763904" zone="Zone 3" incidentdate="2014-09-21" incidenttime="10:27:00" incidentnumber="14189125" address="South 21st Street, Pittsburgh, PA 15203, USA" type="OFFENSE" description="*********************************************** &lt;br/&gt;3745, Accidents Involving Damage to Unattended Veh.or Prop.&lt;br/&gt;"/><marker lat="40.368528" lng="-79.917319" zone="Zone 4" incidentdate="2014-09-21" incidenttime="11:20:00" incidentnumber="14189133" address="1100 Muldowney Avenue, Pittsburgh, PA 15207, USA" type="OFFENSE" description="*********************************************** &lt;br/&gt;9012, Non-Violent Domestic&lt;br/&gt;"/><marker lat="40.4779579" lng="-79.9232589" zone="Zone 5" incidentdate="2014-09-21" incidenttime="11:54:00" incidentnumber="14189144" address="5600 Elgin Street, Pittsburgh, PA 15206, USA" type="OFFENSE" description="*********************************************** &lt;br/&gt;3502, Burglary.&lt;br/&gt;"/><marker lat="40.4406248" lng="-79.9958864" zone="Zone 3" incidentdate="2014-09-21" incidenttime="12:00:00" incidentnumber="14189154" address="Pittsburgh, PA, USA" type="OFFENSE" description="*********************************************** &lt;br/&gt;3304, Criminal Mischief.&lt;br/&gt;"/><marker lat="40.4540713" lng="-79.9494375" zone="Zone 5" incidentdate="2014-09-21" incidenttime="12:00:00" incidentnumber="14189168" address="Baum Boulevard &amp; Enfield Street, Pittsburgh, PA 15213, USA" type="OFFENSE" description="*********************************************** &lt;br/&gt;3304(a)(5), CRIMINAL MISCHIEF - Intentionally Damages Real Or Personal Property Of Another&lt;br/&gt;3934, Theft from Vehicle&lt;br/&gt;"/><marker lat="40.4540713" lng="-79.9494375" zone="Zone 5" incidentdate="2014-09-21" incidenttime="12:00:00" incidentnumber="14189156" address="Baum Boulevard &amp; Enfield Street, Pittsburgh, PA 15213, USA" type="OFFENSE" description="*********************************************** &lt;br/&gt;3304(a)(5), CRIMINAL MISCHIEF - Intentionally Damages Real Or Personal Property Of Another&lt;br/&gt;"/><marker lat="40.464615" lng="-79.922397" zone="Zone 5" incidentdate="2014-09-21" incidenttime="13:00:00" incidentnumber="14189193" address="400 North Highland Avenue, Pittsburgh, PA 15206, USA" type="OFFENSE" description="*********************************************** &lt;br/&gt;3924, Theft of Property Lost, Mislaid or Delivered by Mistake.&lt;br/&gt;"/><marker lat="40.4614072" lng="-79.8921378" zone="Zone 5" incidentdate="2014-09-21" incidenttime="13:00:00" incidentnumber="14189166" address="7300 Upland Street, Pittsburgh, PA 15208, USA" type="OFFENSE" description="*********************************************** &lt;br/&gt;3745, Accidents Involving Damage to Unattended Veh.or Prop.&lt;br/&gt;"/><marker lat="40.4592282" lng="-79.922664" zone="Zone 4" incidentdate="2014-09-21" incidenttime="13:30:00" incidentnumber="14189201" address="200 Swope Street, Pittsburgh, PA 15206, USA" type="OFFENSE" description="*********************************************** &lt;br/&gt;029, Missing Juvenile&lt;br/&gt;"/><marker lat="40.4177239" lng="-79.9781868" zone="Zone 3" incidentdate="2014-09-21" incidenttime="14:00:00" incidentnumber="14189192" address="2000 Arlington Avenue, Pittsburgh, PA 15210, USA" type="OFFENSE" description="*********************************************** &lt;br/&gt;3304, Criminal Mischief.&lt;br/&gt;"/><marker lat="40.439763" lng="-79.937034" zone="Zone 4" incidentdate="2014-09-21" incidenttime="15:00:00" incidentnumber="14189223" address="200 Schenley Road, Pittsburgh, PA 15217, USA" type="OFFENSE" description="*********************************************** &lt;br/&gt;3304(a)(5), CRIMINAL MISCHIEF - Intentionally Damages Real Or Personal Property Of Another&lt;br/&gt;3934, Theft from Vehicle&lt;br/&gt;4106, Access Device Fraud&lt;br/&gt;"/><marker lat="40.375203" lng="-80.003964" zone="Zone 3" incidentdate="2014-09-21" incidenttime="15:10:00" incidentnumber="14189233" address="2900 Homehurst Avenue, Pittsburgh, PA 15234, USA" type="OFFENSE" description="*********************************************** &lt;br/&gt;9999, 9999 - (Misc. Incident):&lt;br/&gt;"/><marker lat="40.4395271" lng="-79.9981821" zone="Zone 2" incidentdate="2014-09-21" incidenttime="15:30:00" incidentnumber="14189230" address="400 Fifth Avenue, Pittsburgh, PA 15219, USA" type="OFFENSE" description="*********************************************** &lt;br/&gt;3929, Retail Theft.&lt;br/&gt;"/><marker lat="40.368528" lng="-79.917319" zone="Zone 4" incidentdate="2014-09-21" incidenttime="16:00:00" incidentnumber="14189278" address="1100 Muldowney Avenue, Pittsburgh, PA 15207, USA" type="OFFENSE" description="*********************************************** &lt;br/&gt;3304, Criminal Mischief.&lt;br/&gt;"/><marker lat="40.4827032" lng="-80.0033129" zone="Zone 1" incidentdate="2014-09-21" incidenttime="16:18:00" incidentnumber="14189248" address="300 Mount Pleasant Road, Pittsburgh, PA 15214, USA" type="OFFENSE" description="*********************************************** &lt;br/&gt;9490, Missing Persons (18 and Over)&lt;br/&gt;"/><marker lat="40.3903497" lng="-79.9816167" zone="Zone 3" incidentdate="2014-09-21" incidenttime="16:20:00" incidentnumber="14189240" address="Carrick Avenue, Pittsburgh, PA 15210, USA" type="OFFENSE" description="*********************************************** &lt;br/&gt;029, Missing Juvenile&lt;br/&gt;"/><marker lat="40.4475333" lng="-80.0040536" zone="Zone 1" incidentdate="2014-09-21" incidenttime="16:30:00" incidentnumber="14189281" address="Federal Street &amp; Isabella Street, Pittsburgh, PA 15212, USA" type="OFFENSE" description="*********************************************** &lt;br/&gt;3921(a), Theft by Unlawful Taking or Disposition - Movable item&lt;br/&gt;"/><marker lat="40.4545762" lng="-79.8721338" zone="Zone 5" incidentdate="2014-09-21" incidenttime="16:30:00" incidentnumber="14189255" address="2200 East Hills Drive, Pittsburgh, PA 15221, USA" type="OFFENSE" description="*********************************************** &lt;br/&gt;2702, Aggravated Assault.&lt;br/&gt;"/><marker lat="40.4231269" lng="-80.0339559" zone="Zone 6" incidentdate="2014-09-21" incidenttime="16:53:00" incidentnumber="14189272" address="1100 McKinney Lane, Pittsburgh, PA 15220, USA" type="OFFENSE" description="*********************************************** &lt;br/&gt;2701, Simple Assault.&lt;br/&gt;2902, Unlawful Restraint.&lt;br/&gt;"/><marker lat="40.4407947" lng="-79.95604" zone="Zone 4" incidentdate="2014-09-21" incidenttime="17:21:00" incidentnumber="14189286" address="300 Oakland Avenue, University of Pittsburgh, Bouquet Gardens, Pittsburgh, PA 15213, USA" type="OFFENSE" description="*********************************************** &lt;br/&gt;3304, Criminal Mischief.&lt;br/&gt;"/><marker lat="40.4385472" lng="-80.0401199" zone="Zone 6" incidentdate="2014-09-21" incidenttime="00:50:00" incidentnumber="14188850" address="600 Sedan Way, Pittsburgh, PA 15220, USA" type="ARREST" description="*********************************************** &lt;br/&gt;2702, Aggravated Assault.&lt;br/&gt;3502, Burglary.&lt;br/&gt;"/><marker lat="40.4654264" lng="-79.9914439" zone="Zone 1" incidentdate="2014-09-21" incidenttime="17:25:00" incidentnumber="14184975" address="1300 Damas Street, Pittsburgh, PA 15212, USA" type="ARREST" description="*********************************************** &lt;br/&gt;2701, Simple Assault.&lt;br/&gt;"/><marker lat="40.4665831" lng="-79.9956227" zone="Zone 1" incidentdate="2014-09-21" incidenttime="21:30:00" incidentnumber="14189416" address="1100 Buente Street, Pittsburgh, PA 15212, USA" type="ARREST" description="*********************************************** &lt;br/&gt;2701, Simple Assault.&lt;br/&gt;"/><marker lat="40.4319976" lng="-80.0154074" zone="Zone 3" incidentdate="2014-09-21" incidenttime="10:46:00" incidentnumber="14188919" address="700 Virginia Avenue, Pittsburgh, PA 15211, USA" type="ARREST" description="*********************************************** &lt;br/&gt;5506, Loitering and Prowling at Night&lt;br/&gt;2709(a)(1), Harassment by Physical Contact, or Attempts or Threats&lt;br/&gt;2709(a), Harassment.&lt;br/&gt;2706, Terroristic Threats.&lt;br/&gt;3304, Criminal Mischief.&lt;br/&gt;"/><marker lat="40.43493" lng="-79.9564785" zone="Zone 4" incidentdate="2014-09-21" incidenttime="01:02:00" incidentnumber="14188877" address="Bates Street, Pittsburgh, PA 15213, USA" type="ARREST" description="*********************************************** &lt;br/&gt;4303, General Lighting Requirements.&lt;br/&gt;3111, Obedience to Traffic-Control Devices.&lt;br/&gt;3802(a)(1), DUI - General Impairment&lt;br/&gt;"/><marker lat="40.406415" lng="-79.946274" zone="Zone 4" incidentdate="2014-09-21" incidenttime="01:10:00" incidentnumber="14188865" address="200 West Elizabeth Street, Pittsburgh, PA 15207, USA" type="ARREST" description="*********************************************** &lt;br/&gt;5506, Loitering and Prowling at Night&lt;br/&gt;5505, Public Drunkenness&lt;br/&gt;"/><marker lat="40.4319976" lng="-80.0154074" zone="Zone 3" incidentdate="2014-09-21" incidenttime="10:46:00" incidentnumber="14189114" address="700 Virginia Avenue, Pittsburgh, PA 15211, USA" type="ARREST" description="*********************************************** &lt;br/&gt;3503, Criminal Trespass&lt;br/&gt;"/><marker lat="40.451145" lng="-79.9338504" zone="Zone 4" incidentdate="2014-09-21" incidenttime="01:45:00" incidentnumber="14188927" address="Walnut Street &amp; Bellefonte Street, Pittsburgh, PA 15232, USA" type="ARREST" description="*********************************************** &lt;br/&gt;2702, Aggravated Assault.&lt;br/&gt;3503.B1I, DEF. TRESPASS ACTUAL COMMUNICATION&lt;br/&gt;5505, Public Drunkenness&lt;br/&gt;"/><marker lat="40.452265" lng="-79.998701" zone="Zone 1" incidentdate="2014-09-21" incidenttime="21:35:00" incidentnumber="14189412" address="600 Pressley Street, Pittsburgh, PA 15212, USA" type="ARREST" description="*********************************************** &lt;br/&gt;2701, Simple Assault.&lt;br/&gt;"/><marker lat="40.4578371" lng="-79.8743909" zone="Zone 5" incidentdate="2014-09-21" incidenttime="03:00:00" incidentnumber="14188961" address="8600 Bricelyn Street, Pittsburgh, PA 15221, USA" type="ARREST" description="*********************************************** &lt;br/&gt;1301, Registration and Certificate of Title Required.&lt;br/&gt;7513, Restriction on Alcoholic Beverages - Open Container&lt;br/&gt;1543, Driving While Operating Privilege is Suspended or Revoked.&lt;br/&gt;4304(a)(1), Endangering Welfare of Children.&lt;br/&gt;13(a)(32), Paraphernalia - Use or Possession&lt;br/&gt;308, Intoxication or Drugged Condition&lt;br/&gt;3925, Receiving Stolen Property.&lt;br/&gt;"/><marker lat="40.4897716" lng="-79.9009272" zone="Zone 2" incidentdate="2014-09-21" incidenttime="16:30:00" incidentnumber="14152556" address="600 1st Street, Pittsburgh, PA 15215, USA" type="ARREST" description="*********************************************** &lt;br/&gt;4304(a)(1), Endangering Welfare of Children.&lt;br/&gt;2701, Simple Assault.&lt;br/&gt;"/><marker lat="40.4173539" lng="-79.9684438" zone="Zone 3" incidentdate="2014-09-21" incidenttime="21:08:00" incidentnumber="14189383" address="100 Rinne Street, Pittsburgh, PA 15210, USA" type="ARREST" description="*********************************************** &lt;br/&gt;2701, Simple Assault.&lt;br/&gt;"/><marker lat="40.406281" lng="-79.9681582" zone="Zone 3" incidentdate="2014-09-21" incidenttime="20:00:00" incidentnumber="14189361" address="900 Becks Run Road, Pittsburgh, PA 15210, USA" type="ARREST" description="*********************************************** &lt;br/&gt;3304, Criminal Mischief.&lt;br/&gt;2701, Simple Assault.&lt;br/&gt;"/><marker lat="40.4624102" lng="-79.9468785" zone="Zone 5" incidentdate="2014-09-21" incidenttime="01:55:00" incidentnumber="14188915" address="300 South Mathilda Street, Pittsburgh, PA 15224, USA" type="ARREST" description="*********************************************** &lt;br/&gt;2702, Aggravated Assault.&lt;br/&gt;2902, Unlawful Restraint.&lt;br/&gt;3502, Burglary.&lt;br/&gt;"/><marker lat="40.4395271" lng="-79.9981821" zone="Zone 2" incidentdate="2014-09-21" incidenttime="15:45:00" incidentnumber="14189230" address="400 Fifth Avenue, Pittsburgh, PA 15219, USA" type="ARREST" description="*********************************************** &lt;br/&gt;3929, Retail Theft.&lt;br/&gt;"/><marker lat="40.4534768" lng="-80.0005931" zone="Zone 1" incidentdate="2014-09-21" incidenttime="02:10:00" incidentnumber="14188966" address="East Ohio Street &amp; James Street, Pittsburgh, PA 15212, USA" type="ARREST" description="*********************************************** &lt;br/&gt;9501, Bench Warrant&lt;br/&gt;"/><marker lat="40.4687843" lng="-79.9991976" zone="Zone 1" incidentdate="2014-09-21" incidenttime="04:20:00" incidentnumber="14189008" address="2300 Bessie Avenue, Pittsburgh, PA 15212, USA" type="ARREST" description="*********************************************** &lt;br/&gt;1543, Driving While Operating Privilege is Suspended or Revoked.&lt;br/&gt;3802(a)(1), DUI - General Impairment&lt;br/&gt;3802(c), DUI - Highest Rate of Alcohol - BAC &gt;= .16%&lt;br/&gt;"/><marker lat="40.4968174" lng="-79.9451527" zone="Zone 4" incidentdate="2014-09-21" incidenttime="02:15:00" incidentnumber="14188972" address="Walnut Street, Pittsburgh, PA 15223, USA" type="ARREST" description="*********************************************** &lt;br/&gt;2702, Aggravated Assault.&lt;br/&gt;5503, Disorderly Conduct.&lt;br/&gt;5505, Public Drunkenness&lt;br/&gt;3304, Criminal Mischief.&lt;br/&gt;"/><marker lat="40.4217563" lng="-79.9958263" zone="Zone 3" incidentdate="2014-09-21" incidenttime="18:15:00" incidentnumber="14189317" address="East Warrington Avenue &amp; Millbridge Street, Pittsburgh, PA 15210, USA" type="ARREST" description="*********************************************** &lt;br/&gt;13(a)(16), Possession of Controlled Substance&lt;br/&gt;"/></markers>
