<?xml version="1.0"?>
<markers><marker lat="40.46518256293681" lng="-79.957961556776254" zone="Zone 2" incidentdate="2016-06-05" incidenttime="09:39:00" incidentnumber="16103832" address="Penn Ave &amp; 40th St" type="OFFENSE" age="" gender="" description="*********************************************** &lt;br/&gt;9501, Bench Warrant&lt;br/&gt;"/><marker lat="40.457825701128648" lng="-79.974108647888968" zone="Zone 2" incidentdate="2016-06-05" incidenttime="02:10:00" incidentnumber="16103679" address="2900 block Penn Ave" type="OFFENSE" age="" gender="" description="*********************************************** &lt;br/&gt;9999, 9999 - (Misc. Incident):&lt;br/&gt;"/><marker lat="40.469567488698928" lng="-79.919763208596805" zone="Zone 5" incidentdate="2016-06-05" incidenttime="14:19:00" incidentnumber="16103950" address="800 block Farragut St" type="OFFENSE" age="" gender="" description="*********************************************** &lt;br/&gt;2701, Simple Assault.&lt;br/&gt;"/><marker lat="40.428814179717264" lng="-80.024291780088404" zone="Zone 3" incidentdate="2016-06-05" incidenttime="18:24:00" incidentnumber="16104083" address="800 block Saw Mill Run Blvd" type="OFFENSE" age="" gender="" description="*********************************************** &lt;br/&gt;3926(a)(4), Theft of services; ACQUISITION OF SERVICES - refusal to pay or offer to pay for a service (hotels and restarants)&lt;br/&gt;"/><marker lat="40.455876321777623" lng="-79.938275604820149" zone="Zone 4" incidentdate="2016-06-05" incidenttime="16:30:00" incidentnumber="16104001" address="5400 block Centre Ave" type="OFFENSE" age="" gender="" description="*********************************************** &lt;br/&gt;2709(a)(4), Harassment Communicates Prohibited Acts&lt;br/&gt;"/><marker lat="40.466887128304442" lng="-80.025013063862957" zone="Zone 1" incidentdate="2016-06-05" incidenttime="04:10:00" incidentnumber="16103748" address="Marshall Ave &amp; Brighton Rd" type="OFFENSE" age="" gender="" description="*********************************************** &lt;br/&gt;9497, Aided Case&lt;br/&gt;"/><marker lat="40.4477770" lng="-80.0071554" zone="Zone 1" incidentdate="2016-06-05" incidenttime="06:50:00" incidentnumber="16103783" address="600 block General Robinson St W" type="OFFENSE" age="" gender="" description="*********************************************** &lt;br/&gt;13(a)(31), Marijuana: Possession Small Amount&lt;br/&gt;"/><marker lat="40.467306786936255" lng="-79.943539408766725" zone="Zone 5" incidentdate="2016-06-05" incidenttime="12:00:00" incidentnumber="16103883" address="5000 block Kincaid St" type="OFFENSE" age="" gender="" description="*********************************************** &lt;br/&gt;3921(a), Theft by Unlawful Taking or Disposition - Movable item&lt;br/&gt;"/><marker lat="40.436036005233959" lng="-79.985455385193148" zone="Zone 2" incidentdate="2016-06-05" incidenttime="04:23:00" incidentnumber="16103758" address="1400 block Locust St" type="OFFENSE" age="" gender="" description="*********************************************** &lt;br/&gt;6106, Firearms not to be Carried without a License.&lt;br/&gt;"/><marker lat="40.405076243596383" lng="-80.032149037161588" zone="Zone 6" incidentdate="2016-06-05" incidenttime="01:30:00" incidentnumber="16103856" address="700 block Hillgrove Ave" type="OFFENSE" age="" gender="" description="*********************************************** &lt;br/&gt;3502, Burglary.&lt;br/&gt;"/><marker lat="40.442099610175106" lng="-79.999498348299113" zone="Zone 2" incidentdate="2016-06-05" incidenttime="17:48:00" incidentnumber="16104058" address="Wood St &amp; 6th Ave" type="OFFENSE" age="" gender="" description="*********************************************** &lt;br/&gt;3743, Accidents Involving Damage to Attended Veh. or Property&lt;br/&gt;"/><marker lat="40.400867273783959" lng="-80.012699001408691" zone="Zone 6" incidentdate="2016-06-05" incidenttime="09:00:00" incidentnumber="16103831" address="600 block Fernhill Ave" type="OFFENSE" age="" gender="" description="*********************************************** &lt;br/&gt;3921(a), Theft by Unlawful Taking or Disposition - Movable item&lt;br/&gt;"/><marker lat="40.428684832699354" lng="-79.983306706238423" zone="Zone 3" incidentdate="2016-06-05" incidenttime="03:00:00" incidentnumber="16104002" address="1500 block E Carson St" type="OFFENSE" age="" gender="" description="*********************************************** &lt;br/&gt;3921, Theft by Unlawful Taking or Disposition.&lt;br/&gt;"/><marker lat="40.429791226378967" lng="-79.953167929391142" zone="Zone 4" incidentdate="2016-06-05" incidenttime="15:00:00" incidentnumber="16103997" address="3700 block Orpwood St" type="OFFENSE" age="" gender="" description="*********************************************** &lt;br/&gt;3921(a), Theft by Unlawful Taking or Disposition - Movable item&lt;br/&gt;"/><marker lat="40.437416747874401" lng="-79.979508685532437" zone="Zone 2" incidentdate="2016-06-05" incidenttime="01:34:00" incidentnumber="16103657" address="Forbes Ave &amp; Gist St" type="OFFENSE" age="" gender="" description="*********************************************** &lt;br/&gt;2701, Simple Assault.&lt;br/&gt;3701, Robbery.&lt;br/&gt;"/><marker lat="40.453881093138619" lng="-79.873029877694393" zone="Zone 5" incidentdate="2016-06-05" incidenttime="18:28:00" incidentnumber="16104086" address="2200 block East Hills Dr" type="OFFENSE" age="" gender="" description="*********************************************** &lt;br/&gt;3502, Burglary.&lt;br/&gt;3304(a)(5), CRIMINAL MISCHIEF - Intentionally Damages Real Or Personal Property Of Another&lt;br/&gt;"/><marker lat="40.399826355853008" lng="-80.024283639128058" zone="Zone 6" incidentdate="2016-06-05" incidenttime="01:58:00" incidentnumber="16103669" address="2400 block West Liberty Ave" type="OFFENSE" age="" gender="" description="*********************************************** &lt;br/&gt;3745, Accidents Involving Damage to Unattended Veh.or Prop.&lt;br/&gt;3802(a)(1), DUI - General Impairment&lt;br/&gt;"/><marker lat="40.437846371119946" lng="-79.922805918036218" zone="Zone 4" incidentdate="2016-06-05" incidenttime="01:34:00" incidentnumber="16103660" address="5800 block Forbes Ave" type="OFFENSE" age="" gender="" description="*********************************************** &lt;br/&gt;5503(a)(4), DISORDERLY CONDUCT - HAZARDOUS/PHYS. OFF&lt;br/&gt;3304(a)(5), CRIMINAL MISCHIEF - Intentionally Damages Real Or Personal Property Of Another&lt;br/&gt;"/><marker lat="40.439006584679376" lng="-79.988178136603338" zone="Zone 5" incidentdate="2016-06-05" incidenttime="17:48:00" incidentnumber="16104057" address="1300 block Missouri St" type="OFFENSE" age="" gender="" description="*********************************************** &lt;br/&gt;2709(a)(3), Harassment No Legitimate Purpose&lt;br/&gt;"/><marker lat="40.386870961213219" lng="-79.981839226067152" zone="Zone 3" incidentdate="2016-06-05" incidenttime="05:35:00" incidentnumber="16103795" address="Clifton St" type="OFFENSE" age="" gender="" description="*********************************************** &lt;br/&gt;3921, Theft by Unlawful Taking or Disposition.&lt;br/&gt;"/><marker lat="40.475049895491679" lng="-79.93107695320181" zone="Zone 5" incidentdate="2016-06-05" incidenttime="00:05:00" incidentnumber="16103646" address="900 block Jancey St" type="OFFENSE" age="" gender="" description="*********************************************** &lt;br/&gt;3921(a), Theft by Unlawful Taking or Disposition - Movable item&lt;br/&gt;"/><marker lat="40.434850439066452" lng="-80.011975665580493" zone="Zone 3" incidentdate="2016-06-05" incidenttime="18:30:00" incidentnumber="16104036" address="100 block Ulysses St" type="OFFENSE" age="" gender="" description="*********************************************** &lt;br/&gt;3745, Accidents Involving Damage to Unattended Veh.or Prop.&lt;br/&gt;"/><marker lat="40.423975475795658" lng="-80.009167822211523" zone="Zone 3" incidentdate="2016-06-05" incidenttime="15:45:00" incidentnumber="16103985" address="200 block Smith Way" type="OFFENSE" age="" gender="" description="*********************************************** &lt;br/&gt;3304, Criminal Mischief.&lt;br/&gt;3921(a), Theft by Unlawful Taking or Disposition - Movable item&lt;br/&gt;2709(a)(3), Harassment No Legitimate Purpose&lt;br/&gt;"/><marker lat="40.482243758392855" lng="-80.010678865864747" zone="Zone 1" incidentdate="2016-06-05" incidenttime="00:21:00" incidentnumber="16103605" address="3400 block Delaware St" type="OFFENSE" age="" gender="" description="*********************************************** &lt;br/&gt;2705, Recklessly Endangering Another Person.&lt;br/&gt;2702, Aggravated Assault.&lt;br/&gt;2709(a)(1), Harassment by Physical Contact, or Attempts or Threats&lt;br/&gt;2701(a)(3), Simple Assault - Attempts by Physical Menace&lt;br/&gt;"/><marker lat="40.4530676" lng="-80.0030662" zone="Zone 1" incidentdate="2016-06-05" incidenttime="09:00:00" incidentnumber="16103825" address="200 block East Ohio St" type="OFFENSE" age="" gender="" description="*********************************************** &lt;br/&gt;3745, Accidents Involving Damage to Unattended Veh.or Prop.&lt;br/&gt;"/><marker lat="40.444062481160877" lng="-79.918063359612859" zone="Zone 4" incidentdate="2016-06-05" incidenttime="15:30:00" incidentnumber="16103992" address="1400 block Beechwood Blvd" type="OFFENSE" age="" gender="" description="*********************************************** &lt;br/&gt;9999, 9999 - (Misc. Incident):&lt;br/&gt;3921(a), Theft by Unlawful Taking or Disposition - Movable item&lt;br/&gt;"/><marker lat="40.391766183657168" lng="-79.980101949724528" zone="Zone 3" incidentdate="2016-06-05" incidenttime="16:00:00" incidentnumber="16104016" address="300 block Carrick Ave" type="OFFENSE" age="" gender="" description="*********************************************** &lt;br/&gt;3921(a), Theft by Unlawful Taking or Disposition - Movable item&lt;br/&gt;4106, Access Device Fraud&lt;br/&gt;"/><marker lat="40.41566859033513" lng="-79.995158645909441" zone="Zone 3" incidentdate="2016-06-05" incidenttime="16:55:00" incidentnumber="16104022" address="400 block Zara St" type="OFFENSE" age="" gender="" description="*********************************************** &lt;br/&gt;3304, Criminal Mischief.&lt;br/&gt;"/><marker lat="40.450966080336222" lng="-79.93359390037547" zone="Zone 4" incidentdate="2016-06-05" incidenttime="01:30:00" incidentnumber="16103630" address="5500 block Walnut St" type="OFFENSE" age="" gender="" description="*********************************************** &lt;br/&gt;5505, Public Drunkenness&lt;br/&gt;601.16, Public Urination And Defecation&lt;br/&gt;"/><marker lat="40.427361411734964" lng="-79.906435649664033" zone="Zone 4" incidentdate="2016-06-05" incidenttime="20:05:00" incidentnumber="16104090" address="6800 block Forward Ave" type="OFFENSE" age="" gender="" description="*********************************************** &lt;br/&gt;9489, Found Property&lt;br/&gt;"/><marker lat="40.460575115290723" lng="-79.885686623027269" zone="Zone OSC" incidentdate="2016-06-05" incidenttime="17:45:00" incidentnumber="16103971" address="1200 block Wilkins Ave" type="OFFENSE" age="" gender="" description="*********************************************** &lt;br/&gt;9497, Aided Case&lt;br/&gt;"/><marker lat="40.441948829716402" lng="-79.956438300298316" zone="Zone 4" incidentdate="2016-06-05" incidenttime="02:38:00" incidentnumber="16103702" address="Forbes Ave &amp; S Bouquet St" type="OFFENSE" age="" gender="" description="*********************************************** &lt;br/&gt;3934, Theft from Vehicle&lt;br/&gt;"/><marker lat="40.426686767989011" lng="-79.99981738467028" zone="Zone 3" incidentdate="2016-06-05" incidenttime="00:05:00" incidentnumber="16103599" address="400 block Bailey Ave" type="OFFENSE" age="" gender="" description="*********************************************** &lt;br/&gt;3304, Criminal Mischief.&lt;br/&gt;2701, Simple Assault.&lt;br/&gt;"/><marker lat="40.405302741289624" lng="-79.989138297527603" zone="Zone 3" incidentdate="2016-06-05" incidenttime="12:20:00" incidentnumber="16103891" address="100 block Wynoka St" type="OFFENSE" age="" gender="" description="*********************************************** &lt;br/&gt;9999, 9999 - (Misc. Incident):&lt;br/&gt;"/><marker lat="40.45803936285224" lng="-79.904251416277006" zone="Zone 4" incidentdate="2016-06-05" incidenttime="09:13:00" incidentnumber="16103847" address="6900 block Frankstown Ave" type="OFFENSE" age="" gender="" description="*********************************************** &lt;br/&gt;2709(a)(4), Harassment Communicates Prohibited Acts&lt;br/&gt;"/><marker lat="40.394281298026605" lng="-79.934700255688128" zone="Zone 4" incidentdate="2016-06-05" incidenttime="20:25:00" incidentnumber="16104119" address="4900 block E Carson St" type="OFFENSE" age="" gender="" description="*********************************************** &lt;br/&gt;9999, 9999 - (Misc. Incident):&lt;br/&gt;"/><marker lat="40.434661931745872" lng="-79.945244994242827" zone="Zone 4" incidentdate="2016-06-05" incidenttime="12:30:00" incidentnumber="16103902" address="Overlook Dr" type="OFFENSE" age="" gender="" description="*********************************************** &lt;br/&gt;3304(a)(5), CRIMINAL MISCHIEF - Intentionally Damages Real Or Personal Property Of Another&lt;br/&gt;3934, Theft from Vehicle&lt;br/&gt;"/><marker lat="40.455145132642954" lng="-80.001097763363958" zone="Zone 1" incidentdate="2016-06-05" incidenttime="12:51:00" incidentnumber="16103901" address="500 block Suismon St" type="OFFENSE" age="" gender="" description="*********************************************** &lt;br/&gt;13(a)(32), Paraphernalia - Use or Possession&lt;br/&gt;9501, Bench Warrant&lt;br/&gt;"/><marker lat="40.484592367904192" lng="-80.014689007836736" zone="Zone 1" incidentdate="2016-06-05" incidenttime="21:18:00" incidentnumber="16104172" address="3600 block Perrysville Ave" type="OFFENSE" age="" gender="" description="*********************************************** &lt;br/&gt;2709(a), Harassment.&lt;br/&gt;"/><marker lat="40.465757913835297" lng="-79.929035730197427" zone="Zone 5" incidentdate="2016-06-05" incidenttime="16:12:00" incidentnumber="16103994" address="300 block N Negley Ave" type="OFFENSE" age="" gender="" description="*********************************************** &lt;br/&gt;029, Missing Juvenile&lt;br/&gt;"/><marker lat="40.466877756870879" lng="-79.994177935104844" zone="Zone 1" incidentdate="2016-06-05" incidenttime="05:32:00" incidentnumber="16103769" address="100 block Rhine Pl" type="OFFENSE" age="" gender="" description="*********************************************** &lt;br/&gt;9999, 9999 - (Misc. Incident):&lt;br/&gt;"/><marker lat="40.417740125103577" lng="-79.995556616841256" zone="Zone 3" incidentdate="2016-06-05" incidenttime="17:00:00" incidentnumber="16104125" address="400 block Orchard Pl" type="OFFENSE" age="" gender="" description="*********************************************** &lt;br/&gt;3921(a), Theft by Unlawful Taking or Disposition - Movable item&lt;br/&gt;"/><marker lat="40.459989573237074" lng="-79.895149522874036" zone="Zone 5" incidentdate="2016-06-05" incidenttime="00:36:00" incidentnumber="16103622" address="7200 block Hermitage St" type="OFFENSE" age="" gender="" description="*********************************************** &lt;br/&gt;9999, 9999 - (Misc. Incident):&lt;br/&gt;"/><marker lat="40.4540023" lng="-79.9645076" zone="Zone 2" incidentdate="2016-06-05" incidenttime="17:00:00" incidentnumber="16104094" address="3300 block Mc Neil Pl" type="OFFENSE" age="" gender="" description="*********************************************** &lt;br/&gt;3304(a)(5), CRIMINAL MISCHIEF - Intentionally Damages Real Or Personal Property Of Another&lt;br/&gt;"/><marker lat="40.442888113190847" lng="-79.997936520552642" zone="Zone 2" incidentdate="2016-06-05" incidenttime="02:45:00" incidentnumber="16103788" address="900 block Liberty Ave" type="OFFENSE" age="" gender="" description="*********************************************** &lt;br/&gt;3921(a), Theft by Unlawful Taking or Disposition - Movable item&lt;br/&gt;"/><marker lat="40.428537771034861" lng="-80.010494922499831" zone="Zone 3" incidentdate="2016-06-05" incidenttime="15:30:00" incidentnumber="16104024" address="200 block Prospect St" type="OFFENSE" age="" gender="" description="*********************************************** &lt;br/&gt;3745, Accidents Involving Damage to Unattended Veh.or Prop.&lt;br/&gt;"/><marker lat="40.44399023304031" lng="-80.002630134211415" zone="Zone 2" incidentdate="2016-06-05" incidenttime="02:14:00" incidentnumber="16103681" address="100 block 6th St" type="OFFENSE" age="" gender="" description="*********************************************** &lt;br/&gt;3921(a), Theft by Unlawful Taking or Disposition - Movable item&lt;br/&gt;"/><marker lat="40.422524867607919" lng="-80.013158246525549" zone="Zone 3" incidentdate="2016-06-05" incidenttime="02:30:00" incidentnumber="16103738" address="Penelope St" type="OFFENSE" age="" gender="" description="*********************************************** &lt;br/&gt;3921, Theft by Unlawful Taking or Disposition.&lt;br/&gt;"/><marker lat="40.399985666969435" lng="-79.997996822999596" zone="Zone 3" incidentdate="2016-06-05" incidenttime="18:40:00" incidentnumber="16104105" address="1400 block Nobles Ln" type="OFFENSE" age="" gender="" description="*********************************************** &lt;br/&gt;9093, Indirect Criminal Contempt&lt;br/&gt;"/><marker lat="40.469489300514041" lng="-79.962240836709555" zone="Zone 2" incidentdate="2016-06-05" incidenttime="00:10:00" incidentnumber="16103609" address="Almond Way &amp; Eden Way" type="OFFENSE" age="" gender="" description="*********************************************** &lt;br/&gt;2702, Aggravated Assault.&lt;br/&gt;"/><marker lat="40.459704642194069" lng="-79.892974623517759" zone="Zone 5" incidentdate="2016-06-05" incidenttime="06:03:00" incidentnumber="16103774" address="1300 block Sterrett St" type="OFFENSE" age="" gender="" description="*********************************************** &lt;br/&gt;2701, Simple Assault.&lt;br/&gt;"/><marker lat="40.457089015587194" lng="-79.997256310787947" zone="Zone 1" incidentdate="2016-06-05" incidenttime="01:20:00" incidentnumber="16103647" address="800 block Blossom Way" type="OFFENSE" age="" gender="" description="*********************************************** &lt;br/&gt;3304, Criminal Mischief.&lt;br/&gt;"/><marker lat="40.453596406718603" lng="-79.934819995585997" zone="Zone 4" incidentdate="2016-06-05" incidenttime="15:56:00" incidentnumber="16103987" address="5500 block Ellsworth Ave" type="OFFENSE" age="" gender="" description="*********************************************** &lt;br/&gt;9497, Aided Case&lt;br/&gt;"/><marker lat="40.4196090" lng="-79.9271419" zone="Zone 4" incidentdate="2016-06-05" incidenttime="04:05:00" incidentnumber="16103747" address="4400 block Browns Hill Rd" type="OFFENSE" age="" gender="" description="*********************************************** &lt;br/&gt;2701, Simple Assault.&lt;br/&gt;"/><marker lat="40.4212864" lng="-79.9942514" zone="Zone 3" incidentdate="2016-06-05" incidenttime="03:44:00" incidentnumber="16103737" address="200 block Helen Way" type="OFFENSE" age="" gender="" description="*********************************************** &lt;br/&gt;2702, Aggravated Assault.&lt;br/&gt;901, Criminal Attempt&lt;br/&gt;"/><marker lat="40.454219089964724" lng="-79.897786041938673" zone="Zone 5" incidentdate="2016-06-05" incidenttime="05:37:00" incidentnumber="16103771" address="7200 block Tioga St" type="OFFENSE" age="" gender="" description="*********************************************** &lt;br/&gt;9496, Dead on Arrival (DOA)&lt;br/&gt;"/><marker lat="40.459846940702469" lng="-80.057443353133792" zone="Zone 6" incidentdate="2016-06-05" incidenttime="01:26:00" incidentnumber="16103654" address="500 block Stadium St" type="OFFENSE" age="" gender="" description="*********************************************** &lt;br/&gt;9999, 9999 - (Misc. Incident):&lt;br/&gt;"/><marker lat="40.411920043847267" lng="-80.013339557773591" zone="Zone 6" incidentdate="2016-06-05" incidenttime="18:08:00" incidentnumber="16103966" address="200 block Traymore Ave" type="OFFENSE" age="" gender="" description="*********************************************** &lt;br/&gt;4304(a)(1), Endangering Welfare of Children - Course of Conduct Enhanced&lt;br/&gt;"/><marker lat="40.425211230121235" lng="-79.966860695651448" zone="Zone 3" incidentdate="2016-06-05" incidenttime="10:00:00" incidentnumber="16103842" address="2800 block Larkins Way" type="OFFENSE" age="" gender="" description="*********************************************** &lt;br/&gt;3934, Theft from Vehicle&lt;br/&gt;901, Criminal Attempt&lt;br/&gt;"/><marker lat="40.478253493338741" lng="-80.040270139012904" zone="Zone 1" incidentdate="2016-06-05" incidenttime="21:27:00" incidentnumber="16104181" address="3500 block California Ave" type="OFFENSE" age="" gender="" description="*********************************************** &lt;br/&gt;9496, Dead on Arrival (DOA)&lt;br/&gt;"/><marker lat="40.445926173410676" lng="-80.052351688864789" zone="Zone 6" incidentdate="2016-06-05" incidenttime="06:08:00" incidentnumber="16103776" address="1000 block Woodlow St" type="OFFENSE" age="" gender="" description="*********************************************** &lt;br/&gt;2701, Simple Assault.&lt;br/&gt;2706, Terroristic Threats.&lt;br/&gt;"/><marker lat="40.417254023346729" lng="-79.971242787779815" zone="Zone 3" incidentdate="2016-06-05" incidenttime="01:00:00" incidentnumber="16103968" address="2500 block Arlington Ave" type="OFFENSE" age="" gender="" description="*********************************************** &lt;br/&gt;3921(a), Theft by Unlawful Taking or Disposition - Movable item&lt;br/&gt;"/><marker lat="40.459691672781915" lng="-80.028378360070761" zone="Zone 1" incidentdate="2016-06-05" incidenttime="09:00:00" incidentnumber="16103815" address="1400 block Nixon St" type="OFFENSE" age="" gender="" description="*********************************************** &lt;br/&gt;9090, Recovered Firearm&lt;br/&gt;"/><marker lat="40.42344099320389" lng="-79.985601243126041" zone="Zone 3" incidentdate="2016-06-05" incidenttime="01:21:00" incidentnumber="16103650" address="St Thomas St" type="OFFENSE" age="" gender="" description="*********************************************** &lt;br/&gt;5503, Disorderly Conduct.&lt;br/&gt;"/><marker lat="40.445077635002647" lng="-79.973713065498615" zone="Zone 2" incidentdate="2016-06-05" incidenttime="03:19:00" incidentnumber="16103734" address="2300 block Centre Ave" type="OFFENSE" age="" gender="" description="*********************************************** &lt;br/&gt;3924, Theft of Property Lost, Mislaid or Delivered by Mistake.&lt;br/&gt;"/><marker lat="40.429090431608095" lng="-79.979048597666363" zone="Zone 3" incidentdate="2016-06-05" incidenttime="01:39:00" incidentnumber="16103662" address="1900 block Wrights Way" type="OFFENSE" age="" gender="" description="*********************************************** &lt;br/&gt;601.16, Public Urination And Defecation&lt;br/&gt;"/><marker lat="40.441948829716402" lng="-79.956438300298316" zone="Zone 4" incidentdate="2016-06-05" incidenttime="02:47:00" incidentnumber="16103702" address="Forbes Ave &amp; S Bouquet St" type="ARREST" age="44" gender="M" description="*********************************************** &lt;br/&gt;3934, Theft from Vehicle&lt;br/&gt;"/><marker lat="40.459704642194069" lng="-79.892974623517759" zone="Zone 5" incidentdate="2016-06-05" incidenttime="15:30:00" incidentnumber="16103774" address="1300 block Sterrett St" type="ARREST" age="30" gender="M" description="*********************************************** &lt;br/&gt;2701, Simple Assault.&lt;br/&gt;"/><marker lat="40.453881093138619" lng="-79.873029877694393" zone="Zone 5" incidentdate="2016-06-05" incidenttime="18:49:00" incidentnumber="16104086" address="2200 block East Hills Dr" type="ARREST" age="14" gender="M" description="*********************************************** &lt;br/&gt;3502, Burglary.&lt;br/&gt;3304(a)(5), CRIMINAL MISCHIEF - Intentionally Damages Real Or Personal Property Of Another&lt;br/&gt;"/><marker lat="40.399826355853008" lng="-80.024283639128058" zone="Zone 6" incidentdate="2016-06-05" incidenttime="02:11:00" incidentnumber="16103669" address="2400 block West Liberty Ave" type="ARREST" age="41" gender="F" description="*********************************************** &lt;br/&gt;3745, Accidents Involving Damage to Unattended Veh.or Prop.&lt;br/&gt;3802(a)(1), DUI - General Impairment&lt;br/&gt;"/><marker lat="40.436036005233959" lng="-79.985455385193148" zone="Zone 2" incidentdate="2016-06-05" incidenttime="04:23:00" incidentnumber="16103758" address="1400 block Locust St" type="ARREST" age="22" gender="M" description="*********************************************** &lt;br/&gt;6106, Firearms not to be Carried without a License.&lt;br/&gt;"/><marker lat="40.437416747874401" lng="-79.979508685532437" zone="Zone 2" incidentdate="2016-06-05" incidenttime="01:48:00" incidentnumber="16103657" address="Forbes Ave &amp; Gist St" type="ARREST" age="45" gender="M" description="*********************************************** &lt;br/&gt;2701, Simple Assault.&lt;br/&gt;3701, Robbery.&lt;br/&gt;"/><marker lat="40.4477770" lng="-80.0071554" zone="Zone 1" incidentdate="2016-06-05" incidenttime="06:50:00" incidentnumber="16103783" address="600 block General Robinson St W" type="ARREST" age="22" gender="M" description="*********************************************** &lt;br/&gt;13(a)(31), Marijuana: Possession Small Amount&lt;br/&gt;"/><marker lat="40.455789894860651" lng="-80.001931136692335" zone="Zone 1" incidentdate="2016-06-05" incidenttime="12:51:00" incidentnumber="15185844" address="Tripoli St &amp; Moravian St" type="ARREST" age="26" gender="F" description="*********************************************** &lt;br/&gt;13(a)(31), Marijuana: Possession Small Amount&lt;br/&gt;13(a)(32), Paraphernalia - Use or Possession&lt;br/&gt;5902(a)(2), Prostitution - Loitering for purpose of&lt;br/&gt;"/><marker lat="40.428814179717264" lng="-80.024291780088404" zone="Zone 3" incidentdate="2016-06-05" incidenttime="18:40:00" incidentnumber="16104083" address="800 block Saw Mill Run Blvd" type="ARREST" age="48" gender="M" description="*********************************************** &lt;br/&gt;3926(a)(4), Theft of services; ACQUISITION OF SERVICES - refusal to pay or offer to pay for a service (hotels and restarants)&lt;br/&gt;"/><marker lat="40.462835232229764" lng="-79.892199542590049" zone="Zone 5" incidentdate="2016-06-05" incidenttime="20:37:00" incidentnumber="16078739" address="7200 block Everton St" type="ARREST" age="22" gender="F" description="*********************************************** &lt;br/&gt;2701, Simple Assault.&lt;br/&gt;"/><marker lat="40.455145132642954" lng="-80.001097763363958" zone="Zone 1" incidentdate="2016-06-05" incidenttime="12:51:00" incidentnumber="16103901" address="500 block Suismon St" type="ARREST" age="26" gender="F" description="*********************************************** &lt;br/&gt;13(a)(32), Paraphernalia - Use or Possession&lt;br/&gt;9501, Bench Warrant&lt;br/&gt;"/><marker lat="40.46518256293681" lng="-79.957961556776254" zone="Zone 2" incidentdate="2016-06-05" incidenttime="09:50:00" incidentnumber="16103832" address="Penn Ave &amp; 40th St" type="ARREST" age="20" gender="M" description="*********************************************** &lt;br/&gt;9501, Bench Warrant&lt;br/&gt;"/><marker lat="40.4471653" lng="-80.0523328" zone="Zone 6" incidentdate="2016-06-05" incidenttime="06:08:00" incidentnumber="16010118" address="1500 block Crucible St" type="ARREST" age="23" gender="F" description="*********************************************** &lt;br/&gt;9015, Failure To Appear/Arrest on Attachment Order&lt;br/&gt;"/><marker lat="40.453566706506784" lng="-80.017443098064888" zone="Zone 5" incidentdate="2016-06-05" incidenttime="13:30:00" incidentnumber="16085719" address="900 block N Murtland St" type="ARREST" age="29" gender="M" description="*********************************************** &lt;br/&gt;2705, Recklessly Endangering Another Person.&lt;br/&gt;2706, Terroristic Threats.&lt;br/&gt;2701(a)(3), Simple Assault - Attempts by Physical Menace&lt;br/&gt;"/><marker lat="40.469567488698928" lng="-79.919763208596805" zone="Zone 5" incidentdate="2016-06-05" incidenttime="14:45:00" incidentnumber="16103950" address="800 block Farragut St" type="ARREST" age="38" gender="M" description="*********************************************** &lt;br/&gt;2701, Simple Assault.&lt;br/&gt;"/><marker lat="40.445077635002647" lng="-79.973713065498615" zone="Zone 2" incidentdate="2016-06-05" incidenttime="02:47:00" incidentnumber="16071111" address="2300 block Centre Ave" type="ARREST" age="44" gender="M" description="*********************************************** &lt;br/&gt;13(a)(16), Possession of Controlled Substance&lt;br/&gt;3934, Theft from Vehicle&lt;br/&gt;"/></markers>
