<?xml version="1.0"?>
<markers><marker lat="40.465238180504905" lng="-79.95125664568981" zone="Zone 5" incidentdate="2015-07-19" incidenttime="00:34:00" incidentnumber="15133018" address="4500 block Carroll St" type="OFFENSE" age="" gender="" description="*********************************************** &lt;br/&gt;2701, Simple Assault.&lt;br/&gt;"/><marker lat="40.428606966018023" lng="-79.985175111647919" zone="Zone 3" incidentdate="2015-07-19" incidenttime="20:53:00" incidentnumber="15133596" address="1300 block E Carson St" type="OFFENSE" age="" gender="" description="*********************************************** &lt;br/&gt;2702, Aggravated Assault.&lt;br/&gt;3503.B1I, DEF. TRESPASS ACTUAL COMMUNICATION&lt;br/&gt;5503, Disorderly Conduct.&lt;br/&gt;"/><marker lat="40.392154392860824" lng="-80.017676067888289" zone="Zone 6" incidentdate="2015-07-19" incidenttime="01:25:00" incidentnumber="15133061" address="1000 block Brookline Blvd" type="OFFENSE" age="" gender="" description="*********************************************** &lt;br/&gt;601.16(b)(1)(a), Any Person who urinates or defecates in, on, or about any public place&lt;br/&gt;"/><marker lat="40.399788878927772" lng="-80.043325511648376" zone="Zone 6" incidentdate="2015-07-19" incidenttime="01:05:00" incidentnumber="15133043" address="3100 block Banksville Rd" type="OFFENSE" age="" gender="" description="*********************************************** &lt;br/&gt;5505, Public Drunkenness&lt;br/&gt;"/><marker lat="40.438055922456748" lng="-79.953951852261469" zone="Zone 4" incidentdate="2015-07-19" incidenttime="11:11:00" incidentnumber="15133291" address="400 block Atwood St" type="OFFENSE" age="" gender="" description="*********************************************** &lt;br/&gt;3921, Theft by Unlawful Taking or Disposition.&lt;br/&gt;"/><marker lat="40.409140101349749" lng="-79.996987354776039" zone="Zone 3" incidentdate="2015-07-19" incidenttime="17:46:00" incidentnumber="15133460" address="200 block Tarragonna St" type="OFFENSE" age="" gender="" description="*********************************************** &lt;br/&gt;9999, 9999 - (Misc. Incident):&lt;br/&gt;"/><marker lat="40.393868247768545" lng="-80.005803235629187" zone="Zone 6" incidentdate="2015-07-19" incidenttime="13:15:00" incidentnumber="15133346" address="1500 block Milan Ave" type="OFFENSE" age="" gender="" description="*********************************************** &lt;br/&gt;2709(a), Harassment.&lt;br/&gt;"/><marker lat="40.405036716367022" lng="-80.018574056476126" zone="Zone 6" incidentdate="2015-07-19" incidenttime="15:45:00" incidentnumber="15133406" address="1900 block Capital Ave" type="OFFENSE" age="" gender="" description="*********************************************** &lt;br/&gt;9492, Dog Bite&lt;br/&gt;"/><marker lat="40.489468876005951" lng="-79.928046411716096" zone="Zone 5" incidentdate="2015-07-19" incidenttime="11:50:00" incidentnumber="15133304" address="6700 block Butler St" type="OFFENSE" age="" gender="" description="*********************************************** &lt;br/&gt;3735.1, Aggravated Assault While DUI&lt;br/&gt;3802(a)(1), DUI - General Impairment&lt;br/&gt;"/><marker lat="40.423307201998043" lng="-79.961250980900815" zone="Zone 3" incidentdate="2015-07-19" incidenttime="02:41:00" incidentnumber="15133124" address="3200 block E Carson St" type="OFFENSE" age="" gender="" description="*********************************************** &lt;br/&gt;3743, Accidents Involving Damage to Attended Veh. or Property&lt;br/&gt;"/><marker lat="40.441151120339974" lng="-79.996815603505837" zone="Zone 2" incidentdate="2015-07-19" incidenttime="14:30:00" incidentnumber="15133494" address="600 block William Penn Pl" type="OFFENSE" age="" gender="" description="*********************************************** &lt;br/&gt;3921, Theft by Unlawful Taking or Disposition.&lt;br/&gt;"/><marker lat="40.478846468228319" lng="-80.043103207786132" zone="Zone 1" incidentdate="2015-07-19" incidenttime="12:33:00" incidentnumber="15133322" address="Ohio River Blvd &amp; Mckees Rocks Brg" type="OFFENSE" age="" gender="" description="*********************************************** &lt;br/&gt;5507, Obstructing Highways and Passages.&lt;br/&gt;"/><marker lat="40.479076386446295" lng="-79.999717737366538" zone="Zone 1" incidentdate="2015-07-19" incidenttime="00:30:00" incidentnumber="15133337" address="1400 block Chicago St" type="OFFENSE" age="" gender="" description="*********************************************** &lt;br/&gt;3304, Criminal Mischief.&lt;br/&gt;3503, Criminal Trespass&lt;br/&gt;"/><marker lat="40.429505937952463" lng="-79.977548578170712" zone="Zone 3" incidentdate="2015-07-19" incidenttime="08:15:00" incidentnumber="15133229" address="Sidney St &amp; S 20th St" type="OFFENSE" age="" gender="" description="*********************************************** &lt;br/&gt;3304, Criminal Mischief.&lt;br/&gt;"/><marker lat="40.428096152469237" lng="-79.972924883274374" zone="Zone 3" incidentdate="2015-07-19" incidenttime="03:20:00" incidentnumber="15133141" address="2300 block E Carson St" type="OFFENSE" age="" gender="" description="*********************************************** &lt;br/&gt;3743, Accidents Involving Damage to Attended Veh. or Property&lt;br/&gt;3802(b), DUI - High Rate of Alchol - BAC &gt;=.10% &lt;.16%&lt;br/&gt;3802(a)(1), DUI - General Impairment&lt;br/&gt;"/><marker lat="40.390554852074288" lng="-80.022112220573177" zone="Zone 6" incidentdate="2015-07-19" incidenttime="05:57:00" incidentnumber="15133201" address="900 block Fordham St" type="OFFENSE" age="" gender="" description="*********************************************** &lt;br/&gt;2501, Criminal Homicide.&lt;br/&gt;"/><marker lat="40.478493705474932" lng="-80.011971881466806" zone="Zone 1" incidentdate="2015-07-19" incidenttime="07:00:00" incidentnumber="15133210" address="Watson Blvd" type="OFFENSE" age="" gender="" description="*********************************************** &lt;br/&gt;3502, Burglary.&lt;br/&gt;"/><marker lat="40.432736194634494" lng="-79.937499927645391" zone="Zone 4" incidentdate="2015-07-19" incidenttime="17:00:00" incidentnumber="15133489" address="Greenfield Rd &amp; Overlook Dr" type="OFFENSE" age="" gender="" description="*********************************************** &lt;br/&gt;3934, Theft from Vehicle&lt;br/&gt;"/><marker lat="40.427929065959248" lng="-79.982139788014067" zone="Zone 3" incidentdate="2015-07-19" incidenttime="00:39:00" incidentnumber="15133022" address="S 17th St &amp; Sarah St" type="OFFENSE" age="" gender="" description="*********************************************** &lt;br/&gt;2702, Aggravated Assault.&lt;br/&gt;2701, Simple Assault.&lt;br/&gt;5104, Resisting Arrest or Other Law Enforcement.&lt;br/&gt;5505, Public Drunkenness&lt;br/&gt;5121, Escape.&lt;br/&gt;"/><marker lat="40.451849388739262" lng="-80.07128220513205" zone="Zone 6" incidentdate="2015-07-19" incidenttime="11:35:00" incidentnumber="15133309" address="3400 block Clearfield St" type="OFFENSE" age="" gender="" description="*********************************************** &lt;br/&gt;9496, Dead on Arrival (DOA)&lt;br/&gt;"/><marker lat="40.432520409450184" lng="-80.011850495530737" zone="Zone 3" incidentdate="2015-07-19" incidenttime="11:00:00" incidentnumber="15133357" address="200 block Bertha St" type="OFFENSE" age="" gender="" description="*********************************************** &lt;br/&gt;3304, Criminal Mischief.&lt;br/&gt;"/><marker lat="40.462781718443601" lng="-80.02984361791755" zone="Zone 1" incidentdate="2015-07-19" incidenttime="17:31:00" incidentnumber="15133485" address="2300 block Mannheim St" type="OFFENSE" age="" gender="" description="*********************************************** &lt;br/&gt;5121, Escape.&lt;br/&gt;"/><marker lat="40.438227598393112" lng="-79.996055817744775" zone="Zone 2" incidentdate="2015-07-19" incidenttime="20:00:00" incidentnumber="15133618" address="Forbes Ave &amp; Ross St" type="OFFENSE" age="" gender="" description="*********************************************** &lt;br/&gt;3924, Theft of Property Lost, Mislaid or Delivered by Mistake.&lt;br/&gt;"/><marker lat="40.429479578090266" lng="-79.982684256549106" zone="Zone 3" incidentdate="2015-07-19" incidenttime="13:44:00" incidentnumber="15133351" address="S 16th St &amp; Bingham St" type="OFFENSE" age="" gender="" description="*********************************************** &lt;br/&gt;3934, Theft from Vehicle&lt;br/&gt;"/><marker lat="40.4406248" lng="-79.9958864" zone="Zone 3" incidentdate="2015-07-19" incidenttime="04:02:00" incidentnumber="15133174" address="CSX train tracks" type="OFFENSE" age="" gender="" description="*********************************************** &lt;br/&gt;9999, 9999 - (Misc. Incident):&lt;br/&gt;"/><marker lat="40.451849388739262" lng="-80.07128220513205" zone="Zone 6" incidentdate="2015-07-19" incidenttime="06:30:00" incidentnumber="15133211" address="3400 block Clearfield St" type="OFFENSE" age="" gender="" description="*********************************************** &lt;br/&gt;2706, Terroristic Threats.&lt;br/&gt;3304, Criminal Mischief.&lt;br/&gt;"/><marker lat="40.452210852851195" lng="-79.998676352919205" zone="Zone 1" incidentdate="2015-07-19" incidenttime="16:02:00" incidentnumber="15133405" address="600 block Pressley St" type="OFFENSE" age="" gender="" description="*********************************************** &lt;br/&gt;9017, Found Drugs&lt;br/&gt;"/><marker lat="40.450901096519573" lng="-79.930622154707279" zone="Zone 5" incidentdate="2015-07-19" incidenttime="00:04:00" incidentnumber="15133004" address="900 block N Negley Ave" type="OFFENSE" age="" gender="" description="*********************************************** &lt;br/&gt;029, Missing Juvenile&lt;br/&gt;"/><marker lat="40.452022648610722" lng="-79.935513005350259" zone="Zone 4" incidentdate="2015-07-19" incidenttime="07:00:00" incidentnumber="15133388" address="700 block Copeland St" type="OFFENSE" age="" gender="" description="*********************************************** &lt;br/&gt;3745, Accidents Involving Damage to Unattended Veh.or Prop.&lt;br/&gt;"/><marker lat="40.461073728595117" lng="-80.013783112327346" zone="Zone 1" incidentdate="2015-07-19" incidenttime="10:04:00" incidentnumber="15133263" address="1900 block Perrysville Ave" type="OFFENSE" age="" gender="" description="*********************************************** &lt;br/&gt;2709(a), Harassment.&lt;br/&gt;"/><marker lat="40.429228381173026" lng="-79.980513714480466" zone="Zone 3" incidentdate="2015-07-19" incidenttime="02:20:00" incidentnumber="15133103" address="S 18th St &amp; Wrights Way" type="OFFENSE" age="" gender="" description="*********************************************** &lt;br/&gt;13(a)(31), Marijuana: Possession Small Amount&lt;br/&gt;"/><marker lat="40.447318049038266" lng="-79.894657773530824" zone="Zone 4" incidentdate="2015-07-19" incidenttime="16:00:00" incidentnumber="15133431" address="100 block N Braddock Ave" type="OFFENSE" age="" gender="" description="*********************************************** &lt;br/&gt;3934, Theft from Vehicle&lt;br/&gt;"/><marker lat="40.412030234321499" lng="-80.020364495718169" zone="Zone 6" incidentdate="2015-07-19" incidenttime="19:01:00" incidentnumber="15133527" address="1500 block Rockland Ave" type="OFFENSE" age="" gender="" description="*********************************************** &lt;br/&gt;2701, Simple Assault.&lt;br/&gt;"/><marker lat="40.458307463323074" lng="-79.933769835295948" zone="Zone 5" incidentdate="2015-07-19" incidenttime="12:30:00" incidentnumber="15133332" address="5700 block Baum Blvd" type="OFFENSE" age="" gender="" description="*********************************************** &lt;br/&gt;3745, Accidents Involving Damage to Unattended Veh.or Prop.&lt;br/&gt;"/><marker lat="40.460594319900963" lng="-79.922716789802806" zone="Zone 5" incidentdate="2015-07-19" incidenttime="08:30:00" incidentnumber="15133259" address="6200 block Penn Ave" type="OFFENSE" age="" gender="" description="*********************************************** &lt;br/&gt;3921(a), Theft by Unlawful Taking or Disposition - Movable item&lt;br/&gt;"/><marker lat="40.460302578526942" lng="-80.006980071080037" zone="Zone 1" incidentdate="2015-07-19" incidenttime="10:45:00" incidentnumber="15133281" address="1700 block Belleau Dr" type="OFFENSE" age="" gender="" description="*********************************************** &lt;br/&gt;2701(a)(3), Simple Assault - Attempts by Physical Menace&lt;br/&gt;"/><marker lat="40.475780973877356" lng="-80.030210583292188" zone="Zone 1" incidentdate="2015-07-19" incidenttime="22:00:00" incidentnumber="15133628" address="Sorento St &amp; Minott St" type="OFFENSE" age="" gender="" description="*********************************************** &lt;br/&gt;901, Criminal Attempt&lt;br/&gt;"/><marker lat="40.424916530524058" lng="-79.9520359740022" zone="Zone 4" incidentdate="2015-07-19" incidenttime="00:15:00" incidentnumber="15133008" address="Greenfield Ave &amp; Irvine St" type="OFFENSE" age="" gender="" description="*********************************************** &lt;br/&gt;5503(a)(4), DISORDERLY CONDUCT - HAZARDOUS/PHYS. OFF&lt;br/&gt;5505, Public Drunkenness&lt;br/&gt;5507, Obstructing Highways and Passages.&lt;br/&gt;"/><marker lat="40.467207829941444" lng="-79.937563678689926" zone="Zone 5" incidentdate="2015-07-19" incidenttime="17:10:00" incidentnumber="15133456" address="5300 block Rosetta St" type="OFFENSE" age="" gender="" description="*********************************************** &lt;br/&gt;2701, Simple Assault.&lt;br/&gt;3502, Burglary.&lt;br/&gt;"/><marker lat="40.426340817055319" lng="-79.988710303817541" zone="Zone 3" incidentdate="2015-07-19" incidenttime="17:56:00" incidentnumber="15133496" address="S 10th St" type="OFFENSE" age="" gender="" description="*********************************************** &lt;br/&gt;9999, 9999 - (Misc. Incident):&lt;br/&gt;"/><marker lat="40.422804158977215" lng="-79.933791259277641" zone="Zone 4" incidentdate="2015-07-19" incidenttime="08:30:00" incidentnumber="15133301" address="900 block Norfolk St" type="OFFENSE" age="" gender="" description="*********************************************** &lt;br/&gt;3934, Theft from Vehicle&lt;br/&gt;"/><marker lat="40.455476857523522" lng="-80.00656732886803" zone="Zone 1" incidentdate="2015-07-19" incidenttime="09:45:00" incidentnumber="15133257" address="1100 block Federal St N" type="OFFENSE" age="" gender="" description="*********************************************** &lt;br/&gt;2701, Simple Assault.&lt;br/&gt;"/><marker lat="40.4259766" lng="-79.9862684" zone="Zone 3" incidentdate="2015-07-19" incidenttime="00:05:00" incidentnumber="15133532" address="1200 block Breed St" type="OFFENSE" age="" gender="" description="*********************************************** &lt;br/&gt;3921(a), Theft by Unlawful Taking or Disposition - Movable item&lt;br/&gt;"/><marker lat="40.453285126966584" lng="-80.054579750288909" zone="Zone 6" incidentdate="2015-07-19" incidenttime="01:11:00" incidentnumber="15133084" address="Chartiers Ave &amp; Hillsboro St" type="OFFENSE" age="" gender="" description="*********************************************** &lt;br/&gt;9999, 9999 - (Misc. Incident):&lt;br/&gt;"/><marker lat="40.452042212663898" lng="-80.008738896002342" zone="Zone 1" incidentdate="2015-07-19" incidenttime="01:13:00" incidentnumber="15133052" address="200 block Ridge Ave" type="OFFENSE" age="" gender="" description="*********************************************** &lt;br/&gt;029, Missing Juvenile&lt;br/&gt;"/><marker lat="40.4553802" lng="-80.0536626" zone="Zone 6" incidentdate="2015-07-19" incidenttime="08:25:00" incidentnumber="15133223" address="3000 block Bergman St" type="OFFENSE" age="" gender="" description="*********************************************** &lt;br/&gt;9488, False  Burglar Alarm&lt;br/&gt;"/><marker lat="40.463509423233837" lng="-79.948934478974223" zone="Zone 5" incidentdate="2015-07-19" incidenttime="11:20:00" incidentnumber="15133329" address="Friendship Ave &amp; Pearl St" type="OFFENSE" age="" gender="" description="*********************************************** &lt;br/&gt;2709(a), Harassment.&lt;br/&gt;"/><marker lat="40.484341270494852" lng="-79.933143683260028" zone="Zone 5" incidentdate="2015-07-19" incidenttime="09:00:00" incidentnumber="15133213" address="Farmington St &amp; Lansing Way" type="OFFENSE" age="" gender="" description="*********************************************** &lt;br/&gt;9496, Dead on Arrival (DOA)&lt;br/&gt;"/><marker lat="40.427839244403479" lng="-79.969806006803296" zone="Zone 3" incidentdate="2015-07-19" incidenttime="02:05:00" incidentnumber="15133120" address="E Carson St &amp; S 25th St" type="OFFENSE" age="" gender="" description="*********************************************** &lt;br/&gt;3743, Accidents Involving Damage to Attended Veh. or Property&lt;br/&gt;"/><marker lat="40.42155201085292" lng="-79.99720376810096" zone="Zone 3" incidentdate="2015-07-19" incidenttime="11:11:00" incidentnumber="15133290" address="600 block E Warrington Ave" type="OFFENSE" age="" gender="" description="*********************************************** &lt;br/&gt;9496, Dead on Arrival (DOA)&lt;br/&gt;"/><marker lat="40.460879170018735" lng="-79.91683710956913" zone="Zone 5" incidentdate="2015-07-19" incidenttime="19:30:00" incidentnumber="15133540" address="300 block Enright Ct" type="OFFENSE" age="" gender="" description="*********************************************** &lt;br/&gt;3304, Criminal Mischief.&lt;br/&gt;"/><marker lat="40.443827070123405" lng="-79.993845340890502" zone="Zone 2" incidentdate="2015-07-19" incidenttime="00:34:00" incidentnumber="15133055" address="LIBERTY Ave &amp; GRANT St" type="OFFENSE" age="" gender="" description="*********************************************** &lt;br/&gt;3111, Obedience to Traffic-Control Devices.&lt;br/&gt;3925, Receiving Stolen Property.&lt;br/&gt;"/><marker lat="40.428746746224945" lng="-79.982646526389246" zone="Zone 3" incidentdate="2015-07-19" incidenttime="02:05:00" incidentnumber="15133089" address="1600 block E Carson St" type="OFFENSE" age="" gender="" description="*********************************************** &lt;br/&gt;2701, Simple Assault.&lt;br/&gt;5503, Disorderly Conduct.&lt;br/&gt;5104, Resisting Arrest or Other Law Enforcement.&lt;br/&gt;5505, Public Drunkenness&lt;br/&gt;3503(b.1)(i), Simple Trespasser -- threatening or terrorizing the owner or occupant of the premises&lt;br/&gt;"/><marker lat="40.456349117459254" lng="-79.96625048371196" zone="Zone 2" incidentdate="2015-07-19" incidenttime="07:15:00" incidentnumber="15133325" address="3200 block Brereton St" type="OFFENSE" age="" gender="" description="*********************************************** &lt;br/&gt;3745, Accidents Involving Damage to Unattended Veh.or Prop.&lt;br/&gt;"/><marker lat="40.420581504706846" lng="-79.927044846152171" zone="Zone 4" incidentdate="2015-07-19" incidenttime="09:30:00" incidentnumber="15133252" address="3400 block Beechwood Blvd" type="OFFENSE" age="" gender="" description="*********************************************** &lt;br/&gt;3934, Theft from Vehicle&lt;br/&gt;"/><marker lat="40.463782939748789" lng="-80.02270722547928" zone="Zone 1" incidentdate="2015-07-19" incidenttime="03:55:00" incidentnumber="15133161" address="Brighton Rd &amp; Island Ave" type="OFFENSE" age="" gender="" description="*********************************************** &lt;br/&gt;3802(a)(1), DUI - General Impairment&lt;br/&gt;"/><marker lat="40.456234707681155" lng="-80.080265702325406" zone="Zone 6" incidentdate="2015-07-19" incidenttime="11:45:00" incidentnumber="15133296" address="3700 block Wind Gap Ave" type="OFFENSE" age="" gender="" description="*********************************************** &lt;br/&gt;9488, False  Burglar Alarm&lt;br/&gt;"/><marker lat="40.458470135421997" lng="-80.006479820139702" zone="Zone 1" incidentdate="2015-07-19" incidenttime="05:31:00" incidentnumber="15133197" address="1500 block Boyle St" type="OFFENSE" age="" gender="" description="*********************************************** &lt;br/&gt;3502, Burglary.&lt;br/&gt;3925, Receiving Stolen Property.&lt;br/&gt;13(a)(32), Paraphernalia - Use or Possession&lt;br/&gt;"/><marker lat="40.450588490629549" lng="-79.935462167387811" zone="Zone 4" incidentdate="2015-07-19" incidenttime="12:15:00" incidentnumber="15133421" address="5400 block Walnut St" type="OFFENSE" age="" gender="" description="*********************************************** &lt;br/&gt;3929, Retail Theft.&lt;br/&gt;"/><marker lat="40.428834925885639" lng="-79.982047583109136" zone="Zone 3" incidentdate="2015-07-19" incidenttime="00:05:00" incidentnumber="15133046" address="S 17th St &amp; E Carson St" type="OFFENSE" age="" gender="" description="*********************************************** &lt;br/&gt;3743, Accidents Involving Damage to Attended Veh. or Property&lt;br/&gt;"/><marker lat="40.465742686724063" lng="-79.981257181433378" zone="Zone 1" incidentdate="2015-07-19" incidenttime="08:59:00" incidentnumber="15133238" address="1900 block Lowrie St" type="OFFENSE" age="" gender="" description="*********************************************** &lt;br/&gt;3934, Theft from Vehicle&lt;br/&gt;2701, Simple Assault.&lt;br/&gt;"/><marker lat="40.478253493338741" lng="-80.040270139012904" zone="Zone 1" incidentdate="2015-07-19" incidenttime="08:30:00" incidentnumber="15133235" address="3500 block California Ave" type="OFFENSE" age="" gender="" description="*********************************************** &lt;br/&gt;3304, Criminal Mischief.&lt;br/&gt;"/><marker lat="40.47742158791479" lng="-80.028186771907443" zone="Zone 1" incidentdate="2015-07-19" incidenttime="11:00:00" incidentnumber="15133310" address="1100 block Langtry St" type="OFFENSE" age="" gender="" description="*********************************************** &lt;br/&gt;3745, Accidents Involving Damage to Unattended Veh.or Prop.&lt;br/&gt;"/><marker lat="40.455614810370541" lng="-79.867943288231572" zone="Zone 5" incidentdate="2015-07-19" incidenttime="11:30:00" incidentnumber="15133299" address="Bracey Ct" type="OFFENSE" age="" gender="" description="*********************************************** &lt;br/&gt;9999, 9999 - (Misc. Incident):&lt;br/&gt;"/><marker lat="40.450892721440539" lng="-80.000843891836467" zone="Zone 1" incidentdate="2015-07-19" incidenttime="13:23:00" incidentnumber="15133349" address="300 block Cedar Ave" type="OFFENSE" age="" gender="" description="*********************************************** &lt;br/&gt;3929, Retail Theft.&lt;br/&gt;"/><marker lat="40.454940175208797" lng="-79.940585296338455" zone="Zone 4" incidentdate="2015-07-19" incidenttime="08:00:00" incidentnumber="15133231" address="5200 block Centre Ave" type="OFFENSE" age="" gender="" description="*********************************************** &lt;br/&gt;3745, Accidents Involving Damage to Unattended Veh.or Prop.&lt;br/&gt;"/><marker lat="40.429232248771257" lng="-79.975998950011828" zone="Zone 3" incidentdate="2015-07-19" incidenttime="09:45:00" incidentnumber="15133262" address="2100 block Sidney St" type="OFFENSE" age="" gender="" description="*********************************************** &lt;br/&gt;3304, Criminal Mischief.&lt;br/&gt;3934, Theft from Vehicle&lt;br/&gt;"/><marker lat="40.393515742313681" lng="-80.020021227154487" zone="Zone 6" incidentdate="2015-07-19" incidenttime="15:00:00" incidentnumber="15133371" address="800 block Brookline Blvd" type="OFFENSE" age="" gender="" description="*********************************************** &lt;br/&gt;9999, 9999 - (Misc. Incident):&lt;br/&gt;"/><marker lat="40.395625191374293" lng="-79.988930198696607" zone="Zone 3" incidentdate="2015-07-19" incidenttime="17:35:00" incidentnumber="15133509" address="1900 block Oakhurst Way" type="OFFENSE" age="" gender="" description="*********************************************** &lt;br/&gt;3921(a), Theft by Unlawful Taking or Disposition - Movable item&lt;br/&gt;"/><marker lat="40.458105839034275" lng="-79.895952176525583" zone="Zone 5" incidentdate="2015-07-19" incidenttime="15:50:00" incidentnumber="15133409" address="7200 block Idlewild St" type="OFFENSE" age="" gender="" description="*********************************************** &lt;br/&gt;2709(a)(1), Harassment by Physical Contact, or Attempts or Threats&lt;br/&gt;"/><marker lat="40.452958865182815" lng="-80.051332243986664" zone="Zone 6" incidentdate="2015-07-19" incidenttime="20:05:00" incidentnumber="15133565" address="2700 block Bergman St" type="OFFENSE" age="" gender="" description="*********************************************** &lt;br/&gt;3921, Theft by Unlawful Taking or Disposition.&lt;br/&gt;"/><marker lat="40.45186218460168" lng="-79.967606962653576" zone="Zone 2" incidentdate="2015-07-19" incidenttime="16:30:00" incidentnumber="15133475" address="700 block Webster Ter" type="OFFENSE" age="" gender="" description="*********************************************** &lt;br/&gt;3745, Accidents Involving Damage to Unattended Veh.or Prop.&lt;br/&gt;"/><marker lat="40.418280954692698" lng="-80.013849083874248" zone="Zone 3" incidentdate="2015-07-19" incidenttime="10:11:00" incidentnumber="15133245" address="Southern Ave" type="OFFENSE" age="" gender="" description="*********************************************** &lt;br/&gt;3307, Institutional Vandalism.&lt;br/&gt;"/><marker lat="40.429228381173026" lng="-79.980513714480466" zone="Zone 3" incidentdate="2015-07-19" incidenttime="02:50:00" incidentnumber="15133092" address="Wrights Way &amp; S 18th St" type="OFFENSE" age="" gender="" description="*********************************************** &lt;br/&gt;6106, Firearms not to be Carried without a License.&lt;br/&gt;3925, Receiving Stolen Property.&lt;br/&gt;"/><marker lat="40.422256910377143" lng="-79.930151705939807" zone="Zone 4" incidentdate="2015-07-19" incidenttime="11:00:00" incidentnumber="15133307" address="1000 block Greenfield Ave" type="OFFENSE" age="" gender="" description="*********************************************** &lt;br/&gt;3934, Theft from Vehicle&lt;br/&gt;"/><marker lat="40.457070421992924" lng="-79.955168912479252" zone="Zone 2" incidentdate="2015-07-19" incidenttime="15:35:00" incidentnumber="15133467" address="Bigelow Blvd &amp; N Craig St" type="OFFENSE" age="" gender="" description="*********************************************** &lt;br/&gt;3743, Accidents Involving Damage to Attended Veh. or Property&lt;br/&gt;"/><marker lat="40.490475754887754" lng="-80.022665948349939" zone="Zone 1" incidentdate="2015-07-19" incidenttime="19:00:00" incidentnumber="15133516" address="4000 block Vinceton St" type="OFFENSE" age="" gender="" description="*********************************************** &lt;br/&gt;13(a)(16), Possession of Controlled Substance&lt;br/&gt;"/><marker lat="40.451516963357903" lng="-80.090037197001209" zone="Zone 6" incidentdate="2015-07-19" incidenttime="00:08:00" incidentnumber="15133005" address="1600 block Chartiers Valley Ln" type="OFFENSE" age="" gender="" description="*********************************************** &lt;br/&gt;9488, False  Burglar Alarm&lt;br/&gt;"/><marker lat="40.425371808712953" lng="-79.94216631853314" zone="Zone 4" incidentdate="2015-07-19" incidenttime="01:40:00" incidentnumber="15133074" address="500 block Greenfield Ave" type="OFFENSE" age="" gender="" description="*********************************************** &lt;br/&gt;2702, Aggravated Assault.&lt;br/&gt;"/><marker lat="40.468693075773288" lng="-79.961677392158549" zone="Zone 2" incidentdate="2015-07-19" incidenttime="04:13:00" incidentnumber="15133179" address="4000 block Butler St" type="OFFENSE" age="" gender="" description="*********************************************** &lt;br/&gt;9093, Indirect Criminal Contempt&lt;br/&gt;"/><marker lat="40.437801695240545" lng="-79.972791491902257" zone="Zone 4" incidentdate="2015-07-19" incidenttime="02:50:00" incidentnumber="15133144" address="2300 block 5th Ave" type="OFFENSE" age="" gender="" description="*********************************************** &lt;br/&gt;5503, Disorderly Conduct.&lt;br/&gt;"/><marker lat="40.469257392481524" lng="-79.978846464391097" zone="Zone 1" incidentdate="2015-07-19" incidenttime="08:00:00" incidentnumber="15133271" address="2100 block Lowrie St" type="OFFENSE" age="" gender="" description="*********************************************** &lt;br/&gt;3809(a), Restriction on Alcoholic Beverages in Vehicle&lt;br/&gt;6308(a), Underage Purchase, Consume, Possessed or Transport Liquor&lt;br/&gt;13(a)(32), Paraphernalia - Use or Possession&lt;br/&gt;"/><marker lat="40.428585203983602" lng="-79.981869007680203" zone="Zone 3" incidentdate="2015-07-19" incidenttime="01:34:00" incidentnumber="15133068" address="1700 block E Carson St" type="OFFENSE" age="" gender="" description="*********************************************** &lt;br/&gt;2702, Aggravated Assault.&lt;br/&gt;5503(a)(1), DISORDERLY CONDUCT - ENGAGE IN FIGHTING&lt;br/&gt;5104, Resisting Arrest or Other Law Enforcement.&lt;br/&gt;"/><marker lat="40.473481657556931" lng="-80.030293399269624" zone="Zone 1" incidentdate="2015-07-19" incidenttime="02:00:00" incidentnumber="15133295" address="3100 block Staho Way" type="OFFENSE" age="" gender="" description="*********************************************** &lt;br/&gt;9489, Found Property&lt;br/&gt;"/><marker lat="40.465757913835297" lng="-79.929035730197427" zone="Zone 5" incidentdate="2015-07-19" incidenttime="19:45:00" incidentnumber="15133436" address="300 block N Negley Ave" type="OFFENSE" age="" gender="" description="*********************************************** &lt;br/&gt;9999, 9999 - (Misc. Incident):&lt;br/&gt;"/><marker lat="40.429228381173026" lng="-79.980513714480466" zone="Zone 3" incidentdate="2015-07-19" incidenttime="02:06:00" incidentnumber="15133092" address="Wrights Way &amp; S 18th St" type="ARREST" age="23" gender="M" description="*********************************************** &lt;br/&gt;6106, Firearms not to be Carried without a License.&lt;br/&gt;3925, Receiving Stolen Property.&lt;br/&gt;"/><marker lat="40.429228381173026" lng="-79.980513714480466" zone="Zone 3" incidentdate="2015-07-19" incidenttime="02:20:00" incidentnumber="15133103" address="S 18th St &amp; Wrights Way" type="ARREST" age="22" gender="M" description="*********************************************** &lt;br/&gt;13(a)(31), Marijuana: Possession Small Amount&lt;br/&gt;"/><marker lat="40.462781718443601" lng="-80.02984361791755" zone="Zone 1" incidentdate="2015-07-19" incidenttime="17:33:00" incidentnumber="15133485" address="2300 block Mannheim St" type="ARREST" age="33" gender="M" description="*********************************************** &lt;br/&gt;5121, Escape.&lt;br/&gt;"/><marker lat="40.489468876005951" lng="-79.928046411716096" zone="Zone 5" incidentdate="2015-07-19" incidenttime="12:47:00" incidentnumber="15133304" address="6700 block Butler St" type="ARREST" age="44" gender="M" description="*********************************************** &lt;br/&gt;3735.1, Aggravated Assault While DUI&lt;br/&gt;3802(a)(1), DUI - General Impairment&lt;br/&gt;"/><marker lat="40.469257392481524" lng="-79.978846464391097" zone="Zone 1" incidentdate="2015-07-19" incidenttime="08:15:00" incidentnumber="15122455" address="2100 block Lowrie St" type="ARREST" age="20" gender="M" description="*********************************************** &lt;br/&gt;2706, Terroristic Threats.&lt;br/&gt;2701, Simple Assault.&lt;br/&gt;"/><marker lat="40.443827070123405" lng="-79.993845340890502" zone="Zone 2" incidentdate="2015-07-19" incidenttime="01:00:00" incidentnumber="15133055" address="LIBERTY Ave &amp; GRANT St" type="ARREST" age="21" gender="M" description="*********************************************** &lt;br/&gt;3111, Obedience to Traffic-Control Devices.&lt;br/&gt;3925, Receiving Stolen Property.&lt;br/&gt;"/><marker lat="40.468693075773288" lng="-79.961677392158549" zone="Zone 2" incidentdate="2015-07-19" incidenttime="04:39:00" incidentnumber="15133179" address="4000 block Butler St" type="ARREST" age="32" gender="M" description="*********************************************** &lt;br/&gt;9093, Indirect Criminal Contempt&lt;br/&gt;"/><marker lat="40.424916530524058" lng="-79.9520359740022" zone="Zone 4" incidentdate="2015-07-19" incidenttime="00:30:00" incidentnumber="15133008" address="Greenfield Ave &amp; Irvine St" type="ARREST" age="22" gender="M" description="*********************************************** &lt;br/&gt;5503(a)(4), DISORDERLY CONDUCT - HAZARDOUS/PHYS. OFF&lt;br/&gt;5505, Public Drunkenness&lt;br/&gt;5507, Obstructing Highways and Passages.&lt;br/&gt;"/><marker lat="40.463782939748789" lng="-80.02270722547928" zone="Zone 1" incidentdate="2015-07-19" incidenttime="03:55:00" incidentnumber="15133161" address="Brighton Rd &amp; Island Ave" type="ARREST" age="25" gender="M" description="*********************************************** &lt;br/&gt;3802(a)(1), DUI - General Impairment&lt;br/&gt;"/><marker lat="40.421531877189601" lng="-79.993577564166102" zone="Zone 3" incidentdate="2015-07-19" incidenttime="23:45:00" incidentnumber="15021167" address="800 block E Warrington Ave" type="ARREST" age="30" gender="F" description="*********************************************** &lt;br/&gt;13(a)(30)*, Delivery of Controlled Substance&lt;br/&gt;13(a)(16), Possession of Controlled Substance&lt;br/&gt;13(a)(30), Possession w/ Intent to Del. Controlled Substance&lt;br/&gt;"/><marker lat="40.428746746224945" lng="-79.982646526389246" zone="Zone 3" incidentdate="2015-07-19" incidenttime="02:05:00" incidentnumber="15133089" address="1600 block E Carson St" type="ARREST" age="24" gender="M" description="*********************************************** &lt;br/&gt;2701, Simple Assault.&lt;br/&gt;5503, Disorderly Conduct.&lt;br/&gt;5104, Resisting Arrest or Other Law Enforcement.&lt;br/&gt;5505, Public Drunkenness&lt;br/&gt;3503(b.1)(i), Simple Trespasser -- threatening or terrorizing the owner or occupant of the premises&lt;br/&gt;"/><marker lat="40.429228381173026" lng="-79.980513714480466" zone="Zone 3" incidentdate="2015-07-19" incidenttime="02:47:00" incidentnumber="15133092" address="Wrights Way &amp; S 18th St" type="ARREST" age="22" gender="M" description="*********************************************** &lt;br/&gt;6106, Firearms not to be Carried without a License.&lt;br/&gt;3925, Receiving Stolen Property.&lt;br/&gt;"/><marker lat="40.428096152469237" lng="-79.972924883274374" zone="Zone 3" incidentdate="2015-07-19" incidenttime="03:22:00" incidentnumber="15133141" address="2300 block E Carson St" type="ARREST" age="24" gender="F" description="*********************************************** &lt;br/&gt;3743, Accidents Involving Damage to Attended Veh. or Property&lt;br/&gt;3802(b), DUI - High Rate of Alchol - BAC &gt;=.10% &lt;.16%&lt;br/&gt;3802(a)(1), DUI - General Impairment&lt;br/&gt;"/><marker lat="40.469257392481524" lng="-79.978846464391097" zone="Zone 1" incidentdate="2015-07-19" incidenttime="08:15:00" incidentnumber="15126506" address="2100 block Lowrie St" type="ARREST" age="20" gender="M" description="*********************************************** &lt;br/&gt;3921, Theft by Unlawful Taking or Disposition.&lt;br/&gt;"/><marker lat="40.465238180504905" lng="-79.95125664568981" zone="Zone 5" incidentdate="2015-07-19" incidenttime="04:38:00" incidentnumber="15133018" address="4500 block Carroll St" type="ARREST" age="29" gender="F" description="*********************************************** &lt;br/&gt;2701, Simple Assault.&lt;br/&gt;"/><marker lat="40.469257392481524" lng="-79.978846464391097" zone="Zone 1" incidentdate="2015-07-19" incidenttime="08:00:00" incidentnumber="15133271" address="2100 block Lowrie St" type="ARREST" age="20" gender="F" description="*********************************************** &lt;br/&gt;3809(a), Restriction on Alcoholic Beverages in Vehicle&lt;br/&gt;6308(a), Underage Purchase, Consume, Possessed or Transport Liquor&lt;br/&gt;13(a)(32), Paraphernalia - Use or Possession&lt;br/&gt;"/><marker lat="40.427929065959248" lng="-79.982139788014067" zone="Zone 3" incidentdate="2015-07-19" incidenttime="00:45:00" incidentnumber="15133022" address="S 17th St &amp; Sarah St" type="ARREST" age="22" gender="M" description="*********************************************** &lt;br/&gt;2702, Aggravated Assault.&lt;br/&gt;2701, Simple Assault.&lt;br/&gt;5104, Resisting Arrest or Other Law Enforcement.&lt;br/&gt;5505, Public Drunkenness&lt;br/&gt;5121, Escape.&lt;br/&gt;"/><marker lat="40.458470135421997" lng="-80.006479820139702" zone="Zone 1" incidentdate="2015-07-19" incidenttime="05:43:00" incidentnumber="15133197" address="1500 block Boyle St" type="ARREST" age="56" gender="M" description="*********************************************** &lt;br/&gt;3502, Burglary.&lt;br/&gt;3925, Receiving Stolen Property.&lt;br/&gt;13(a)(32), Paraphernalia - Use or Possession&lt;br/&gt;"/><marker lat="40.435095503606554" lng="-79.993077686753679" zone="Zone 2" incidentdate="2015-07-19" incidenttime="10:15:00" incidentnumber="15119292" address="900 block 2ND Ave" type="ARREST" age="59" gender="M" description="*********************************************** &lt;br/&gt;3921(a), Theft by Unlawful Taking or Disposition - Movable item&lt;br/&gt;3925, Receiving Stolen Property.&lt;br/&gt;"/><marker lat="40.428606966018023" lng="-79.985175111647919" zone="Zone 3" incidentdate="2015-07-19" incidenttime="20:54:00" incidentnumber="15133596" address="1300 block E Carson St" type="ARREST" age="" gender="F" description="*********************************************** &lt;br/&gt;2702, Aggravated Assault.&lt;br/&gt;3503.B1I, DEF. TRESPASS ACTUAL COMMUNICATION&lt;br/&gt;5503, Disorderly Conduct.&lt;br/&gt;"/><marker lat="40.467207829941444" lng="-79.937563678689926" zone="Zone 5" incidentdate="2015-07-19" incidenttime="20:00:00" incidentnumber="15133456" address="5300 block Rosetta St" type="ARREST" age="38" gender="F" description="*********************************************** &lt;br/&gt;2701, Simple Assault.&lt;br/&gt;3502, Burglary.&lt;br/&gt;"/><marker lat="40.428585203983602" lng="-79.981869007680203" zone="Zone 3" incidentdate="2015-07-19" incidenttime="01:34:00" incidentnumber="15133068" address="1700 block E Carson St" type="ARREST" age="24" gender="M" description="*********************************************** &lt;br/&gt;2702, Aggravated Assault.&lt;br/&gt;5503(a)(1), DISORDERLY CONDUCT - ENGAGE IN FIGHTING&lt;br/&gt;5104, Resisting Arrest or Other Law Enforcement.&lt;br/&gt;"/><marker lat="40.418280954692698" lng="-80.013849083874248" zone="Zone 3" incidentdate="2015-07-19" incidenttime="10:11:00" incidentnumber="15133245" address="Southern Ave" type="ARREST" age="37" gender="M" description="*********************************************** &lt;br/&gt;3307, Institutional Vandalism.&lt;br/&gt;"/><marker lat="40.450892721440539" lng="-80.000843891836467" zone="Zone 1" incidentdate="2015-07-19" incidenttime="13:45:00" incidentnumber="15133349" address="300 block Cedar Ave" type="ARREST" age="32" gender="M" description="*********************************************** &lt;br/&gt;3929, Retail Theft.&lt;br/&gt;"/></markers>
