<?xml version="1.0"?>
<markers><marker lat="40.44399023304031" lng="-80.002630134211415" zone="Zone 2" incidentdate="2015-10-15" incidenttime="10:50:00" incidentnumber="15197941" address="100 block 6th St" type="OFFENSE" age="" gender="" description="*********************************************** &lt;br/&gt;3921, Theft by Unlawful Taking or Disposition.&lt;br/&gt;"/><marker lat="40.456096118462462" lng="-80.015347768645881" zone="Zone 1" incidentdate="2015-10-15" incidenttime="21:05:00" incidentnumber="15198332" address="Pennsylvania Ave &amp; Brighton Rd" type="OFFENSE" age="" gender="" description="*********************************************** &lt;br/&gt;13(a)(32), Paraphernalia - Use or Possession&lt;br/&gt;5505, Public Drunkenness&lt;br/&gt;"/><marker lat="40.430022325897767" lng="-79.975395473021607" zone="Zone 3" incidentdate="2015-10-15" incidenttime="11:15:00" incidentnumber="15198031" address="2100 block Wharton St" type="OFFENSE" age="" gender="" description="*********************************************** &lt;br/&gt;5505, Public Drunkenness&lt;br/&gt;"/><marker lat="40.410356742633624" lng="-79.990376092457225" zone="Zone 3" incidentdate="2015-10-15" incidenttime="10:00:00" incidentnumber="15197937" address="200 block Suncrest St" type="OFFENSE" age="" gender="" description="*********************************************** &lt;br/&gt;3304(a)(4), CRIMINAL MISCHIEF- Intentionally Damage Property (By Graffiti, Aerosol Spray Paint, Broad Tip Marker, or Similar)&lt;br/&gt;"/><marker lat="40.443610698976059" lng="-79.998043561602501" zone="Zone 2" incidentdate="2015-10-15" incidenttime="06:39:00" incidentnumber="15197794" address="900 block Penn Ave" type="OFFENSE" age="" gender="" description="*********************************************** &lt;br/&gt;5505, Public Drunkenness&lt;br/&gt;"/><marker lat="40.478846468228319" lng="-80.043103207786132" zone="Zone 1" incidentdate="2015-10-15" incidenttime="11:05:00" incidentnumber="15197919" address="Ohio River Blvd &amp; McKees Rocks Brg" type="OFFENSE" age="" gender="" description="*********************************************** &lt;br/&gt;5507, Obstructing Highways and Passages.&lt;br/&gt;"/><marker lat="40.409907809469559" lng="-79.944055701424162" zone="Zone 4" incidentdate="2015-10-15" incidenttime="14:45:00" incidentnumber="15198140" address="4900 block 2nd Ave" type="OFFENSE" age="" gender="" description="*********************************************** &lt;br/&gt;3921(a), Theft by Unlawful Taking or Disposition - Movable item&lt;br/&gt;"/><marker lat="40.451819528786032" lng="-79.893609842291738" zone="Zone 5" incidentdate="2015-10-15" incidenttime="15:00:00" incidentnumber="15198080" address="7500 block Susquehanna St" type="OFFENSE" age="" gender="" description="*********************************************** &lt;br/&gt;3921(a), Theft by Unlawful Taking or Disposition - Movable item&lt;br/&gt;"/><marker lat="40.489137566028816" lng="-80.040304019185143" zone="Zone 1" incidentdate="2015-10-15" incidenttime="19:40:00" incidentnumber="15198275" address="4000 block Shoreham St" type="OFFENSE" age="" gender="" description="*********************************************** &lt;br/&gt;9497, Aided Case&lt;br/&gt;"/><marker lat="40.456938366162987" lng="-79.894058187967261" zone="Zone 5" incidentdate="2015-10-15" incidenttime="17:47:00" incidentnumber="15198172" address="7300 block Frankstown Ave" type="OFFENSE" age="" gender="" description="*********************************************** &lt;br/&gt;3503, Criminal Trespass&lt;br/&gt;"/><marker lat="40.47858752419932" lng="-80.038474537164149" zone="Zone 1" incidentdate="2015-10-15" incidenttime="08:30:00" incidentnumber="15197851" address="3500 block Fleming Ave" type="OFFENSE" age="" gender="" description="*********************************************** &lt;br/&gt;3921, Theft by Unlawful Taking or Disposition.&lt;br/&gt;"/><marker lat="40.458008828926708" lng="-79.904081147807332" zone="Zone 5" incidentdate="2015-10-15" incidenttime="17:45:00" incidentnumber="15198204" address="N Dallas Ave &amp; Bennett St" type="OFFENSE" age="" gender="" description="*********************************************** &lt;br/&gt;2701, Simple Assault.&lt;br/&gt;"/><marker lat="40.41980566691268" lng="-79.929179248138482" zone="Zone 4" incidentdate="2015-10-15" incidenttime="14:14:00" incidentnumber="15198046" address="800 block Hazelwood Ave" type="OFFENSE" age="" gender="" description="*********************************************** &lt;br/&gt;3929, Retail Theft.&lt;br/&gt;"/><marker lat="40.46200880678763" lng="-79.95391294228159" zone="Zone 5" incidentdate="2015-10-15" incidenttime="02:06:00" incidentnumber="15197732" address="400 block Dargan St" type="OFFENSE" age="" gender="" description="*********************************************** &lt;br/&gt;9130, Graffiti Investigation&lt;br/&gt;"/><marker lat="40.453943576163169" lng="-79.89061907056464" zone="Zone 5" incidentdate="2015-10-15" incidenttime="10:55:00" incidentnumber="15197909" address="7600 block Kelly St" type="OFFENSE" age="" gender="" description="*********************************************** &lt;br/&gt;3802(a)(1), DUI - General Impairment&lt;br/&gt;3802(c), DUI - Highest Rate of Alcohol - BAC &gt;= .16%&lt;br/&gt;3928, Unauthorized Use of Automobile and Other Vehicles.&lt;br/&gt;"/><marker lat="40.423055439338114" lng="-79.998574242741796" zone="Zone 3" incidentdate="2015-10-15" incidenttime="07:34:00" incidentnumber="15197817" address="Craighead St" type="OFFENSE" age="" gender="" description="*********************************************** &lt;br/&gt;3502, Burglary.&lt;br/&gt;"/><marker lat="40.457259290588297" lng="-79.893935334897606" zone="Zone 5" incidentdate="2015-10-15" incidenttime="16:00:00" incidentnumber="15198107" address="7300 block Forest Way" type="OFFENSE" age="" gender="" description="*********************************************** &lt;br/&gt;3304, Criminal Mischief.&lt;br/&gt;"/><marker lat="40.400002608625705" lng="-79.989850080723912" zone="Zone 3" incidentdate="2015-10-15" incidenttime="11:00:00" incidentnumber="15197915" address="1600 block Dellrose St" type="OFFENSE" age="" gender="" description="*********************************************** &lt;br/&gt;3502, Burglary.&lt;br/&gt;"/><marker lat="40.447645064416577" lng="-80.003543493233025" zone="Zone 1" incidentdate="2015-10-15" incidenttime="08:40:00" incidentnumber="15197854" address="Isabella St &amp; Range Way" type="OFFENSE" age="" gender="" description="*********************************************** &lt;br/&gt;3743, Accidents Involving Damage to Attended Veh. or Property&lt;br/&gt;"/><marker lat="40.428310737985385" lng="-79.973109967204991" zone="Zone 3" incidentdate="2015-10-15" incidenttime="10:41:00" incidentnumber="15197906" address="100 block S 23rd St" type="OFFENSE" age="" gender="" description="*********************************************** &lt;br/&gt;9496, Dead on Arrival (DOA)&lt;br/&gt;"/><marker lat="40.420926060644575" lng="-80.002316333097454" zone="Zone 3" incidentdate="2015-10-15" incidenttime="17:20:00" incidentnumber="15198143" address="300 block E Warrington Ave" type="OFFENSE" age="" gender="" description="*********************************************** &lt;br/&gt;13(a)(16), Possession of Controlled Substance&lt;br/&gt;13(a)(30), Possession w/ Intent to Del. Controlled Substance&lt;br/&gt;"/><marker lat="40.421796968159853" lng="-80.012747466268337" zone="Zone 3" incidentdate="2015-10-15" incidenttime="12:14:00" incidentnumber="15197951" address="600 block Southern Ave" type="OFFENSE" age="" gender="" description="*********************************************** &lt;br/&gt;2701, Simple Assault.&lt;br/&gt;"/><marker lat="40.458170145381978" lng="-79.998144409106729" zone="Zone 1" incidentdate="2015-10-15" incidenttime="01:30:00" incidentnumber="15197704" address="Madison Ave &amp; Vista St" type="OFFENSE" age="" gender="" description="*********************************************** &lt;br/&gt;3802(a)(1), DUI - General Impairment&lt;br/&gt;3802(c), DUI - Highest Rate of Alcohol - BAC &gt;= .16%&lt;br/&gt;3308, One-Way Roadways and Rotary Traffic Islands.&lt;br/&gt;"/><marker lat="40.453068030092489" lng="-80.049343022384349" zone="Zone 6" incidentdate="2015-10-15" incidenttime="03:05:00" incidentnumber="15197764" address="2700 block Zephyr Ave" type="OFFENSE" age="" gender="" description="*********************************************** &lt;br/&gt;3921(a), Theft by Unlawful Taking or Disposition - Movable item&lt;br/&gt;901, Criminal Attempt&lt;br/&gt;"/><marker lat="40.386778259172246" lng="-79.995525253954554" zone="Zone 3" incidentdate="2015-10-15" incidenttime="12:10:00" incidentnumber="15197956" address="2300 block Saw Mill Run Blvd" type="OFFENSE" age="" gender="" description="*********************************************** &lt;br/&gt;3743, Accidents Involving Damage to Attended Veh. or Property&lt;br/&gt;"/><marker lat="40.4008629" lng="-80.0024402" zone="Zone 6" incidentdate="2015-10-15" incidenttime="01:50:00" incidentnumber="15197714" address="1500 block Ballinger St" type="OFFENSE" age="" gender="" description="*********************************************** &lt;br/&gt;9489, Found Property&lt;br/&gt;"/><marker lat="40.446799704421302" lng="-79.950588468213041" zone="Zone 4" incidentdate="2015-10-15" incidenttime="09:29:00" incidentnumber="15197868" address="5th Ave &amp; N Dithridge St" type="OFFENSE" age="" gender="" description="*********************************************** &lt;br/&gt;9999, 9999 - (Misc. Incident):&lt;br/&gt;"/><marker lat="40.477093407577023" lng="-80.041016732825128" zone="Zone 1" incidentdate="2015-10-15" incidenttime="16:41:00" incidentnumber="15198114" address="3500 block Mexico St" type="OFFENSE" age="" gender="" description="*********************************************** &lt;br/&gt;9496, Dead on Arrival (DOA)&lt;br/&gt;"/><marker lat="40.42645635917922" lng="-79.973182611730891" zone="Zone 3" incidentdate="2015-10-15" incidenttime="14:00:00" incidentnumber="15197999" address="2300 block Jane St" type="OFFENSE" age="" gender="" description="*********************************************** &lt;br/&gt;3929, Retail Theft.&lt;br/&gt;"/><marker lat="40.441732921543291" lng="-80.006405498352649" zone="Zone 2" incidentdate="2015-10-15" incidenttime="21:43:00" incidentnumber="15198348" address="600 block Commonwealth Pl" type="OFFENSE" age="" gender="" description="*********************************************** &lt;br/&gt;9497, Aided Case&lt;br/&gt;"/><marker lat="40.429422199140106" lng="-79.989833820930656" zone="Zone 3" incidentdate="2015-10-15" incidenttime="20:30:00" incidentnumber="15198327" address="S 9th St &amp; Bingham St" type="OFFENSE" age="" gender="" description="*********************************************** &lt;br/&gt;9490, Missing Persons (18 and Over)&lt;br/&gt;"/><marker lat="40.436554160228923" lng="-79.981444568232604" zone="Zone 2" incidentdate="2015-10-15" incidenttime="08:24:00" incidentnumber="15197834" address="1800 block Locust St" type="OFFENSE" age="" gender="" description="*********************************************** &lt;br/&gt;5505, Public Drunkenness&lt;br/&gt;"/><marker lat="40.475743982324708" lng="-79.999473074803177" zone="Zone 1" incidentdate="2015-10-15" incidenttime="09:02:00" incidentnumber="15197857" address="800 block Mount Pleasant Rd" type="OFFENSE" age="" gender="" description="*********************************************** &lt;br/&gt;9999, 9999 - (Misc. Incident):&lt;br/&gt;"/><marker lat="40.483246555096763" lng="-80.035194746264679" zone="Zone 1" incidentdate="2015-10-15" incidenttime="16:06:00" incidentnumber="15198086" address="3700 block Brighton Rd" type="OFFENSE" age="" gender="" description="*********************************************** &lt;br/&gt;9017, Found Drugs&lt;br/&gt;"/><marker lat="40.440288035189447" lng="-80.025324050192125" zone="Zone 3" incidentdate="2015-10-15" incidenttime="00:40:00" incidentnumber="15197672" address="200 block Republic St" type="OFFENSE" age="" gender="" description="*********************************************** &lt;br/&gt;3745, Accidents Involving Damage to Unattended Veh.or Prop.&lt;br/&gt;"/><marker lat="40.438615294156641" lng="-80.00581600502511" zone="Zone 2" incidentdate="2015-10-15" incidenttime="11:50:00" incidentnumber="15197950" address="200 block Stanwix St" type="OFFENSE" age="" gender="" description="*********************************************** &lt;br/&gt;13(a)(31), Marijuana: Possession Small Amount&lt;br/&gt;"/><marker lat="40.454914852430669" lng="-79.911418325898168" zone="Zone 4" incidentdate="2015-10-15" incidenttime="09:40:00" incidentnumber="15197876" address="5th Ave &amp; Thomas Blvd" type="OFFENSE" age="" gender="" description="*********************************************** &lt;br/&gt;3743, Accidents Involving Damage to Attended Veh. or Property&lt;br/&gt;"/><marker lat="40.45386432339663" lng="-80.061100958535718" zone="Zone 6" incidentdate="2015-10-15" incidenttime="10:20:00" incidentnumber="15197896" address="3100 block Chartiers Ave" type="OFFENSE" age="" gender="" description="*********************************************** &lt;br/&gt;3745, Accidents Involving Damage to Unattended Veh.or Prop.&lt;br/&gt;"/><marker lat="40.452256855851552" lng="-79.950792650653668" zone="Zone 4" incidentdate="2015-10-15" incidenttime="19:18:00" incidentnumber="15198250" address="300 block Melwood Ave" type="OFFENSE" age="" gender="" description="*********************************************** &lt;br/&gt;9999, 9999 - (Misc. Incident):&lt;br/&gt;"/><marker lat="40.434696587775576" lng="-79.996300985228572" zone="Zone 2" incidentdate="2015-10-15" incidenttime="15:30:00" incidentnumber="15189848" address="600 block 1st Ave" type="OFFENSE" age="" gender="" description="*********************************************** &lt;br/&gt;3929, Retail Theft.&lt;br/&gt;903, Criminal Conspiracy.&lt;br/&gt;"/><marker lat="40.424667241989361" lng="-80.029728208515735" zone="Zone 6" incidentdate="2015-10-15" incidenttime="05:00:00" incidentnumber="15197778" address="1200 block Banksville Rd" type="OFFENSE" age="" gender="" description="*********************************************** &lt;br/&gt;9489, Found Property&lt;br/&gt;"/><marker lat="40.455397300341026" lng="-79.997219798418371" zone="Zone 1" incidentdate="2015-10-15" incidenttime="00:55:00" incidentnumber="15197681" address="800 block Peralta St" type="OFFENSE" age="" gender="" description="*********************************************** &lt;br/&gt;2701(a)(1), Simple Assault - Intent., Know., Reckless.Cause Bod. Injury&lt;br/&gt;"/><marker lat="40.407694433480749" lng="-79.999429074024846" zone="Zone 3" incidentdate="2015-10-15" incidenttime="21:00:00" incidentnumber="15198325" address="300 block Conniston Ave" type="OFFENSE" age="" gender="" description="*********************************************** &lt;br/&gt;3502, Burglary.&lt;br/&gt;"/><marker lat="40.4475428" lng="-79.9799323" zone="Zone 2" incidentdate="2015-10-15" incidenttime="10:09:00" incidentnumber="15197877" address="800 block Memory Ln" type="OFFENSE" age="" gender="" description="*********************************************** &lt;br/&gt;3304, Criminal Mischief.&lt;br/&gt;"/><marker lat="40.438245622641972" lng="-79.979393201936006" zone="Zone 2" incidentdate="2015-10-15" incidenttime="11:20:00" incidentnumber="15197925" address="1900 block 5th Ave" type="OFFENSE" age="" gender="" description="*********************************************** &lt;br/&gt;9497, Aided Case&lt;br/&gt;"/><marker lat="40.426513864950046" lng="-79.973223438992079" zone="Zone 3" incidentdate="2015-10-15" incidenttime="15:15:00" incidentnumber="15198195" address="Jane St &amp; S 23rd St" type="OFFENSE" age="" gender="" description="*********************************************** &lt;br/&gt;3304(a)(5), CRIMINAL MISCHIEF - Intentionally Damages Real Or Personal Property Of Another&lt;br/&gt;"/><marker lat="40.425836022877668" lng="-79.935679325983173" zone="Zone 4" incidentdate="2015-10-15" incidenttime="11:00:00" incidentnumber="15198133" address="800 block Flemington St" type="OFFENSE" age="" gender="" description="*********************************************** &lt;br/&gt;517.8, Home Improvement Fraud&lt;br/&gt;"/><marker lat="40.468619358902544" lng="-80.033405422277085" zone="Zone 1" incidentdate="2015-10-15" incidenttime="02:43:00" incidentnumber="15197742" address="1500 block Woodland Ave" type="OFFENSE" age="" gender="" description="*********************************************** &lt;br/&gt;2709(a), Harassment.&lt;br/&gt;"/><marker lat="40.419745084735858" lng="-79.933047930760196" zone="Zone 4" incidentdate="2015-10-15" incidenttime="16:20:00" incidentnumber="15198085" address="700 block Hazelwood Ave" type="OFFENSE" age="" gender="" description="*********************************************** &lt;br/&gt;3701, Robbery.&lt;br/&gt;"/><marker lat="40.456645972111147" lng="-79.906649432588011" zone="Zone 5" incidentdate="2015-10-15" incidenttime="06:53:00" incidentnumber="15197800" address="6800 block Hamilton Ave" type="OFFENSE" age="" gender="" description="*********************************************** &lt;br/&gt;3502, Burglary.&lt;br/&gt;3921, Theft by Unlawful Taking or Disposition.&lt;br/&gt;3925, Receiving Stolen Property.&lt;br/&gt;"/><marker lat="40.4386365" lng="-79.9767441" zone="Zone 4" incidentdate="2015-10-15" incidenttime="16:56:00" incidentnumber="15198122" address="De Ruad St &amp; Wyandotte St" type="OFFENSE" age="" gender="" description="*********************************************** &lt;br/&gt;13(a)(16), Possession of Controlled Substance&lt;br/&gt;13(a)(32), Paraphernalia - Use or Possession&lt;br/&gt;"/><marker lat="40.460768407974605" lng="-80.054473919507714" zone="Zone 6" incidentdate="2015-10-15" incidenttime="22:00:00" incidentnumber="15198392" address="400 block Stadium St" type="OFFENSE" age="" gender="" description="*********************************************** &lt;br/&gt;2709(a), Harassment.&lt;br/&gt;"/><marker lat="40.431578568334153" lng="-80.006698505861038" zone="Zone 3" incidentdate="2015-10-15" incidenttime="09:52:00" incidentnumber="15197884" address="100 block Shiloh St" type="OFFENSE" age="" gender="" description="*********************************************** &lt;br/&gt;3701, Robbery.&lt;br/&gt;"/><marker lat="40.479829245655225" lng="-80.001901444196207" zone="Zone 1" incidentdate="2015-10-15" incidenttime="12:15:00" incidentnumber="15197923" address="400 block Mt Pleasant Rd" type="OFFENSE" age="" gender="" description="*********************************************** &lt;br/&gt;3503, Criminal Trespass&lt;br/&gt;"/><marker lat="40.423059967883013" lng="-79.990230212494396" zone="Zone 3" incidentdate="2015-10-15" incidenttime="12:00:00" incidentnumber="15197955" address="1100 block Arlington Ave" type="OFFENSE" age="" gender="" description="*********************************************** &lt;br/&gt;4105(a)(1), Bad Checks&lt;br/&gt;"/><marker lat="40.440288035189447" lng="-80.025324050192125" zone="Zone 3" incidentdate="2015-10-15" incidenttime="00:40:00" incidentnumber="15197727" address="200 block Republic St" type="OFFENSE" age="" gender="" description="*********************************************** &lt;br/&gt;3745, Accidents Involving Damage to Unattended Veh.or Prop.&lt;br/&gt;"/><marker lat="40.424891638236268" lng="-79.984583341425534" zone="Zone 3" incidentdate="2015-10-15" incidenttime="16:43:00" incidentnumber="15198106" address="Pius St" type="OFFENSE" age="" gender="" description="*********************************************** &lt;br/&gt;3304, Criminal Mischief.&lt;br/&gt;3503, Criminal Trespass&lt;br/&gt;"/><marker lat="40.452551254016129" lng="-79.949277413781033" zone="Zone 4" incidentdate="2015-10-15" incidenttime="00:48:00" incidentnumber="15197677" address="4700 block Centre Ave" type="OFFENSE" age="" gender="" description="*********************************************** &lt;br/&gt;9498, 302 (Mental)&lt;br/&gt;"/><marker lat="40.4386365" lng="-79.9767441" zone="Zone 4" incidentdate="2015-10-15" incidenttime="16:56:00" incidentnumber="15198122" address="De Ruad St &amp; Wyandotte St" type="ARREST" age="53" gender="M" description="*********************************************** &lt;br/&gt;13(a)(16), Possession of Controlled Substance&lt;br/&gt;13(a)(32), Paraphernalia - Use or Possession&lt;br/&gt;"/><marker lat="40.434696587775576" lng="-79.996300985228572" zone="Zone 2" incidentdate="2015-10-15" incidenttime="15:30:00" incidentnumber="15189848" address="600 block 1st Ave" type="ARREST" age="33" gender="F" description="*********************************************** &lt;br/&gt;3929, Retail Theft.&lt;br/&gt;903, Criminal Conspiracy.&lt;br/&gt;"/><marker lat="40.435095503606554" lng="-79.993077686753679" zone="Zone 2" incidentdate="2015-10-15" incidenttime="12:58:00" incidentnumber="15125216" address="900 block 2nd Ave" type="ARREST" age="28" gender="M" description="*********************************************** &lt;br/&gt;3922, Theft by Deception.&lt;br/&gt;4105(a)(1), Bad Checks&lt;br/&gt;"/><marker lat="40.420926060644575" lng="-80.002316333097454" zone="Zone 3" incidentdate="2015-10-15" incidenttime="17:20:00" incidentnumber="15198143" address="300 block E Warrington Ave" type="ARREST" age="19" gender="M" description="*********************************************** &lt;br/&gt;13(a)(16), Possession of Controlled Substance&lt;br/&gt;13(a)(30), Possession w/ Intent to Del. Controlled Substance&lt;br/&gt;"/><marker lat="40.456096118462462" lng="-80.015347768645881" zone="Zone 1" incidentdate="2015-10-15" incidenttime="21:05:00" incidentnumber="15198332" address="Pennsylvania Ave &amp; Brighton Rd" type="ARREST" age="43" gender="M" description="*********************************************** &lt;br/&gt;13(a)(32), Paraphernalia - Use or Possession&lt;br/&gt;5505, Public Drunkenness&lt;br/&gt;"/><marker lat="40.458170145381978" lng="-79.998144409106729" zone="Zone 1" incidentdate="2015-10-15" incidenttime="01:49:00" incidentnumber="15197704" address="Madison Ave &amp; Vista St" type="ARREST" age="26" gender="M" description="*********************************************** &lt;br/&gt;3802(a)(1), DUI - General Impairment&lt;br/&gt;3802(c), DUI - Highest Rate of Alcohol - BAC &gt;= .16%&lt;br/&gt;3308, One-Way Roadways and Rotary Traffic Islands.&lt;br/&gt;"/><marker lat="40.455397300341026" lng="-79.997219798418371" zone="Zone 1" incidentdate="2015-10-15" incidenttime="01:00:00" incidentnumber="15197681" address="800 block Peralta St" type="ARREST" age="59" gender="F" description="*********************************************** &lt;br/&gt;2701(a)(1), Simple Assault - Intent., Know., Reckless.Cause Bod. Injury&lt;br/&gt;"/><marker lat="40.434696587775576" lng="-79.996300985228572" zone="Zone 2" incidentdate="2015-10-15" incidenttime="17:40:00" incidentnumber="15193019" address="600 block First Ave" type="ARREST" age="57" gender="M" description="*********************************************** &lt;br/&gt;3743, Accidents Involving Damage to Attended Veh. or Property&lt;br/&gt;"/><marker lat="40.441650742650353" lng="-79.999451753561061" zone="Zone 2" incidentdate="2015-10-15" incidenttime="17:40:00" incidentnumber="15171566" address="300 block 6th Ave" type="ARREST" age="19" gender="F" description="*********************************************** &lt;br/&gt;3304, Criminal Mischief.&lt;br/&gt;3929, Retail Theft.&lt;br/&gt;"/><marker lat="40.438615294156641" lng="-80.00581600502511" zone="Zone 2" incidentdate="2015-10-15" incidenttime="12:00:00" incidentnumber="15197950" address="200 block Stanwix St" type="ARREST" age="15" gender="M" description="*********************************************** &lt;br/&gt;13(a)(31), Marijuana: Possession Small Amount&lt;br/&gt;"/><marker lat="40.449934851392975" lng="-79.903752618607058" zone="Zone 4" incidentdate="2015-10-15" incidenttime="14:25:00" incidentnumber="15180576" address="7100 block Penn Ave" type="ARREST" age="27" gender="M" description="*********************************************** &lt;br/&gt;2709, Harassment (Non-Specific)&lt;br/&gt;3131(c)(2), Unlawful dissemination of intimate image -- Person depicted is NOT a minor (M2)&lt;br/&gt;"/><marker lat="40.434696587775576" lng="-79.996300985228572" zone="Zone 2" incidentdate="2015-10-15" incidenttime="13:35:00" incidentnumber="15114208" address="600 block 1st Ave" type="ARREST" age="49" gender="M" description="*********************************************** &lt;br/&gt;3922, Theft by Deception.&lt;br/&gt;4105(a)(1), Bad Checks&lt;br/&gt;"/><marker lat="40.455397300341026" lng="-79.997219798418371" zone="Zone 1" incidentdate="2015-10-15" incidenttime="01:00:00" incidentnumber="15197681" address="800 block Peralta St" type="ARREST" age="60" gender="M" description="*********************************************** &lt;br/&gt;2701(a)(1), Simple Assault - Intent., Know., Reckless.Cause Bod. Injury&lt;br/&gt;"/><marker lat="40.421796968159853" lng="-80.012747466268337" zone="Zone 3" incidentdate="2015-10-15" incidenttime="15:30:00" incidentnumber="15197951" address="600 block Southern Ave" type="ARREST" age="48" gender="M" description="*********************************************** &lt;br/&gt;2701, Simple Assault.&lt;br/&gt;"/><marker lat="40.434696587775576" lng="-79.996300985228572" zone="Zone 2" incidentdate="2015-10-15" incidenttime="13:40:00" incidentnumber="15114209" address="600 block 1st Ave" type="ARREST" age="26" gender="M" description="*********************************************** &lt;br/&gt;3922, Theft by Deception.&lt;br/&gt;4106, Access Device Fraud&lt;br/&gt;"/><marker lat="40.456645972111147" lng="-79.906649432588011" zone="Zone 5" incidentdate="2015-10-15" incidenttime="14:20:00" incidentnumber="15197800" address="6800 block Hamilton Ave" type="ARREST" age="44" gender="M" description="*********************************************** &lt;br/&gt;3502, Burglary.&lt;br/&gt;3921, Theft by Unlawful Taking or Disposition.&lt;br/&gt;3925, Receiving Stolen Property.&lt;br/&gt;"/><marker lat="40.453943576163169" lng="-79.89061907056464" zone="Zone 5" incidentdate="2015-10-15" incidenttime="11:00:00" incidentnumber="15197909" address="7600 block Kelly St" type="ARREST" age="59" gender="M" description="*********************************************** &lt;br/&gt;3802(a)(1), DUI - General Impairment&lt;br/&gt;3802(c), DUI - Highest Rate of Alcohol - BAC &gt;= .16%&lt;br/&gt;3928, Unauthorized Use of Automobile and Other Vehicles.&lt;br/&gt;"/><marker lat="40.439517079185478" lng="-80.05932981262967" zone="Zone 6" incidentdate="2015-10-15" incidenttime="06:30:00" incidentnumber="15148200" address="Ridenour Ave" type="ARREST" age="36" gender="M" description="*********************************************** &lt;br/&gt;3502, Burglary.&lt;br/&gt;3921(a), Theft by Unlawful Taking or Disposition - Movable item&lt;br/&gt;"/><marker lat="40.4386365" lng="-79.9767441" zone="Zone 4" incidentdate="2015-10-15" incidenttime="16:56:00" incidentnumber="15198122" address="De Ruad St &amp; Wyandotte St" type="ARREST" age="45" gender="F" description="*********************************************** &lt;br/&gt;13(a)(16), Possession of Controlled Substance&lt;br/&gt;13(a)(32), Paraphernalia - Use or Possession&lt;br/&gt;"/></markers>
