<?xml version="1.0"?>
<markers><marker lat="40.447141964457515" lng="-79.967429026875351" zone="Zone 2" incidentdate="2015-12-31" incidenttime="21:36:00" incidentnumber="15248967" address="500 block Francis St" type="OFFENSE" age="" gender="" description="*********************************************** &lt;br/&gt;029, Missing Juvenile&lt;br/&gt;"/><marker lat="40.462994191823192" lng="-79.99537796241377" zone="Zone 1" incidentdate="2015-12-31" incidenttime="01:30:00" incidentnumber="15248488" address="Overbeck St &amp; Solar St" type="OFFENSE" age="" gender="" description="*********************************************** &lt;br/&gt;601.11(a), Littering and Dumping; Any waste, dangerous or detrimental substance upon public property&lt;br/&gt;"/><marker lat="40.475639774908238" lng="-80.030763711820484" zone="Zone 1" incidentdate="2015-12-31" incidenttime="08:00:00" incidentnumber="15248817" address="3200 block Brighton Rd" type="OFFENSE" age="" gender="" description="*********************************************** &lt;br/&gt;3502, Burglary.&lt;br/&gt;"/><marker lat="40.451336106686199" lng="-79.960869228661196" zone="Zone 2" incidentdate="2015-12-31" incidenttime="09:00:00" incidentnumber="15248594" address="800 block Cherokee St" type="OFFENSE" age="" gender="" description="*********************************************** &lt;br/&gt;2709, Harassment (Non-Specific)&lt;br/&gt;"/><marker lat="40.4600940" lng="-79.9238524" zone="Zone 4" incidentdate="2015-12-31" incidenttime="15:20:00" incidentnumber="15248806" address="6300 block Shakespeare St" type="OFFENSE" age="" gender="" description="*********************************************** &lt;br/&gt;3929(a)(1), Retail Theft; takes possession of, carries away, or transfers displayed merchandise&lt;br/&gt;"/><marker lat="40.45688934517613" lng="-79.938486703499024" zone="Zone 5" incidentdate="2015-12-31" incidenttime="17:10:00" incidentnumber="15248919" address="5400 block Baum Blvd" type="OFFENSE" age="" gender="" description="*********************************************** &lt;br/&gt;3921(a), Theft by Unlawful Taking or Disposition - Movable item&lt;br/&gt;"/><marker lat="40.441772984812665" lng="-80.001620450643472" zone="Zone 2" incidentdate="2015-12-31" incidenttime="01:02:00" incidentnumber="15248473" address="600 block Liberty Ave" type="OFFENSE" age="" gender="" description="*********************************************** &lt;br/&gt;5505, Public Drunkenness&lt;br/&gt;3503.B1I, DEF. TRESPASS ACTUAL COMMUNICATION&lt;br/&gt;"/><marker lat="40.456937542308495" lng="-80.068178274330862" zone="Zone 6" incidentdate="2015-12-31" incidenttime="04:15:00" incidentnumber="15248540" address="3500 block Oltman St" type="OFFENSE" age="" gender="" description="*********************************************** &lt;br/&gt;2701, Simple Assault.&lt;br/&gt;2706, Terroristic Threats.&lt;br/&gt;2701(a)(3), Simple Assault - Attempts by Physical Menace&lt;br/&gt;"/><marker lat="40.384413993627369" lng="-79.994277181866664" zone="Zone 3" incidentdate="2015-12-31" incidenttime="12:14:00" incidentnumber="15248700" address="Maytide St" type="OFFENSE" age="" gender="" description="*********************************************** &lt;br/&gt;3921, Theft by Unlawful Taking or Disposition.&lt;br/&gt;"/><marker lat="40.474814744271484" lng="-79.922597289648337" zone="Zone 5" incidentdate="2015-12-31" incidenttime="08:00:00" incidentnumber="15248816" address="1100 block Mellon St" type="OFFENSE" age="" gender="" description="*********************************************** &lt;br/&gt;3934, Theft from Vehicle&lt;br/&gt;"/><marker lat="40.454365192078292" lng="-80.061718435263586" zone="Zone 6" incidentdate="2015-12-31" incidenttime="09:20:00" incidentnumber="15248619" address="1100 block Sutherland St" type="OFFENSE" age="" gender="" description="*********************************************** &lt;br/&gt;5503, Disorderly Conduct.&lt;br/&gt;5505, Public Drunkenness&lt;br/&gt;2709(a)(4), Harassment Communicates Prohibited Acts&lt;br/&gt;5503(a)(2), DISORDERLY CONDUCT - UNREASONABLE NOISE&lt;br/&gt;601.04 (c) (2), Loudspeakers  etc 0700-2200 &gt;75dB(c) 2200-0700 &gt;75 dB(c)&lt;br/&gt;"/><marker lat="40.465551363688853" lng="-79.929379044644534" zone="Zone 5" incidentdate="2015-12-31" incidenttime="12:17:00" incidentnumber="15248701" address="5600 block Rural St" type="OFFENSE" age="" gender="" description="*********************************************** &lt;br/&gt;2701, Simple Assault.&lt;br/&gt;9093, Indirect Criminal Contempt&lt;br/&gt;2709(a), Harassment.&lt;br/&gt;"/><marker lat="40.436763672817577" lng="-79.977663340171318" zone="Zone 2" incidentdate="2015-12-31" incidenttime="15:00:00" incidentnumber="15248811" address="2000 block Tustin St" type="OFFENSE" age="" gender="" description="*********************************************** &lt;br/&gt;2709(a)(1), Harassment by Physical Contact, or Attempts or Threats&lt;br/&gt;"/><marker lat="40.465489045583112" lng="-79.947980888674394" zone="Zone 5" incidentdate="2015-12-31" incidenttime="09:40:00" incidentnumber="15248615" address="4700 block Penn Ave" type="OFFENSE" age="" gender="" description="*********************************************** &lt;br/&gt;3745, Accidents Involving Damage to Unattended Veh.or Prop.&lt;br/&gt;"/><marker lat="40.456839195430454" lng="-79.999232378956989" zone="Zone 1" incidentdate="2015-12-31" incidenttime="13:00:00" incidentnumber="15248773" address="E North Ave &amp; Howard St" type="OFFENSE" age="" gender="" description="*********************************************** &lt;br/&gt;3304, Criminal Mischief.&lt;br/&gt;3934, Theft from Vehicle&lt;br/&gt;"/><marker lat="40.45493173032483" lng="-80.010796490212854" zone="Zone 1" incidentdate="2015-12-31" incidenttime="14:43:00" incidentnumber="15248784" address="400 block E North Ave" type="OFFENSE" age="" gender="" description="*********************************************** &lt;br/&gt;3701, Robbery.&lt;br/&gt;"/><marker lat="40.440514946221782" lng="-79.964826501760243" zone="Zone 4" incidentdate="2015-12-31" incidenttime="07:30:00" incidentnumber="15248772" address="200 block Dunseith St" type="OFFENSE" age="" gender="" description="*********************************************** &lt;br/&gt;3934, Theft from Vehicle&lt;br/&gt;"/><marker lat="40.459011372372338" lng="-80.006373190229326" zone="Zone 1" incidentdate="2015-12-31" incidenttime="19:30:00" incidentnumber="15248926" address="Fountain St &amp; Loraine St" type="OFFENSE" age="" gender="" description="*********************************************** &lt;br/&gt;13(a)(16), Possession of Controlled Substance&lt;br/&gt;13(a)(32), Paraphernalia - Use or Possession&lt;br/&gt;3503(b)(1)(ii), Defiant Trespass Notice Posted by Sign(s)&lt;br/&gt;4914, False Identification to Law Enforcement Authorities&lt;br/&gt;"/><marker lat="40.43438349873842" lng="-79.953191227735417" zone="Zone 4" incidentdate="2015-12-31" incidenttime="20:25:00" incidentnumber="15248942" address="Blvd Of The Allies &amp; Dawson St" type="OFFENSE" age="" gender="" description="*********************************************** &lt;br/&gt;3743, Accidents Involving Damage to Attended Veh. or Property&lt;br/&gt;"/><marker lat="40.444936606488817" lng="-79.99385858611916" zone="Zone 2" incidentdate="2015-12-31" incidenttime="02:47:00" incidentnumber="15248519" address="Penn Ave &amp; 11th St" type="OFFENSE" age="" gender="" description="*********************************************** &lt;br/&gt;3308, One-Way Roadways and Rotary Traffic Islands.&lt;br/&gt;"/><marker lat="40.444154974530868" lng="-79.992374126247626" zone="Zone 2" incidentdate="2015-12-31" incidenttime="04:31:00" incidentnumber="15248537" address="1100 block Liberty Ave" type="OFFENSE" age="" gender="" description="*********************************************** &lt;br/&gt;9497, Aided Case&lt;br/&gt;"/><marker lat="40.468707151284001" lng="-79.962290675901343" zone="Zone 2" incidentdate="2015-12-31" incidenttime="17:20:00" incidentnumber="15248867" address="40th St &amp; Butler St" type="OFFENSE" age="" gender="" description="*********************************************** &lt;br/&gt;9492, Dog Bite&lt;br/&gt;"/><marker lat="40.487823540011732" lng="-79.897614208935366" zone="Zone 5" incidentdate="2015-12-31" incidenttime="15:50:00" incidentnumber="15248800" address="800 block Freeport Rd" type="OFFENSE" age="" gender="" description="*********************************************** &lt;br/&gt;3929, Retail Theft.&lt;br/&gt;2701(a)(1), Simple Assault - Intent., Know., Reckless.Cause Bod. Injury&lt;br/&gt;"/><marker lat="40.4539864" lng="-80.0524093" zone="Zone 6" incidentdate="2015-12-31" incidenttime="00:01:00" incidentnumber="15248833" address="600 block Hillsboro St" type="OFFENSE" age="" gender="" description="*********************************************** &lt;br/&gt;4106, Access Device Fraud&lt;br/&gt;"/><marker lat="40.455674118863925" lng="-79.969052140969509" zone="Zone 2" incidentdate="2015-12-31" incidenttime="18:26:00" incidentnumber="14156280" address="3000 block Paulowna St" type="OFFENSE" age="" gender="" description="*********************************************** &lt;br/&gt;2701, Simple Assault.&lt;br/&gt;"/><marker lat="40.421317549412436" lng="-79.900432512766187" zone="Zone 4" incidentdate="2015-12-31" incidenttime="17:50:00" incidentnumber="15248904" address="200 block Whipple St" type="OFFENSE" age="" gender="" description="*********************************************** &lt;br/&gt;9999, 9999 - (Misc. Incident):&lt;br/&gt;"/><marker lat="40.46497461669118" lng="-79.954211561967071" zone="Zone 5" incidentdate="2015-12-31" incidenttime="18:47:00" incidentnumber="15248903" address="4200 block Milgate St" type="OFFENSE" age="" gender="" description="*********************************************** &lt;br/&gt;9497, Aided Case&lt;br/&gt;"/><marker lat="40.450901096519573" lng="-79.930622154707279" zone="Zone 5" incidentdate="2015-12-31" incidenttime="12:00:00" incidentnumber="15248842" address="900 block N Negley Ave" type="OFFENSE" age="" gender="" description="*********************************************** &lt;br/&gt;029, Missing Juvenile&lt;br/&gt;"/><marker lat="40.410552176761328" lng="-79.99322262414627" zone="Zone 3" incidentdate="2015-12-31" incidenttime="07:15:00" incidentnumber="15248698" address="300 block Suncrest St" type="OFFENSE" age="" gender="" description="*********************************************** &lt;br/&gt;3304, Criminal Mischief.&lt;br/&gt;"/><marker lat="40.488081814906529" lng="-79.894317224387123" zone="Zone 5" incidentdate="2015-12-31" incidenttime="08:00:00" incidentnumber="15248585" address="900 block Freeport Rd" type="OFFENSE" age="" gender="" description="*********************************************** &lt;br/&gt;3304, Criminal Mischief.&lt;br/&gt;"/><marker lat="40.468580303977795" lng="-80.011778618826" zone="Zone 1" incidentdate="2015-12-31" incidenttime="19:08:00" incidentnumber="15248910" address="100 block W Mc Intyre Ave" type="OFFENSE" age="" gender="" description="*********************************************** &lt;br/&gt;9488, False  Burglar Alarm&lt;br/&gt;"/><marker lat="40.452042212663898" lng="-80.008738896002342" zone="Zone 1" incidentdate="2015-12-31" incidenttime="21:00:00" incidentnumber="15248953" address="200 block Ridge Ave" type="OFFENSE" age="" gender="" description="*********************************************** &lt;br/&gt;9999, 9999 - (Misc. Incident):&lt;br/&gt;"/><marker lat="40.4576043" lng="-80.0693389" zone="Zone 6" incidentdate="2015-12-31" incidenttime="00:01:00" incidentnumber="15248771" address="3500 block Centralia St" type="OFFENSE" age="" gender="" description="*********************************************** &lt;br/&gt;4120, Identity Theft&lt;br/&gt;"/><marker lat="40.416907432075064" lng="-80.010160940855656" zone="Zone 3" incidentdate="2015-12-31" incidenttime="18:47:00" incidentnumber="15248900" address="Lafferty Ave" type="OFFENSE" age="" gender="" description="*********************************************** &lt;br/&gt;2706, Terroristic Threats.&lt;br/&gt;"/><marker lat="40.44490518577846" lng="-79.99377796067661" zone="Zone 2" incidentdate="2015-12-31" incidenttime="22:00:00" incidentnumber="15248977" address="1100 block Penn Ave" type="OFFENSE" age="" gender="" description="*********************************************** &lt;br/&gt;3701, Robbery.&lt;br/&gt;"/><marker lat="40.454811442501736" lng="-80.051955549671305" zone="Zone 6" incidentdate="2015-12-31" incidenttime="17:40:00" incidentnumber="15248862" address="2900 block Zephyr Ave" type="OFFENSE" age="" gender="" description="*********************************************** &lt;br/&gt;2701(a)(1), Simple Assault - Intent., Know., Reckless.Cause Bod. Injury&lt;br/&gt;"/><marker lat="40.46865286552827" lng="-80.027265999166346" zone="Zone 1" incidentdate="2015-12-31" incidenttime="17:10:00" incidentnumber="15248854" address="1200 block Superior Ave" type="OFFENSE" age="" gender="" description="*********************************************** &lt;br/&gt;9488, False  Burglar Alarm&lt;br/&gt;"/><marker lat="40.483410482113293" lng="-80.033613150744969" zone="Zone 1" incidentdate="2015-12-31" incidenttime="08:30:00" incidentnumber="15248669" address="3700 block Atkins St" type="OFFENSE" age="" gender="" description="*********************************************** &lt;br/&gt;3745, Accidents Involving Damage to Unattended Veh.or Prop.&lt;br/&gt;"/><marker lat="40.464774823811233" lng="-79.942733938845166" zone="Zone 5" incidentdate="2015-12-31" incidenttime="10:22:00" incidentnumber="15248644" address="5100 block Penn Ave" type="OFFENSE" age="" gender="" description="*********************************************** &lt;br/&gt;3745, Accidents Involving Damage to Unattended Veh.or Prop.&lt;br/&gt;"/><marker lat="40.462467752250426" lng="-80.030224841217816" zone="Zone 1" incidentdate="2015-12-31" incidenttime="16:30:00" incidentnumber="15248828" address="2300 block Atmore St" type="OFFENSE" age="" gender="" description="*********************************************** &lt;br/&gt;9999, 9999 - (Misc. Incident):&lt;br/&gt;"/><marker lat="40.462166077597743" lng="-80.034037862127661" zone="Zone 1" incidentdate="2015-12-31" incidenttime="08:52:00" incidentnumber="15248958" address="1700 block Island Ave" type="OFFENSE" age="" gender="" description="*********************************************** &lt;br/&gt;3502, Burglary.&lt;br/&gt;"/><marker lat="40.482879021356389" lng="-80.04453300763744" zone="Zone 1" incidentdate="2015-12-31" incidenttime="13:00:00" incidentnumber="15248746" address="2000 block Termon Ave" type="OFFENSE" age="" gender="" description="*********************************************** &lt;br/&gt;029, Missing Juvenile&lt;br/&gt;"/><marker lat="40.401274152011062" lng="-79.998029200201742" zone="Zone 3" incidentdate="2015-12-31" incidenttime="13:20:00" incidentnumber="15248741" address="Nobles Ln" type="OFFENSE" age="" gender="" description="*********************************************** &lt;br/&gt;3745, Accidents Involving Damage to Unattended Veh.or Prop.&lt;br/&gt;"/><marker lat="40.432848150979822" lng="-79.936517166263755" zone="Zone 4" incidentdate="2015-12-31" incidenttime="13:23:00" incidentnumber="15248743" address="Panther Hollow Rd &amp; Bartlett St" type="OFFENSE" age="" gender="" description="*********************************************** &lt;br/&gt;3802(a)(1), DUI - General Impairment&lt;br/&gt;3802(c), DUI - Highest Rate of Alcohol - BAC &gt;= .16%&lt;br/&gt;"/><marker lat="40.42734221181118" lng="-79.980658026032501" zone="Zone 3" incidentdate="2015-12-31" incidenttime="08:00:00" incidentnumber="15248574" address="1800 block Larkins Way" type="OFFENSE" age="" gender="" description="*********************************************** &lt;br/&gt;2706, Terroristic Threats.&lt;br/&gt;6501(a)(1), Scattering Rubbish; Any waste, dangerous or detrimental substance upon public property or waters&lt;br/&gt;"/><marker lat="40.4600940" lng="-79.9238524" zone="Zone 4" incidentdate="2015-12-31" incidenttime="15:45:00" incidentnumber="15248848" address="6300 block Shakespeare St" type="OFFENSE" age="" gender="" description="*********************************************** &lt;br/&gt;3745, Accidents Involving Damage to Unattended Veh.or Prop.&lt;br/&gt;"/><marker lat="40.462766370932492" lng="-79.957250054964803" zone="Zone 2" incidentdate="2015-12-31" incidenttime="02:36:00" incidentnumber="15233544" address="4000 block Liberty Ave" type="OFFENSE" age="" gender="" description="*********************************************** &lt;br/&gt;903, Criminal Conspiracy.&lt;br/&gt;4106, Access Device Fraud&lt;br/&gt;"/><marker lat="40.426758783783633" lng="-80.002448877770476" zone="Zone 3" incidentdate="2015-12-31" incidenttime="10:00:00" incidentnumber="15248654" address="300 block Bailey Ave" type="OFFENSE" age="" gender="" description="*********************************************** &lt;br/&gt;3745, Accidents Involving Damage to Unattended Veh.or Prop.&lt;br/&gt;"/><marker lat="40.449828014104739" lng="-79.967457413584825" zone="Zone 2" incidentdate="2015-12-31" incidenttime="02:00:00" incidentnumber="15248503" address="2800 block Wylie Ave" type="OFFENSE" age="" gender="" description="*********************************************** &lt;br/&gt;2709, Harassment (Non-Specific)&lt;br/&gt;"/><marker lat="40.445926173410676" lng="-80.052351688864789" zone="Zone 6" incidentdate="2015-12-31" incidenttime="14:23:00" incidentnumber="15248776" address="1000 block Woodlow St" type="OFFENSE" age="" gender="" description="*********************************************** &lt;br/&gt;029, Missing Juvenile&lt;br/&gt;"/><marker lat="40.425219679218074" lng="-79.99243777066971" zone="Zone 3" incidentdate="2015-12-31" incidenttime="18:13:00" incidentnumber="15248887" address="Hanover St" type="OFFENSE" age="" gender="" description="*********************************************** &lt;br/&gt;9496, Dead on Arrival (DOA)&lt;br/&gt;"/><marker lat="40.451315793275363" lng="-79.940948328030601" zone="Zone 4" incidentdate="2015-12-31" incidenttime="18:47:00" incidentnumber="15248902" address="Amberson Ave &amp; Ellsworth Ave" type="OFFENSE" age="" gender="" description="*********************************************** &lt;br/&gt;3743, Accidents Involving Damage to Attended Veh. or Property&lt;br/&gt;"/><marker lat="40.45156448168715" lng="-80.018949472643925" zone="Zone 1" incidentdate="2015-12-31" incidenttime="02:38:00" incidentnumber="15248513" address="1000 block Western Ave" type="OFFENSE" age="" gender="" description="*********************************************** &lt;br/&gt;3929, Retail Theft.&lt;br/&gt;"/><marker lat="40.43009331815616" lng="-79.927317832264066" zone="Zone 4" incidentdate="2015-12-31" incidenttime="12:41:00" incidentnumber="15248716" address="5600 block Melvin St" type="OFFENSE" age="" gender="" description="*********************************************** &lt;br/&gt;3928, Unauthorized Use of Automobile and Other Vehicles.&lt;br/&gt;"/><marker lat="40.428799178836528" lng="-79.984145739682731" zone="Zone 3" incidentdate="2015-12-31" incidenttime="01:45:00" incidentnumber="15248517" address="S 14th St &amp; E Carson St" type="OFFENSE" age="" gender="" description="*********************************************** &lt;br/&gt;3304, Criminal Mischief.&lt;br/&gt;3934, Theft from Vehicle&lt;br/&gt;"/><marker lat="40.394907755778405" lng="-80.025318020109182" zone="Zone 6" incidentdate="2015-12-31" incidenttime="11:15:00" incidentnumber="15248677" address="2700 block Pioneer Ave" type="OFFENSE" age="" gender="" description="*********************************************** &lt;br/&gt;9489, Found Property&lt;br/&gt;"/><marker lat="40.46406699519283" lng="-79.993649588547555" zone="Zone 1" incidentdate="2015-12-31" incidenttime="17:33:00" incidentnumber="15248871" address="1700 block Hunnell St" type="OFFENSE" age="" gender="" description="*********************************************** &lt;br/&gt;3502, Burglary.&lt;br/&gt;"/><marker lat="40.4921510638924" lng="-80.021186521356327" zone="Zone 1" incidentdate="2015-12-31" incidenttime="17:00:00" incidentnumber="15231431" address="Perrysville Ave &amp; Portman Ave" type="ARREST" age="19" gender="F" description="*********************************************** &lt;br/&gt;13(a)(31), Marijuana: Possession Small Amount&lt;br/&gt;13(a)(32), Paraphernalia - Use or Possession&lt;br/&gt;5902(a)(1), Prostitution&lt;br/&gt;907, Possessing Instruments of Crime.&lt;br/&gt;"/><marker lat="40.459011372372338" lng="-80.006373190229326" zone="Zone 1" incidentdate="2015-12-31" incidenttime="19:35:00" incidentnumber="15248926" address="Fountain St &amp; Loraine St" type="ARREST" age="27" gender="M" description="*********************************************** &lt;br/&gt;13(a)(16), Possession of Controlled Substance&lt;br/&gt;13(a)(32), Paraphernalia - Use or Possession&lt;br/&gt;3503(b)(1)(ii), Defiant Trespass Notice Posted by Sign(s)&lt;br/&gt;4914, False Identification to Law Enforcement Authorities&lt;br/&gt;"/><marker lat="40.435095503606554" lng="-79.993077686753679" zone="Zone 2" incidentdate="2015-12-31" incidenttime="09:50:00" incidentnumber="15230955" address="900 block 2nd Ave" type="ARREST" age="20" gender="M" description="*********************************************** &lt;br/&gt;3921, Theft by Unlawful Taking or Disposition.&lt;br/&gt;3701, Robbery.&lt;br/&gt;"/><marker lat="40.423748870783541" lng="-79.979095685400338" zone="Zone 3" incidentdate="2015-12-31" incidenttime="19:35:00" incidentnumber="15216238" address="2000 block Gregory St" type="ARREST" age="27" gender="M" description="*********************************************** &lt;br/&gt;3921, Theft by Unlawful Taking or Disposition.&lt;br/&gt;4106, Access Device Fraud&lt;br/&gt;"/><marker lat="40.456937542308495" lng="-80.068178274330862" zone="Zone 6" incidentdate="2015-12-31" incidenttime="05:00:00" incidentnumber="15248540" address="3500 block Oltman St" type="ARREST" age="24" gender="M" description="*********************************************** &lt;br/&gt;2701, Simple Assault.&lt;br/&gt;2706, Terroristic Threats.&lt;br/&gt;2701(a)(3), Simple Assault - Attempts by Physical Menace&lt;br/&gt;"/><marker lat="40.462766370932492" lng="-79.957250054964803" zone="Zone 2" incidentdate="2015-12-31" incidenttime="02:36:00" incidentnumber="15233544" address="4000 block Liberty Ave" type="ARREST" age="39" gender="M" description="*********************************************** &lt;br/&gt;903, Criminal Conspiracy.&lt;br/&gt;4106, Access Device Fraud&lt;br/&gt;"/><marker lat="40.432848150979822" lng="-79.936517166263755" zone="Zone 4" incidentdate="2015-12-31" incidenttime="13:45:00" incidentnumber="15248743" address="Panther Hollow Rd &amp; Bartlett St" type="ARREST" age="61" gender="M" description="*********************************************** &lt;br/&gt;3802(a)(1), DUI - General Impairment&lt;br/&gt;3802(c), DUI - Highest Rate of Alcohol - BAC &gt;= .16%&lt;br/&gt;"/><marker lat="40.441772984812665" lng="-80.001620450643472" zone="Zone 2" incidentdate="2015-12-31" incidenttime="01:02:00" incidentnumber="15248473" address="600 block Liberty Ave" type="ARREST" age="24" gender="M" description="*********************************************** &lt;br/&gt;5505, Public Drunkenness&lt;br/&gt;3503.B1I, DEF. TRESPASS ACTUAL COMMUNICATION&lt;br/&gt;"/><marker lat="40.455674118863925" lng="-79.969052140969509" zone="Zone 2" incidentdate="2015-12-31" incidenttime="18:26:00" incidentnumber="14156280" address="3000 block Paulowna St" type="ARREST" age="28" gender="F" description="*********************************************** &lt;br/&gt;2701, Simple Assault.&lt;br/&gt;"/><marker lat="40.465551363688853" lng="-79.929379044644534" zone="Zone 5" incidentdate="2015-12-31" incidenttime="12:35:00" incidentnumber="15248701" address="5600 block Rural St" type="ARREST" age="21" gender="M" description="*********************************************** &lt;br/&gt;2701, Simple Assault.&lt;br/&gt;9093, Indirect Criminal Contempt&lt;br/&gt;2709(a), Harassment.&lt;br/&gt;"/><marker lat="40.454811442501736" lng="-80.051955549671305" zone="Zone 6" incidentdate="2015-12-31" incidenttime="17:35:00" incidentnumber="15248862" address="2900 block Zephyr Ave" type="ARREST" age="40" gender="F" description="*********************************************** &lt;br/&gt;2701(a)(1), Simple Assault - Intent., Know., Reckless.Cause Bod. Injury&lt;br/&gt;"/><marker lat="40.412868050103597" lng="-80.025135374935701" zone="Zone 6" incidentdate="2015-12-31" incidenttime="18:00:00" incidentnumber="15243202" address="1500 block Beechview Ave" type="ARREST" age="43" gender="M" description="*********************************************** &lt;br/&gt;3701, Robbery.&lt;br/&gt;903, Criminal Conspiracy.&lt;br/&gt;"/><marker lat="40.458657706532691" lng="-80.002367502254828" zone="Zone 1" incidentdate="2015-12-31" incidenttime="19:35:00" incidentnumber="15217432" address="James St &amp; Fountain St" type="ARREST" age="27" gender="M" description="*********************************************** &lt;br/&gt;13(a)(32), Paraphernalia - Use or Possession&lt;br/&gt;"/><marker lat="40.454365192078292" lng="-80.061718435263586" zone="Zone 6" incidentdate="2015-12-31" incidenttime="09:20:00" incidentnumber="15248619" address="1100 block Sutherland St" type="ARREST" age="45" gender="F" description="*********************************************** &lt;br/&gt;5503, Disorderly Conduct.&lt;br/&gt;5505, Public Drunkenness&lt;br/&gt;2709(a)(4), Harassment Communicates Prohibited Acts&lt;br/&gt;5503(a)(2), DISORDERLY CONDUCT - UNREASONABLE NOISE&lt;br/&gt;601.04 (c) (2), Loudspeakers  etc 0700-2200 &gt;75dB(c) 2200-0700 &gt;75 dB(c)&lt;br/&gt;"/></markers>
