<?xml version="1.0"?>
<markers><marker lat="40.4510313" lng="-79.9687039" zone="Zone 2" incidentdate="2014-08-21" incidenttime="08:01:00" incidentnumber="14165943" address="2800 Webster Avenue, Pittsburgh, PA 15219, USA" type="OFFENSE" description="*********************************************** &lt;br/&gt;3304, Criminal Mischief.&lt;br/&gt;"/><marker lat="40.4763535" lng="-79.9977654" zone="Zone 1" incidentdate="2014-08-21" incidenttime="05:30:00" incidentnumber="14165923" address="700 Mount Pleasant Road, Pittsburgh, PA 15214, USA" type="OFFENSE" description="*********************************************** &lt;br/&gt;3502, Burglary.&lt;br/&gt;"/><marker lat="40.482254" lng="-80.036502" zone="Zone 1" incidentdate="2014-08-21" incidenttime="07:00:00" incidentnumber="14165938" address="1400 Orchlee Street, Pittsburgh, PA 15212, USA" type="OFFENSE" description="*********************************************** &lt;br/&gt;3502, Burglary.&lt;br/&gt;"/><marker lat="40.441017" lng="-79.933504" zone="Zone 4" incidentdate="2014-08-21" incidenttime="00:26:00" incidentnumber="14165749" address="1400 Squirrel Hill Avenue, Pittsburgh, PA 15217, USA" type="OFFENSE" description="*********************************************** &lt;br/&gt;5505, Public Drunkenness&lt;br/&gt;6308(a), Underage Purchase, Consume, Possessed or Transport Liquor&lt;br/&gt;"/><marker lat="40.4066255" lng="-79.9326464" zone="Zone 4" incidentdate="2014-08-21" incidenttime="01:20:00" incidentnumber="14165791" address="900 Roselle Court, Pittsburgh, PA 15207, USA" type="OFFENSE" description="*********************************************** &lt;br/&gt;2701(b)(1), Simple Assault - Fight or Scuffle Entered by Mutual Consent&lt;br/&gt;"/><marker lat="40.3959959" lng="-79.9212019" zone="Zone 4" incidentdate="2014-08-21" incidenttime="01:57:00" incidentnumber="14165820" address="4500 Armorhill Avenue, Homestead, PA 15120, USA" type="OFFENSE" description="*********************************************** &lt;br/&gt;2701, Simple Assault.&lt;br/&gt;2701, Simple Assault.&lt;br/&gt;"/><marker lat="40.4524994" lng="-79.9338327" zone="Zone 4" incidentdate="2014-08-21" incidenttime="04:00:00" incidentnumber="14165899" address="700 Filbert Street, Pittsburgh, PA 15232, USA" type="OFFENSE" description="*********************************************** &lt;br/&gt;3304, Criminal Mischief.&lt;br/&gt;3921, Theft by Unlawful Taking or Disposition.&lt;br/&gt;"/><marker lat="40.4584301" lng="-79.9300483" zone="Zone 4" incidentdate="2014-08-21" incidenttime="12:20:00" incidentnumber="14166054" address="5900 Centre Avenue, Pittsburgh, PA 15206, USA" type="OFFENSE" description="*********************************************** &lt;br/&gt;3921, Theft by Unlawful Taking or Disposition.&lt;br/&gt;"/><marker lat="40.437847" lng="-79.922806" zone="Zone 4" incidentdate="2014-08-21" incidenttime="16:40:00" incidentnumber="14165193" address="5800 Forbes Avenue, Pittsburgh, PA 15217, USA" type="OFFENSE" description="*********************************************** &lt;br/&gt;2701(a)(1), Simple Assault - Intent., Know., Reckless.Cause Bod. Injury&lt;br/&gt;"/><marker lat="40.4231945" lng="-79.9250301" zone="Zone 4" incidentdate="2014-08-21" incidenttime="16:58:00" incidentnumber="14166206" address="4200 Ludwick Street, Pittsburgh, PA 15217, USA" type="OFFENSE" description="*********************************************** &lt;br/&gt;3921(a), Theft by Unlawful Taking or Disposition - Movable item&lt;br/&gt;"/><marker lat="40.4404119" lng="-79.9501893" zone="Zone 4" incidentdate="2014-08-21" incidenttime="17:30:00" incidentnumber="14166249" address="Joncaire Street &amp; Boundary Street, Pittsburgh, PA 15213, USA" type="OFFENSE" description="*********************************************** &lt;br/&gt;3304, Criminal Mischief.&lt;br/&gt;3934, Theft from Vehicle&lt;br/&gt;"/><marker lat="40.4478242" lng="-79.9107855" zone="Zone 4" incidentdate="2014-08-21" incidenttime="18:00:00" incidentnumber="14166287" address="6900 Edgerton Avenue, Pittsburgh, PA 15208, USA" type="OFFENSE" description="*********************************************** &lt;br/&gt;3745, Accidents Involving Damage to Unattended Veh.or Prop.&lt;br/&gt;3745, Accidents Involving Damage to Unattended Veh.or Prop.&lt;br/&gt;"/><marker lat="40.4580079" lng="-79.9430965" zone="Zone 5" incidentdate="2014-08-21" incidenttime="00:01:00" incidentnumber="14166233" address="500 Aspen Street, Pittsburgh, PA 15224, USA" type="OFFENSE" description="*********************************************** &lt;br/&gt;3921, Theft by Unlawful Taking or Disposition.&lt;br/&gt;"/><marker lat="40.4701173" lng="-79.9072986" zone="Zone 5" incidentdate="2014-08-21" incidenttime="04:00:00" incidentnumber="14165871" address="6300 Dean Street, Pittsburgh, PA 15206, USA" type="OFFENSE" description="*********************************************** &lt;br/&gt;13(a)(16), Possession of Controlled Substance&lt;br/&gt;13(a)(32), Paraphernalia - Use or Possession&lt;br/&gt;13(a)(16), Possession of Controlled Substance&lt;br/&gt;13(a)(32), Paraphernalia - Use or Possession&lt;br/&gt;"/><marker lat="40.460654" lng="-79.9323758" zone="Zone 5" incidentdate="2014-08-21" incidenttime="08:00:00" incidentnumber="14165999" address="5700 Friendship Avenue, Pittsburgh, PA 15206, USA" type="OFFENSE" description="*********************************************** &lt;br/&gt;3304, Criminal Mischief.&lt;br/&gt;3934, Theft from Vehicle&lt;br/&gt;"/><marker lat="40.4623195" lng="-79.9431972" zone="Zone 5" incidentdate="2014-08-21" incidenttime="09:32:00" incidentnumber="14165970" address="5100 Friendship Avenue, Pittsburgh, PA 15224, USA" type="OFFENSE" description="*********************************************** &lt;br/&gt;2701(a)(1), Simple Assault - Intent., Know., Reckless.Cause Bod. Injury&lt;br/&gt;2701(a)(1), Simple Assault - Intent., Know., Reckless.Cause Bod. Injury&lt;br/&gt;"/><marker lat="40.4563604" lng="-79.8918005" zone="Zone 5" incidentdate="2014-08-21" incidenttime="11:00:00" incidentnumber="14166012" address="7400 Frankstown Avenue, Pittsburgh, PA 15208, USA" type="OFFENSE" description="*********************************************** &lt;br/&gt;3921, Theft by Unlawful Taking or Disposition.&lt;br/&gt;"/><marker lat="40.4668993" lng="-79.905969" zone="Zone 5" incidentdate="2014-08-21" incidenttime="11:35:00" incidentnumber="14166020" address="6500 Deary Street, Pittsburgh, PA 15206, USA" type="OFFENSE" description="*********************************************** &lt;br/&gt;9489, Found Property&lt;br/&gt;"/><marker lat="40.486877" lng="-79.894016" zone="Zone 5" incidentdate="2014-08-21" incidenttime="12:09:00" incidentnumber="14166039" address="900 Freeport Road, Pittsburgh, PA 15238, USA" type="OFFENSE" description="*********************************************** &lt;br/&gt;3929, Retail Theft.&lt;br/&gt;3929, Retail Theft.&lt;br/&gt;3929, Retail Theft.&lt;br/&gt;903, Criminal Conspiracy.&lt;br/&gt;"/><marker lat="40.4713811" lng="-79.8981893" zone="Zone 5" incidentdate="2014-08-21" incidenttime="13:21:00" incidentnumber="14166083" address="7000 Lemington Avenue, Pittsburgh, PA 15206, USA" type="OFFENSE" description="*********************************************** &lt;br/&gt;3702, Robbery of Motor Vehicle.&lt;br/&gt;"/><marker lat="40.4676937" lng="-79.934595" zone="Zone 5" incidentdate="2014-08-21" incidenttime="14:47:00" incidentnumber="14166274" address="400 North Aiken Avenue, Pittsburgh, PA 15206, USA" type="OFFENSE" description="*********************************************** &lt;br/&gt;3304, Criminal Mischief.&lt;br/&gt;"/><marker lat="40.4566832" lng="-79.9066585" zone="Zone 5" incidentdate="2014-08-21" incidenttime="15:02:00" incidentnumber="14166143" address="6800 Hamilton Avenue, Pittsburgh, PA 15208, USA" type="OFFENSE" description="*********************************************** &lt;br/&gt;3745, Accidents Involving Damage to Unattended Veh.or Prop.&lt;br/&gt;"/><marker lat="40.4608126" lng="-79.9157116" zone="Zone 5" incidentdate="2014-08-21" incidenttime="15:36:00" incidentnumber="14166152" address="6400 Frankstown Avenue, Pittsburgh, PA 15206, USA" type="OFFENSE" description="*********************************************** &lt;br/&gt;3743, Accidents Involving Damage to Attended Veh. or Property&lt;br/&gt;"/><marker lat="40.458124" lng="-79.893503" zone="Zone 5" incidentdate="2014-08-21" incidenttime="19:28:00" incidentnumber="14166319" address="7300 Race Street, Pittsburgh, PA 15208, USA" type="OFFENSE" description="*********************************************** &lt;br/&gt;3709, Dep. Waste and Other Material&lt;br/&gt;"/><marker lat="40.4660098" lng="-79.9227444" zone="Zone 5" incidentdate="2014-08-21" incidenttime="20:59:00" incidentnumber="14166379" address="East Liberty Boulevard &amp; North Highland Avenue, Pittsburgh, PA 15206, USA" type="OFFENSE" description="*********************************************** &lt;br/&gt;2701, Simple Assault.&lt;br/&gt;3701, Robbery.&lt;br/&gt;903, Criminal Conspiracy.&lt;br/&gt;2701, Simple Assault.&lt;br/&gt;3701, Robbery.&lt;br/&gt;903, Criminal Conspiracy.&lt;br/&gt;903, Criminal Conspiracy.&lt;br/&gt;"/><marker lat="40.410315" lng="-80.02771" zone="Zone 6" incidentdate="2014-08-21" incidenttime="09:00:00" incidentnumber="14166052" address="1600 Belasco Avenue, Pittsburgh, PA 15216, USA" type="OFFENSE" description="*********************************************** &lt;br/&gt;3304, Criminal Mischief.&lt;br/&gt;"/><marker lat="40.4291452" lng="-80.0686846" zone="Zone 6" incidentdate="2014-08-21" incidenttime="10:05:00" incidentnumber="14165976" address="200 Balver Avenue, Pittsburgh, PA 15205, USA" type="OFFENSE" description="*********************************************** &lt;br/&gt;9488, False  Burglar Alarm&lt;br/&gt;"/><marker lat="40.4233009" lng="-80.0253275" zone="Zone 6" incidentdate="2014-08-21" incidenttime="16:10:00" incidentnumber="14166166" address="1200 Shadycrest Drive, Pittsburgh, PA 15216, USA" type="OFFENSE" description="*********************************************** &lt;br/&gt;9488, False  Burglar Alarm&lt;br/&gt;"/><marker lat="40.40253" lng="-80.032374" zone="Zone 6" incidentdate="2014-08-21" incidenttime="16:32:00" incidentnumber="14166181" address="2300 Candace Street, Pittsburgh, PA 15216, USA" type="OFFENSE" description="*********************************************** &lt;br/&gt;2701(a)(1), Simple Assault - Intent., Know., Reckless.Cause Bod. Injury&lt;br/&gt;2701(a)(1), Simple Assault - Intent., Know., Reckless.Cause Bod. Injury&lt;br/&gt;"/><marker lat="40.4130821" lng="-80.0211293" zone="Zone 6" incidentdate="2014-08-21" incidenttime="21:02:00" incidentnumber="14166380" address="1400 Alton Street, Pittsburgh, PA 15216, USA" type="OFFENSE" description="*********************************************** &lt;br/&gt;3745, Accidents Involving Damage to Unattended Veh.or Prop.&lt;br/&gt;"/><marker lat="40.43731" lng="-80.0136667" zone="Zone 3" incidentdate="2014-08-21" incidenttime="18:30:00" incidentnumber="14166315" address="South Shore, Pittsburgh, PA, USA" type="OFFENSE" description="*********************************************** &lt;br/&gt;3304, Criminal Mischief.&lt;br/&gt;"/><marker lat="40.4705097" lng="-80.0111895" zone="Zone 1" incidentdate="2014-08-21" incidenttime="09:56:00" incidentnumber="14165981" address="2900 North Charles Street, Pittsburgh, PA 15214, USA" type="OFFENSE" description="*********************************************** &lt;br/&gt;3304, Criminal Mischief.&lt;br/&gt;"/><marker lat="40.4477936" lng="-80.0037296" zone="Zone 1" incidentdate="2014-08-21" incidenttime="10:00:00" incidentnumber="14165993" address="100 Federal Street, Pittsburgh, PA 15212, USA" type="OFFENSE" description="*********************************************** &lt;br/&gt;3921, Theft by Unlawful Taking or Disposition.&lt;br/&gt;"/><marker lat="40.4506656" lng="-80.0235811" zone="Zone 1" incidentdate="2014-08-21" incidenttime="11:50:00" incidentnumber="14166047" address="1300 Western Avenue, Pittsburgh, PA 15233, USA" type="OFFENSE" description="*********************************************** &lt;br/&gt;3921, Theft by Unlawful Taking or Disposition.&lt;br/&gt;"/><marker lat="40.4612525" lng="-79.9842534" zone="Zone 1" incidentdate="2014-08-21" incidenttime="13:30:00" incidentnumber="14166092" address="1500 Hoff Street, Pittsburgh, PA 15212, USA" type="OFFENSE" description="*********************************************** &lt;br/&gt;3502, Burglary.&lt;br/&gt;"/><marker lat="40.4462286" lng="-80.0016475" zone="Zone 1" incidentdate="2014-08-21" incidenttime="16:00:00" incidentnumber="14166164" address="7th Street Bridge, AKA Andy Warhol Bridge, Andy Warhol Bridge, Pittsburgh, PA 15212, USA" type="OFFENSE" description="*********************************************** &lt;br/&gt;3701, Robbery.&lt;br/&gt;"/><marker lat="40.46367" lng="-80.0122838" zone="Zone 1" incidentdate="2014-08-21" incidenttime="16:30:00" incidentnumber="14166232" address="2100 Perrysville Avenue, Pittsburgh, PA 15214, USA" type="OFFENSE" description="*********************************************** &lt;br/&gt;029, Missing Juvenile&lt;br/&gt;"/><marker lat="40.4584696" lng="-80.0097245" zone="Zone 1" incidentdate="2014-08-21" incidenttime="17:14:00" incidentnumber="14166214" address="200 Alpine Avenue, Pittsburgh, PA 15212, USA" type="OFFENSE" description="*********************************************** &lt;br/&gt;5503(a)(3), DISORDERLY CONDUCT - OBSCENE LANG/GEST&lt;br/&gt;"/><marker lat="40.454828" lng="-80.013548" zone="Zone 1" incidentdate="2014-08-21" incidenttime="17:31:00" incidentnumber="14166221" address="1200 Buena Vista Street, Pittsburgh, PA 15212, USA" type="OFFENSE" description="*********************************************** &lt;br/&gt;3502, Burglary.&lt;br/&gt;"/><marker lat="40.476263" lng="-80.0121618" zone="Zone 1" incidentdate="2014-08-21" incidenttime="18:00:00" incidentnumber="14166259" address="3000 Perrysville Avenue, Pittsburgh, PA 15214, USA" type="OFFENSE" description="*********************************************** &lt;br/&gt;2707, Propulsion of Missiles&lt;br/&gt;607.03, Discharging Firearm or Airgun&lt;br/&gt;"/><marker lat="40.4670214" lng="-79.9937027" zone="Zone 1" incidentdate="2014-08-21" incidenttime="18:14:00" incidentnumber="14166265" address="100 Rhine Place, Pittsburgh, PA 15212, USA" type="OFFENSE" description="*********************************************** &lt;br/&gt;9497, Aided Case&lt;br/&gt;"/><marker lat="40.4705572" lng="-79.9627934" zone="Zone 2" incidentdate="2014-08-21" incidenttime="01:00:00" incidentnumber="14166036" address="Foster Street &amp; 41st Street, Pittsburgh, PA 15201, USA" type="OFFENSE" description="*********************************************** &lt;br/&gt;3921(a), Theft by Unlawful Taking or Disposition - Movable item&lt;br/&gt;"/><marker lat="40.4386542" lng="-79.9907791" zone="Zone 2" incidentdate="2014-08-21" incidenttime="07:45:00" incidentnumber="14166095" address="1000 Fifth Avenue, Duquesne University, Pittsburgh, PA 15219, USA" type="OFFENSE" description="*********************************************** &lt;br/&gt;3304, Criminal Mischief.&lt;br/&gt;"/><marker lat="40.478346" lng="-80.0386343" zone="Zone 1" incidentdate="2014-08-21" incidenttime="05:28:00" incidentnumber="14165893" address="Fleming Avenue &amp; Falck Avenue, Pittsburgh, PA 15212, USA" type="OFFENSE" description="*********************************************** &lt;br/&gt;3304, Criminal Mischief.&lt;br/&gt;607.03, Discharging Firearm or Airgun&lt;br/&gt;"/><marker lat="40.438044" lng="-79.9976079" zone="Zone 2" incidentdate="2014-08-21" incidenttime="10:11:00" incidentnumber="14165982" address="400 Grant Street, Pittsburgh, PA 15219, USA" type="OFFENSE" description="*********************************************** &lt;br/&gt;8104, CLASS 1 - Suspicious Package or Device&lt;br/&gt;"/><marker lat="40.4480961" lng="-79.9710261" zone="Zone 2" incidentdate="2014-08-21" incidenttime="14:00:00" incidentnumber="14166329" address="Middle Hill, Pittsburgh, PA, USA" type="OFFENSE" description="*********************************************** &lt;br/&gt;2709(a)(6), Harassment Communicates Repeatedly at Extreme Hours&lt;br/&gt;"/><marker lat="40.4405868" lng="-80.0021963" zone="Zone 2" incidentdate="2014-08-21" incidenttime="14:17:00" incidentnumber="14166110" address="200 Forbes Avenue, Pittsburgh, PA 15222, USA" type="OFFENSE" description="*********************************************** &lt;br/&gt;9501, Bench Warrant&lt;br/&gt;"/><marker lat="40.435467" lng="-79.996404" zone="Zone 2" incidentdate="2014-08-21" incidenttime="15:00:00" incidentnumber="14158585" address="600 1st Avenue, Pittsburgh, PA 15219, USA" type="OFFENSE" description="*********************************************** &lt;br/&gt;9494, Summary Warrants&lt;br/&gt;"/><marker lat="40.435467" lng="-79.996404" zone="Zone 2" incidentdate="2014-08-21" incidenttime="15:00:00" incidentnumber="14158588" address="600 1st Avenue, Pittsburgh, PA 15219, USA" type="OFFENSE" description="*********************************************** &lt;br/&gt;9494, Summary Warrants&lt;br/&gt;"/><marker lat="40.435467" lng="-79.996404" zone="Zone 2" incidentdate="2014-08-21" incidenttime="15:00:00" incidentnumber="14158589" address="600 1st Avenue, Pittsburgh, PA 15219, USA" type="OFFENSE" description="*********************************************** &lt;br/&gt;9494, Summary Warrants&lt;br/&gt;"/><marker lat="40.4548234" lng="-79.9659195" zone="Zone 2" incidentdate="2014-08-21" incidenttime="15:00:00" incidentnumber="14166136" address="3300 Ajax Street, Pittsburgh, PA 15213, USA" type="OFFENSE" description="*********************************************** &lt;br/&gt;3502, Burglary.&lt;br/&gt;"/><marker lat="40.438194" lng="-79.9960447" zone="Zone 2" incidentdate="2014-08-21" incidenttime="19:20:00" incidentnumber="14166299" address="500 Forbes Avenue, Pittsburgh, PA 15219, USA" type="OFFENSE" description="*********************************************** &lt;br/&gt;2709, Harassment (Non-Specific)&lt;br/&gt;"/><marker lat="40.4372013" lng="-79.9744858" zone="Zone 2" incidentdate="2014-08-21" incidenttime="22:10:00" incidentnumber="14166434" address="Forbes Avenue &amp; Moultrie Street, Pittsburgh, PA 15219, USA" type="OFFENSE" description="*********************************************** &lt;br/&gt;5902(a)(2), Prostitution - Loitering for purpose of&lt;br/&gt;5902(a)(2), Prostitution - Loitering for purpose of&lt;br/&gt;"/><marker lat="40.4380038" lng="-79.9744393" zone="Zone 2" incidentdate="2014-08-21" incidenttime="22:25:00" incidentnumber="14166433" address="Fifth Avenue &amp; Moultrie Street, Pittsburgh, PA 15219, USA" type="OFFENSE" description="*********************************************** &lt;br/&gt;5902(a)(1), Prostitution&lt;br/&gt;5902(a)(2), Prostitution - Loitering for purpose of&lt;br/&gt;5902(a)(1), Prostitution&lt;br/&gt;5902(a)(2), Prostitution - Loitering for purpose of&lt;br/&gt;5902(a)(2), Prostitution - Loitering for purpose of&lt;br/&gt;"/><marker lat="40.4090023" lng="-79.9939883" zone="Zone 3" incidentdate="2014-08-21" incidenttime="03:47:00" incidentnumber="14165868" address="300 McKinley Street, Pittsburgh, PA 15210, USA" type="OFFENSE" description="*********************************************** &lt;br/&gt;1301, Registration and Certificate of Title Required.&lt;br/&gt;1312, Notice of Change of Name or Address.&lt;br/&gt;1511, Carrying and Exhibiting Drivers License on Demand.&lt;br/&gt;1543, Driving While Operating Privilege is Suspended or Revoked.&lt;br/&gt;3802(a)(1), DUI - General Impairment&lt;br/&gt;3802(b), DUI - High Rate of Alchol - BAC &gt;=.10% &lt;.16%&lt;br/&gt;1301, Registration and Certificate of Title Required.&lt;br/&gt;1312, Notice of Change of Name or Address.&lt;br/&gt;1511, Carrying and Exhibiting Drivers License on Demand.&lt;br/&gt;1543, Driving While Operating Privilege is Suspended or Revoked.&lt;br/&gt;3802(a)(1), DUI - General Impairment&lt;br/&gt;3802(b), DUI - High Rate of Alchol - BAC &gt;=.10% &lt;.16%&lt;br/&gt;"/><marker lat="40.4173736" lng="-79.9881751" zone="Zone 3" incidentdate="2014-08-21" incidenttime="09:00:00" incidentnumber="14165971" address="100 Jucunda Street, Pittsburgh, PA 15210, USA" type="OFFENSE" description="*********************************************** &lt;br/&gt;3502, Burglary.&lt;br/&gt;"/><marker lat="40.4257102" lng="-79.9749328" zone="Zone 3" incidentdate="2014-08-21" incidenttime="14:00:00" incidentnumber="14166102" address="200 South 22nd Street, Pittsburgh, PA 15203, USA" type="OFFENSE" description="*********************************************** &lt;br/&gt;3502, Burglary.&lt;br/&gt;"/><marker lat="40.4229259" lng="-79.973747" zone="Zone 3" incidentdate="2014-08-21" incidenttime="14:30:00" incidentnumber="14166132" address="2300 Mission Street, Pittsburgh, PA 15203, USA" type="OFFENSE" description="*********************************************** &lt;br/&gt;7611, Unlawful Use of Computer&lt;br/&gt;"/><marker lat="40.428441" lng="-79.978966" zone="Zone 3" incidentdate="2014-08-21" incidenttime="15:50:00" incidentnumber="14166178" address="1900 East Carson Street, Pittsburgh, PA 15203, USA" type="OFFENSE" description="*********************************************** &lt;br/&gt;3929, Retail Theft.&lt;br/&gt;"/><marker lat="40.4173736" lng="-79.9881751" zone="Zone 3" incidentdate="2014-08-21" incidenttime="16:50:00" incidentnumber="14166200" address="100 Jucunda Street, Pittsburgh, PA 15210, USA" type="OFFENSE" description="*********************************************** &lt;br/&gt;3502, Burglary.&lt;br/&gt;"/><marker lat="40.4195302" lng="-79.9709782" zone="Zone 3" incidentdate="2014-08-21" incidenttime="17:35:00" incidentnumber="14166234" address="1300 Clover Street, Pittsburgh, PA 15203, USA" type="OFFENSE" description="*********************************************** &lt;br/&gt;2709.A1, HARASSMENT SUBJECT OTHER TO PHYSICAL CONTACT&lt;br/&gt;"/><marker lat="40.4217935" lng="-79.9937597" zone="Zone 3" incidentdate="2014-08-21" incidenttime="18:30:00" incidentnumber="14166266" address="East Warrington Avenue &amp; Allen Street, Pittsburgh, PA 15210, USA" type="OFFENSE" description="*********************************************** &lt;br/&gt;13(a)(31), Marijuana: Possession Small Amount&lt;br/&gt;1543, Driving While Operating Privilege is Suspended or Revoked.&lt;br/&gt;13(a)(31), Marijuana: Possession Small Amount&lt;br/&gt;13(a)(31), Marijuana: Possession Small Amount&lt;br/&gt;1543, Driving While Operating Privilege is Suspended or Revoked.&lt;br/&gt;"/><marker lat="40.3835658" lng="-79.9805501" zone="Zone 3" incidentdate="2014-08-21" incidenttime="18:53:00" incidentnumber="14166285" address="100 Merritt Avenue, Pittsburgh, PA 15227, USA" type="OFFENSE" description="*********************************************** &lt;br/&gt;2709(a)(3), Harassment No Legitimate Purpose&lt;br/&gt;5503(a)(3), DISORDERLY CONDUCT - OBSCENE LANG/GEST&lt;br/&gt;"/><marker lat="40.425337" lng="-80.004312" zone="Zone 3" incidentdate="2014-08-21" incidenttime="19:07:00" incidentnumber="14166313" address="100 Kathleen Street, Pittsburgh, PA 15211, USA" type="OFFENSE" description="*********************************************** &lt;br/&gt;4304(a)(1), Endangering Welfare of Children.&lt;br/&gt;, condition&lt;br/&gt;4304(a)(1), Endangering Welfare of Children.&lt;br/&gt;, condition&lt;br/&gt;"/><marker lat="40.4218627" lng="-80.0103144" zone="Zone 3" incidentdate="2014-08-21" incidenttime="20:08:00" incidentnumber="14166344" address="200 Lelia Street, Pittsburgh, PA 15211, USA" type="OFFENSE" description="*********************************************** &lt;br/&gt;9999, 9999 - (Misc. Incident):&lt;br/&gt;9999, 9999 - (Misc. Incident):&lt;br/&gt;"/><marker lat="40.439517" lng="-79.955965" zone="Zone 4" incidentdate="2014-08-21" incidenttime="00:06:00" incidentnumber="14165986" address="300 Atwood Street, Pittsburgh, PA 15213, USA" type="OFFENSE" description="*********************************************** &lt;br/&gt;3745, Accidents Involving Damage to Unattended Veh.or Prop.&lt;br/&gt;"/><marker lat="40.4785914" lng="-80.0008597" zone="Zone 1" incidentdate="2014-08-21" incidenttime="09:40:00" incidentnumber="14117017" address="500 Mount Pleasant Road, Pittsburgh, PA 15214, USA" type="ARREST" description="*********************************************** &lt;br/&gt;2701, Simple Assault.&lt;br/&gt;5511, Cruelty to Animals.&lt;br/&gt;903, Criminal Conspiracy.&lt;br/&gt;2701, Simple Assault.&lt;br/&gt;5511, Cruelty to Animals.&lt;br/&gt;903, Criminal Conspiracy.&lt;br/&gt;2701, Simple Assault.&lt;br/&gt;5511, Cruelty to Animals.&lt;br/&gt;903, Criminal Conspiracy.&lt;br/&gt;"/><marker lat="40.4785914" lng="-80.0008597" zone="Zone 1" incidentdate="2014-08-21" incidenttime="09:40:00" incidentnumber="14117017" address="500 Mount Pleasant Road, Pittsburgh, PA 15214, USA" type="ARREST" description="*********************************************** &lt;br/&gt;2701, Simple Assault.&lt;br/&gt;5511, Cruelty to Animals.&lt;br/&gt;903, Criminal Conspiracy.&lt;br/&gt;2701, Simple Assault.&lt;br/&gt;5511, Cruelty to Animals.&lt;br/&gt;903, Criminal Conspiracy.&lt;br/&gt;2701, Simple Assault.&lt;br/&gt;5511, Cruelty to Animals.&lt;br/&gt;903, Criminal Conspiracy.&lt;br/&gt;"/><marker lat="40.4785914" lng="-80.0008597" zone="Zone 1" incidentdate="2014-08-21" incidenttime="09:40:00" incidentnumber="14117017" address="500 Mount Pleasant Road, Pittsburgh, PA 15214, USA" type="ARREST" description="*********************************************** &lt;br/&gt;2701, Simple Assault.&lt;br/&gt;5511, Cruelty to Animals.&lt;br/&gt;903, Criminal Conspiracy.&lt;br/&gt;2701, Simple Assault.&lt;br/&gt;5511, Cruelty to Animals.&lt;br/&gt;903, Criminal Conspiracy.&lt;br/&gt;2701, Simple Assault.&lt;br/&gt;5511, Cruelty to Animals.&lt;br/&gt;903, Criminal Conspiracy.&lt;br/&gt;"/><marker lat="40.4217935" lng="-79.9937597" zone="Zone 3" incidentdate="2014-08-21" incidenttime="18:17:00" incidentnumber="14166266" address="East Warrington Avenue &amp; Allen Street, Pittsburgh, PA 15210, USA" type="ARREST" description="*********************************************** &lt;br/&gt;13(a)(31), Marijuana: Possession Small Amount&lt;br/&gt;1543, Driving While Operating Privilege is Suspended or Revoked.&lt;br/&gt;13(a)(31), Marijuana: Possession Small Amount&lt;br/&gt;13(a)(31), Marijuana: Possession Small Amount&lt;br/&gt;1543, Driving While Operating Privilege is Suspended or Revoked.&lt;br/&gt;"/><marker lat="40.486877" lng="-79.894016" zone="Zone 5" incidentdate="2014-08-21" incidenttime="12:30:00" incidentnumber="14166039" address="900 Freeport Road, Pittsburgh, PA 15238, USA" type="ARREST" description="*********************************************** &lt;br/&gt;3929, Retail Theft.&lt;br/&gt;3929, Retail Theft.&lt;br/&gt;3929, Retail Theft.&lt;br/&gt;903, Criminal Conspiracy.&lt;br/&gt;"/><marker lat="40.3662804" lng="-79.915795" zone="Zone 4" incidentdate="2014-08-21" incidenttime="16:31:00" incidentnumber="14142215" address="1200 Stock Street, Pittsburgh, PA 15207, USA" type="ARREST" description="*********************************************** &lt;br/&gt;4107, Deceptive Business Practices.&lt;br/&gt;"/><marker lat="40.4509827" lng="-80.0217039" zone="Zone 1" incidentdate="2014-08-21" incidenttime="12:12:00" incidentnumber="14165345" address="1200 Western Avenue, Pittsburgh, PA 15233, USA" type="ARREST" description="*********************************************** &lt;br/&gt;13(a)(16), Possession of Controlled Substance&lt;br/&gt;13(a)(30), Possession w/ Intent to Del. Controlled Substance&lt;br/&gt;13(a)(31), Marijuana: Possession Small Amount&lt;br/&gt;4914, False Identification to Law Enforcement Authorities&lt;br/&gt;9124, Drug Investigation&lt;br/&gt;"/><marker lat="40.4550903" lng="-80.0011066" zone="Zone 1" incidentdate="2014-08-21" incidenttime="12:12:00" incidentnumber="14149676" address="500 Suismon Street, Pittsburgh, PA 15212, USA" type="ARREST" description="*********************************************** &lt;br/&gt;3304, Criminal Mischief.&lt;br/&gt;901, Criminal Attempt&lt;br/&gt;907, Possessing Instruments of Crime.&lt;br/&gt;"/><marker lat="40.417162" lng="-80.002212" zone="Zone 3" incidentdate="2014-08-21" incidenttime="18:54:00" incidentnumber="14119667" address="300 Sylvania Avenue, Pittsburgh, PA 15210, USA" type="ARREST" description="*********************************************** &lt;br/&gt;4304(a)(1), Endangering Welfare of Children.&lt;br/&gt;"/><marker lat="40.38962" lng="-80.0148169" zone="Zone 6" incidentdate="2014-08-21" incidenttime="16:05:00" incidentnumber="14158356" address="1200 Chelton Avenue, Pittsburgh, PA 15226, USA" type="ARREST" description="*********************************************** &lt;br/&gt;3921(a), Theft by Unlawful Taking or Disposition - Movable item&lt;br/&gt;3921(a), Theft by Unlawful Taking or Disposition - Movable item&lt;br/&gt;3925, Receiving Stolen Property.&lt;br/&gt;4106, Access Device Fraud&lt;br/&gt;903, Criminal Conspiracy.&lt;br/&gt;"/><marker lat="40.4372013" lng="-79.9744858" zone="Zone 2" incidentdate="2014-08-21" incidenttime="22:10:00" incidentnumber="14166434" address="Forbes Avenue &amp; Moultrie Street, Pittsburgh, PA 15219, USA" type="ARREST" description="*********************************************** &lt;br/&gt;5902(a)(2), Prostitution - Loitering for purpose of&lt;br/&gt;5902(a)(2), Prostitution - Loitering for purpose of&lt;br/&gt;"/><marker lat="40.4627215" lng="-80.0298876" zone="Zone 1" incidentdate="2014-08-21" incidenttime="16:58:00" incidentnumber="14163330" address="2300 Mannheim Street, Pittsburgh, PA 15212, USA" type="ARREST" description="*********************************************** &lt;br/&gt;2701, Simple Assault.&lt;br/&gt;2701, Simple Assault.&lt;br/&gt;"/><marker lat="40.425337" lng="-80.004312" zone="Zone 3" incidentdate="2014-08-21" incidenttime="19:49:00" incidentnumber="14166313" address="100 Kathleen Street, Pittsburgh, PA 15211, USA" type="ARREST" description="*********************************************** &lt;br/&gt;4304(a)(1), Endangering Welfare of Children.&lt;br/&gt;, condition&lt;br/&gt;4304(a)(1), Endangering Welfare of Children.&lt;br/&gt;, condition&lt;br/&gt;"/><marker lat="40.4380038" lng="-79.9744393" zone="Zone 2" incidentdate="2014-08-21" incidenttime="22:25:00" incidentnumber="14166433" address="Fifth Avenue &amp; Moultrie Street, Pittsburgh, PA 15219, USA" type="ARREST" description="*********************************************** &lt;br/&gt;5902(a)(1), Prostitution&lt;br/&gt;5902(a)(2), Prostitution - Loitering for purpose of&lt;br/&gt;5902(a)(1), Prostitution&lt;br/&gt;5902(a)(2), Prostitution - Loitering for purpose of&lt;br/&gt;5902(a)(2), Prostitution - Loitering for purpose of&lt;br/&gt;"/><marker lat="40.4623195" lng="-79.9431972" zone="Zone 5" incidentdate="2014-08-21" incidenttime="09:45:00" incidentnumber="14165970" address="5100 Friendship Avenue, Pittsburgh, PA 15224, USA" type="ARREST" description="*********************************************** &lt;br/&gt;2701(a)(1), Simple Assault - Intent., Know., Reckless.Cause Bod. Injury&lt;br/&gt;2701(a)(1), Simple Assault - Intent., Know., Reckless.Cause Bod. Injury&lt;br/&gt;"/><marker lat="40.4090023" lng="-79.9939883" zone="Zone 3" incidentdate="2014-08-21" incidenttime="03:59:00" incidentnumber="14165868" address="300 McKinley Street, Pittsburgh, PA 15210, USA" type="ARREST" description="*********************************************** &lt;br/&gt;1301, Registration and Certificate of Title Required.&lt;br/&gt;1312, Notice of Change of Name or Address.&lt;br/&gt;1511, Carrying and Exhibiting Drivers License on Demand.&lt;br/&gt;1543, Driving While Operating Privilege is Suspended or Revoked.&lt;br/&gt;3802(a)(1), DUI - General Impairment&lt;br/&gt;3802(b), DUI - High Rate of Alchol - BAC &gt;=.10% &lt;.16%&lt;br/&gt;1301, Registration and Certificate of Title Required.&lt;br/&gt;1312, Notice of Change of Name or Address.&lt;br/&gt;1511, Carrying and Exhibiting Drivers License on Demand.&lt;br/&gt;1543, Driving While Operating Privilege is Suspended or Revoked.&lt;br/&gt;3802(a)(1), DUI - General Impairment&lt;br/&gt;3802(b), DUI - High Rate of Alchol - BAC &gt;=.10% &lt;.16%&lt;br/&gt;"/><marker lat="40.4524228" lng="-80.0140043" zone="Zone 1" incidentdate="2014-08-21" incidenttime="21:05:00" incidentnumber="14155734" address="Brighton Road &amp; Western Avenue, Pittsburgh, PA 15212, USA" type="ARREST" description="*********************************************** &lt;br/&gt;2705, Recklessly Endangering Another Person.&lt;br/&gt;2707, Propulsion of Missiles&lt;br/&gt;3304, Criminal Mischief.&lt;br/&gt;903, Criminal Conspiracy.&lt;br/&gt;2705, Recklessly Endangering Another Person.&lt;br/&gt;2707, Propulsion of Missiles&lt;br/&gt;3304, Criminal Mischief.&lt;br/&gt;903, Criminal Conspiracy.&lt;br/&gt;903, Criminal Conspiracy.&lt;br/&gt;"/><marker lat="40.40253" lng="-80.032374" zone="Zone 6" incidentdate="2014-08-21" incidenttime="16:32:00" incidentnumber="14166181" address="2300 Candace Street, Pittsburgh, PA 15216, USA" type="ARREST" description="*********************************************** &lt;br/&gt;2701(a)(1), Simple Assault - Intent., Know., Reckless.Cause Bod. Injury&lt;br/&gt;2701(a)(1), Simple Assault - Intent., Know., Reckless.Cause Bod. Injury&lt;br/&gt;"/><marker lat="40.4660098" lng="-79.9227444" zone="Zone 5" incidentdate="2014-08-21" incidenttime="21:15:00" incidentnumber="14166379" address="East Liberty Boulevard &amp; North Highland Avenue, Pittsburgh, PA 15206, USA" type="ARREST" description="*********************************************** &lt;br/&gt;2701, Simple Assault.&lt;br/&gt;3701, Robbery.&lt;br/&gt;903, Criminal Conspiracy.&lt;br/&gt;2701, Simple Assault.&lt;br/&gt;3701, Robbery.&lt;br/&gt;903, Criminal Conspiracy.&lt;br/&gt;903, Criminal Conspiracy.&lt;br/&gt;"/><marker lat="40.394595" lng="-80.021685" zone="Zone 6" incidentdate="2014-08-21" incidenttime="03:05:00" incidentnumber="14156740" address="700 Brookline Boulevard, Pittsburgh, PA 15226, USA" type="ARREST" description="*********************************************** &lt;br/&gt;2701, Simple Assault.&lt;br/&gt;2701, Simple Assault.&lt;br/&gt;"/><marker lat="40.486877" lng="-79.894016" zone="Zone 5" incidentdate="2014-08-21" incidenttime="12:11:00" incidentnumber="14166039" address="900 Freeport Road, Pittsburgh, PA 15238, USA" type="ARREST" description="*********************************************** &lt;br/&gt;3929, Retail Theft.&lt;br/&gt;3929, Retail Theft.&lt;br/&gt;3929, Retail Theft.&lt;br/&gt;903, Criminal Conspiracy.&lt;br/&gt;"/><marker lat="40.4359335" lng="-79.9971487" zone="Zone 2" incidentdate="2014-08-21" incidenttime="11:00:00" incidentnumber="14064983" address="600 First Avenue, Pittsburgh, PA 15219, USA" type="ARREST" description="*********************************************** &lt;br/&gt;13(a)(16), Possession of Controlled Substance&lt;br/&gt;13(a)(30), Possession w/ Intent to Del. Controlled Substance&lt;br/&gt;13(a)(32), Paraphernalia - Use or Possession&lt;br/&gt;"/><marker lat="40.4444713" lng="-79.8900416" zone="Zone 2" incidentdate="2014-08-21" incidenttime="12:15:00" incidentnumber="14161120" address="400 Ross Avenue, Pittsburgh, PA 15221, USA" type="ARREST" description="*********************************************** &lt;br/&gt;2701(a)(1), Simple Assault - Intent., Know., Reckless.Cause Bod. Injury&lt;br/&gt;"/><marker lat="40.3959959" lng="-79.9212019" zone="Zone 4" incidentdate="2014-08-21" incidenttime="02:26:00" incidentnumber="14165820" address="4500 Armorhill Avenue, Homestead, PA 15120, USA" type="ARREST" description="*********************************************** &lt;br/&gt;2701, Simple Assault.&lt;br/&gt;2701, Simple Assault.&lt;br/&gt;"/><marker lat="40.4384089" lng="-80.0018784" zone="Zone 2" incidentdate="2014-08-21" incidenttime="14:17:00" incidentnumber="14076279" address="300 Boulevard of the Allies, Point Park University, Pittsburgh, PA 15222, USA" type="ARREST" description="*********************************************** &lt;br/&gt;3921, Theft by Unlawful Taking or Disposition.&lt;br/&gt;"/><marker lat="40.4701173" lng="-79.9072986" zone="Zone 5" incidentdate="2014-08-21" incidenttime="04:03:00" incidentnumber="14165871" address="6300 Dean Street, Pittsburgh, PA 15206, USA" type="ARREST" description="*********************************************** &lt;br/&gt;13(a)(16), Possession of Controlled Substance&lt;br/&gt;13(a)(32), Paraphernalia - Use or Possession&lt;br/&gt;13(a)(16), Possession of Controlled Substance&lt;br/&gt;13(a)(32), Paraphernalia - Use or Possession&lt;br/&gt;"/><marker lat="40.4405868" lng="-80.0021963" zone="Zone 2" incidentdate="2014-08-21" incidenttime="14:17:00" incidentnumber="14166110" address="200 Forbes Avenue, Pittsburgh, PA 15222, USA" type="ARREST" description="*********************************************** &lt;br/&gt;9501, Bench Warrant&lt;br/&gt;"/><marker lat="40.4217935" lng="-79.9937597" zone="Zone 3" incidentdate="2014-08-21" incidenttime="18:17:00" incidentnumber="14166266" address="East Warrington Avenue &amp; Allen Street, Pittsburgh, PA 15210, USA" type="ARREST" description="*********************************************** &lt;br/&gt;13(a)(31), Marijuana: Possession Small Amount&lt;br/&gt;1543, Driving While Operating Privilege is Suspended or Revoked.&lt;br/&gt;13(a)(31), Marijuana: Possession Small Amount&lt;br/&gt;13(a)(31), Marijuana: Possession Small Amount&lt;br/&gt;1543, Driving While Operating Privilege is Suspended or Revoked.&lt;br/&gt;"/></markers>
