<?xml version="1.0"?>
<markers><marker lat="40.415638884802782" lng="-80.005578646047596" zone="Zone 3" incidentdate="2015-06-04" incidenttime="01:25:00" incidentnumber="15099886" address="100 block Michigan St" type="OFFENSE" age="" gender="" description="*********************************************** &lt;br/&gt;3502, Burglary.&lt;br/&gt;"/><marker lat="40.405951653089652" lng="-79.991776063599573" zone="Zone 3" incidentdate="2015-06-04" incidenttime="15:00:00" incidentnumber="15100278" address="1000 block Brownsville Rd" type="OFFENSE" age="" gender="" description="*********************************************** &lt;br/&gt;3921(a), Theft by Unlawful Taking or Disposition - Movable item&lt;br/&gt;"/><marker lat="40.397246623518512" lng="-80.023129646415725" zone="Zone 6" incidentdate="2015-06-04" incidenttime="17:30:00" incidentnumber="15100428" address="2500 block Pioneer Ave" type="OFFENSE" age="" gender="" description="*********************************************** &lt;br/&gt;3502, Burglary.&lt;br/&gt;"/><marker lat="40.472679893268513" lng="-79.926474895392957" zone="Zone 5" incidentdate="2015-06-04" incidenttime="01:40:00" incidentnumber="15099889" address="Jackson St &amp; Samantha Way" type="OFFENSE" age="" gender="" description="*********************************************** &lt;br/&gt;601.08(a), Alcohol or Liquor Consumption on Streets or Sidewalks&lt;br/&gt;5505, Public Drunkenness&lt;br/&gt;"/><marker lat="40.442888113190847" lng="-79.997936520552642" zone="Zone 2" incidentdate="2015-06-04" incidenttime="09:51:00" incidentnumber="15100057" address="900 block Liberty Ave" type="OFFENSE" age="" gender="" description="*********************************************** &lt;br/&gt;901, Criminal Attempt&lt;br/&gt;"/><marker lat="40.429354001303075" lng="-79.988609932324479" zone="Zone 3" incidentdate="2015-06-04" incidenttime="16:58:00" incidentnumber="15100269" address="1000 block Bingham St" type="OFFENSE" age="" gender="" description="*********************************************** &lt;br/&gt;9999, 9999 - (Misc. Incident):&lt;br/&gt;"/><marker lat="40.457085571603969" lng="-79.926420146673934" zone="Zone 4" incidentdate="2015-06-04" incidenttime="18:50:00" incidentnumber="15100396" address="300 block Lehigh Ave" type="OFFENSE" age="" gender="" description="*********************************************** &lt;br/&gt;3502, Burglary.&lt;br/&gt;"/><marker lat="40.477093407577023" lng="-80.041016732825128" zone="Zone 1" incidentdate="2015-06-04" incidenttime="14:30:00" incidentnumber="15100229" address="3500 block Mexico St" type="OFFENSE" age="" gender="" description="*********************************************** &lt;br/&gt;2709(a)(1), Harassment by Physical Contact, or Attempts or Threats&lt;br/&gt;"/><marker lat="40.430516543411507" lng="-79.923463518043434" zone="Zone 4" incidentdate="2015-06-04" incidenttime="21:25:00" incidentnumber="15100494" address="2300 block Murray Ave" type="OFFENSE" age="" gender="" description="*********************************************** &lt;br/&gt;5503, Disorderly Conduct.&lt;br/&gt;"/><marker lat="40.44114179316125" lng="-79.982565186079555" zone="Zone 2" incidentdate="2015-06-04" incidenttime="07:45:00" incidentnumber="15100003" address="300 block Roberts St" type="OFFENSE" age="" gender="" description="*********************************************** &lt;br/&gt;3304, Criminal Mischief.&lt;br/&gt;"/><marker lat="40.411181540883454" lng="-79.994989033332303" zone="Zone 3" incidentdate="2015-06-04" incidenttime="06:01:00" incidentnumber="15099970" address="400 block Suncrest St" type="OFFENSE" age="" gender="" description="*********************************************** &lt;br/&gt;4910, Tampering with or Fabricating Physical Evidence.&lt;br/&gt;13(a)(16), Possession of Controlled Substance&lt;br/&gt;13(a)(30), Possession w/ Intent to Del. Controlled Substance&lt;br/&gt;13(a)(32), Paraphernalia - Use or Possession&lt;br/&gt;"/><marker lat="40.372335641215606" lng="-79.914817760635813" zone="Zone 4" incidentdate="2015-06-04" incidenttime="16:40:00" incidentnumber="15085638" address="1200 block Leaside Dr" type="OFFENSE" age="" gender="" description="*********************************************** &lt;br/&gt;4304(a)(1), Endangering Welfare of Children - Course of Conduct Enhanced&lt;br/&gt;"/><marker lat="40.454074811291946" lng="-80.021051277011892" zone="Zone 1" incidentdate="2015-06-04" incidenttime="15:30:00" incidentnumber="15100238" address="1000 block sheffield St" type="OFFENSE" age="" gender="" description="*********************************************** &lt;br/&gt;4120, Identity Theft&lt;br/&gt;"/><marker lat="40.454877408624277" lng="-79.999168576409389" zone="Zone 1" incidentdate="2015-06-04" incidenttime="21:35:00" incidentnumber="15100504" address="600 block Foreland St" type="OFFENSE" age="" gender="" description="*********************************************** &lt;br/&gt;5506, Loitering and Prowling at Night&lt;br/&gt;13(a)(32), Paraphernalia - Use or Possession&lt;br/&gt;"/><marker lat="40.454074811291946" lng="-80.021051277011892" zone="Zone 1" incidentdate="2015-06-04" incidenttime="11:30:00" incidentnumber="15100115" address="1000 block Sheffield St" type="OFFENSE" age="" gender="" description="*********************************************** &lt;br/&gt;3921(a), Theft by Unlawful Taking or Disposition - Movable item&lt;br/&gt;"/><marker lat="40.410409269177919" lng="-79.990349653188431" zone="Zone 3" incidentdate="2015-06-04" incidenttime="15:58:00" incidentnumber="15100248" address="Suncrest St &amp; Brownsville Rd" type="OFFENSE" age="" gender="" description="*********************************************** &lt;br/&gt;9501, Bench Warrant&lt;br/&gt;"/><marker lat="40.45127028732211" lng="-80.003145290116663" zone="Zone 1" incidentdate="2015-06-04" incidenttime="16:00:00" incidentnumber="15100279" address="Allegheny Center Mall" type="OFFENSE" age="" gender="" description="*********************************************** &lt;br/&gt;3921, Theft by Unlawful Taking or Disposition.&lt;br/&gt;"/><marker lat="40.440086472089142" lng="-79.958320548707789" zone="Zone 4" incidentdate="2015-06-04" incidenttime="09:55:00" incidentnumber="15100067" address="3500 block Forbes Ave" type="OFFENSE" age="" gender="" description="*********************************************** &lt;br/&gt;3745, Accidents Involving Damage to Unattended Veh.or Prop.&lt;br/&gt;"/><marker lat="40.474989473425119" lng="-80.011320737051875" zone="Zone 1" incidentdate="2015-06-04" incidenttime="11:00:00" incidentnumber="15100384" address="100 block MARSHALL Ave" type="OFFENSE" age="" gender="" description="*********************************************** &lt;br/&gt;2709(a)(3), Harassment No Legitimate Purpose&lt;br/&gt;"/><marker lat="40.477035165447738" lng="-79.999511479450007" zone="Zone 1" incidentdate="2015-06-04" incidenttime="16:20:00" incidentnumber="15100295" address="Mt Pleasant Rd &amp; Penfort St" type="OFFENSE" age="" gender="" description="*********************************************** &lt;br/&gt;2709(a)(1), Harassment by Physical Contact, or Attempts or Threats&lt;br/&gt;"/><marker lat="40.428478873788158" lng="-79.980265799395895" zone="Zone 3" incidentdate="2015-06-04" incidenttime="20:30:00" incidentnumber="15100465" address="1800 block W Carson St" type="OFFENSE" age="" gender="" description="*********************************************** &lt;br/&gt;9017, Found Drugs&lt;br/&gt;"/><marker lat="40.460891636907029" lng="-79.919830548848182" zone="Zone 5" incidentdate="2015-06-04" incidenttime="01:30:00" incidentnumber="15099942" address="Blanford Ct" type="OFFENSE" age="" gender="" description="*********************************************** &lt;br/&gt;2701, Simple Assault.&lt;br/&gt;"/><marker lat="40.419549183995024" lng="-79.993617873536905" zone="Zone 3" incidentdate="2015-06-04" incidenttime="05:55:00" incidentnumber="15099963" address="Allen St" type="OFFENSE" age="" gender="" description="*********************************************** &lt;br/&gt;9018, Accidental Fire&lt;br/&gt;"/><marker lat="40.470459852290823" lng="-80.0111378348073" zone="Zone 1" incidentdate="2015-06-04" incidenttime="15:55:00" incidentnumber="15100244" address="2900 block N Charles St" type="OFFENSE" age="" gender="" description="*********************************************** &lt;br/&gt;2701(b)(1), Simple Assault - Fight or Scuffle Entered by Mutual Consent&lt;br/&gt;"/><marker lat="40.393464065727578" lng="-80.027944215978437" zone="Zone 6" incidentdate="2015-06-04" incidenttime="08:00:00" incidentnumber="15100012" address="2900 block Knowlson Ave" type="OFFENSE" age="" gender="" description="*********************************************** &lt;br/&gt;3934, Theft from Vehicle&lt;br/&gt;"/><marker lat="40.418489782115671" lng="-80.012411673257247" zone="Zone 3" incidentdate="2015-06-04" incidenttime="19:45:00" incidentnumber="15100417" address="800 block Boggs Ave" type="OFFENSE" age="" gender="" description="*********************************************** &lt;br/&gt;9999, 9999 - (Misc. Incident):&lt;br/&gt;"/><marker lat="40.495010404156623" lng="-80.024557906702739" zone="Zone 1" incidentdate="2015-06-04" incidenttime="12:11:00" incidentnumber="15100133" address="200 block Perry View Ave" type="OFFENSE" age="" gender="" description="*********************************************** &lt;br/&gt;9488, False  Burglar Alarm&lt;br/&gt;"/><marker lat="40.459968500652259" lng="-80.073925346989597" zone="Zone 6" incidentdate="2015-06-04" incidenttime="14:00:00" incidentnumber="15100221" address="1500 block Harlow St" type="OFFENSE" age="" gender="" description="*********************************************** &lt;br/&gt;3304, Criminal Mischief.&lt;br/&gt;"/><marker lat="40.445590651116305" lng="-79.949387243364313" zone="Zone 4" incidentdate="2015-06-04" incidenttime="02:14:00" incidentnumber="15099896" address="300 block N Craig St" type="OFFENSE" age="" gender="" description="*********************************************** &lt;br/&gt;2902, Unlawful Restraint.&lt;br/&gt;2701(a)(1), Simple Assault - Intent., Know., Reckless.Cause Bod. Injury&lt;br/&gt;6106.1, Carrying Loaded Weapons Other Than Firearms&lt;br/&gt;6105(a)(1), Persons not to possess, use, manufacture, control, sell or transfer firearms: Former convict enumerated in subsection (b)&lt;br/&gt;2705, Recklessly Endangering Another Person.&lt;br/&gt;6106, Firearms not to be Carried without a License.&lt;br/&gt;"/><marker lat="40.470071982498879" lng="-79.897110271835317" zone="Zone 5" incidentdate="2015-06-04" incidenttime="15:00:00" incidentnumber="15100226" address="Paulson Ave &amp; Lemington Ave" type="OFFENSE" age="" gender="" description="*********************************************** &lt;br/&gt;9999, 9999 - (Misc. Incident):&lt;br/&gt;"/><marker lat="40.456938679070994" lng="-79.999947636278463" zone="Zone 5" incidentdate="2015-06-04" incidenttime="16:30:00" incidentnumber="15100284" address="600 block N Beatty St" type="OFFENSE" age="" gender="" description="*********************************************** &lt;br/&gt;3921, Theft by Unlawful Taking or Disposition.&lt;br/&gt;"/><marker lat="40.4365474" lng="-80.0010604" zone="Zone 2" incidentdate="2015-06-04" incidenttime="18:31:00" incidentnumber="15100379" address="Smithfield St Brg &amp; Fort Pitt Blvd" type="OFFENSE" age="" gender="" description="*********************************************** &lt;br/&gt;13(a)(31), Marijuana: Possession Small Amount&lt;br/&gt;"/><marker lat="40.462743319218497" lng="-79.983558862547724" zone="Zone 1" incidentdate="2015-06-04" incidenttime="09:00:00" incidentnumber="15100059" address="1600 block Lowrie St" type="OFFENSE" age="" gender="" description="*********************************************** &lt;br/&gt;9496, Dead on Arrival (DOA)&lt;br/&gt;"/><marker lat="40.437866329150474" lng="-79.979475933976815" zone="Zone 2" incidentdate="2015-06-04" incidenttime="22:15:00" incidentnumber="15100521" address="Watson St &amp; Gist St" type="OFFENSE" age="" gender="" description="*********************************************** &lt;br/&gt;5902(a)(2), Prostitution - Loitering for purpose of&lt;br/&gt;5902(a)(1), Prostitution&lt;br/&gt;"/><marker lat="40.473349600095005" lng="-80.002822219962013" zone="Zone 1" incidentdate="2015-06-04" incidenttime="19:20:00" incidentnumber="15100409" address="100 block Penfort St" type="OFFENSE" age="" gender="" description="*********************************************** &lt;br/&gt;2709(a)(1), Harassment by Physical Contact, or Attempts or Threats&lt;br/&gt;"/><marker lat="40.4661836986254" lng="-79.99982466899057" zone="Zone 5" incidentdate="2015-06-04" incidenttime="19:30:00" incidentnumber="15100477" address="2100 block E.Hills Dr" type="OFFENSE" age="" gender="" description="*********************************************** &lt;br/&gt;3921, Theft by Unlawful Taking or Disposition.&lt;br/&gt;"/><marker lat="40.430052983169602" lng="-79.987535298717816" zone="Zone 3" incidentdate="2015-06-04" incidenttime="18:15:00" incidentnumber="15100380" address="S 11th St &amp; Muriel St" type="OFFENSE" age="" gender="" description="*********************************************** &lt;br/&gt;3934, Theft from Vehicle&lt;br/&gt;"/><marker lat="40.401114664142874" lng="-79.940977922911173" zone="Zone 4" incidentdate="2015-06-04" incidenttime="04:49:00" incidentnumber="15099949" address="Vespucius St" type="OFFENSE" age="" gender="" description="*********************************************** &lt;br/&gt;9123, Miscellaneous Fire Other Investigation to Continue&lt;br/&gt;"/><marker lat="40.422484759267384" lng="-79.945232944085575" zone="Zone 4" incidentdate="2015-06-04" incidenttime="07:30:00" incidentnumber="15100097" address="4200 block Gladstone St" type="OFFENSE" age="" gender="" description="*********************************************** &lt;br/&gt;3934, Theft from Vehicle&lt;br/&gt;"/><marker lat="40.453769843523851" lng="-80.060827682050274" zone="Zone 6" incidentdate="2015-06-04" incidenttime="16:51:00" incidentnumber="15100296" address="1000 block Adon St" type="OFFENSE" age="" gender="" description="*********************************************** &lt;br/&gt;9489, Found Property&lt;br/&gt;"/><marker lat="40.393868247768545" lng="-80.005803235629187" zone="Zone 6" incidentdate="2015-06-04" incidenttime="16:50:00" incidentnumber="15100273" address="1500 block Milan Ave" type="OFFENSE" age="" gender="" description="*********************************************** &lt;br/&gt;3502, Burglary.&lt;br/&gt;"/><marker lat="40.463244507649506" lng="-79.912095482430715" zone="Zone 5" incidentdate="2015-06-04" incidenttime="00:09:00" incidentnumber="15099852" address="500 block Paulson Ave" type="OFFENSE" age="" gender="" description="*********************************************** &lt;br/&gt;2701, Simple Assault.&lt;br/&gt;2706, Terroristic Threats.&lt;br/&gt;5505, Public Drunkenness&lt;br/&gt;5503(a)(2), DISORDERLY CONDUCT - UNREASONABLE NOISE&lt;br/&gt;"/><marker lat="40.456581713944651" lng="-80.000332843470076" zone="Zone 1" incidentdate="2015-06-04" incidenttime="08:41:00" incidentnumber="15100024" address="E North Ave" type="OFFENSE" age="" gender="" description="*********************************************** &lt;br/&gt;5123, Contraband.&lt;br/&gt;13(a)(16), Possession of Controlled Substance&lt;br/&gt;13(a)(30), Possession w/ Intent to Del. Controlled Substance&lt;br/&gt;"/><marker lat="40.455476857523522" lng="-80.00656732886803" zone="Zone 2" incidentdate="2015-06-04" incidenttime="14:30:00" incidentnumber="15100209" address="1100 block Federal St" type="OFFENSE" age="" gender="" description="*********************************************** &lt;br/&gt;3934, Theft from Vehicle&lt;br/&gt;"/><marker lat="40.4662320" lng="-79.9243041" zone="Zone 5" incidentdate="2015-06-04" incidenttime="19:50:00" incidentnumber="15100464" address="5900 block East Liberty Blvd" type="OFFENSE" age="" gender="" description="*********************************************** &lt;br/&gt;13(a)(16), Possession of Controlled Substance&lt;br/&gt;4910, Tampering with or Fabricating Physical Evidence.&lt;br/&gt;13(a)(30), Possession w/ Intent to Del. Controlled Substance&lt;br/&gt;903, Criminal Conspiracy.&lt;br/&gt;13(a)(32), Paraphernalia - Use or Possession&lt;br/&gt;"/><marker lat="40.434072106002063" lng="-79.927681034938004" zone="Zone 4" incidentdate="2015-06-04" incidenttime="05:30:00" incidentnumber="15100211" address="2000 block Wightman St" type="OFFENSE" age="" gender="" description="*********************************************** &lt;br/&gt;3921, Theft by Unlawful Taking or Disposition.&lt;br/&gt;"/><marker lat="40.458546551514743" lng="-80.012726223345538" zone="Zone 1" incidentdate="2015-06-04" incidenttime="07:25:00" incidentnumber="15099987" address="500 block Armandale St" type="OFFENSE" age="" gender="" description="*********************************************** &lt;br/&gt;9488, False  Burglar Alarm&lt;br/&gt;"/><marker lat="40.422484759267384" lng="-79.945232944085575" zone="Zone 4" incidentdate="2015-06-04" incidenttime="10:00:00" incidentnumber="15100070" address="4200 block Gladstone St" type="OFFENSE" age="" gender="" description="*********************************************** &lt;br/&gt;3934, Theft from Vehicle&lt;br/&gt;"/><marker lat="40.434696587775576" lng="-79.996300985228572" zone="Zone 2" incidentdate="2015-06-04" incidenttime="12:20:00" incidentnumber="15100156" address="600 block 1st Ave" type="OFFENSE" age="" gender="" description="*********************************************** &lt;br/&gt;9093, Indirect Criminal Contempt&lt;br/&gt;"/><marker lat="40.47754547838678" lng="-80.036482582341762" zone="Zone 1" incidentdate="2015-06-04" incidenttime="20:00:00" incidentnumber="15100430" address="3400 block Mc Clure Ave" type="OFFENSE" age="" gender="" description="*********************************************** &lt;br/&gt;2701(b)(1), Simple Assault - Fight or Scuffle Entered by Mutual Consent&lt;br/&gt;"/><marker lat="40.439646251257145" lng="-79.995893890528734" zone="Zone 2" incidentdate="2015-06-04" incidenttime="20:13:00" incidentnumber="15100405" address="500 block Grant St" type="OFFENSE" age="" gender="" description="*********************************************** &lt;br/&gt;2709(a), Harassment.&lt;br/&gt;"/><marker lat="40.43007247445037" lng="-80.053908499092216" zone="Zone 6" incidentdate="2015-06-04" incidenttime="01:45:00" incidentnumber="15099894" address="2200 block Noblestown Rd" type="OFFENSE" age="" gender="" description="*********************************************** &lt;br/&gt;3929, Retail Theft.&lt;br/&gt;"/><marker lat="40.434716824926056" lng="-80.048882259564337" zone="Zone 6" incidentdate="2015-06-04" incidenttime="00:30:00" incidentnumber="15099845" address="200 block Shadyhill Rd" type="OFFENSE" age="" gender="" description="*********************************************** &lt;br/&gt;13(a)(31), Marijuana: Possession Small Amount&lt;br/&gt;13(a)(32), Paraphernalia - Use or Possession&lt;br/&gt;"/><marker lat="40.4725197" lng="-79.8886145" zone="Zone 5" incidentdate="2015-06-04" incidenttime="07:05:00" incidentnumber="15099983" address="200 block Travella Blvd" type="OFFENSE" age="" gender="" description="*********************************************** &lt;br/&gt;9015, Failure To Appear/Arrest on Attachment Order&lt;br/&gt;"/><marker lat="40.439134875179292" lng="-79.980460317668332" zone="Zone 2" incidentdate="2015-06-04" incidenttime="10:15:00" incidentnumber="15100071" address="200 block Dinwiddie St" type="OFFENSE" age="" gender="" description="*********************************************** &lt;br/&gt;9999, 9999 - (Misc. Incident):&lt;br/&gt;"/><marker lat="40.457377056830097" lng="-79.997739264863995" zone="Zone 1" incidentdate="2015-06-04" incidenttime="09:30:00" incidentnumber="15100039" address="800 block Spring Garden Ave" type="OFFENSE" age="" gender="" description="*********************************************** &lt;br/&gt;3304, Criminal Mischief.&lt;br/&gt;3503, Criminal Trespass&lt;br/&gt;"/><marker lat="40.463319501487575" lng="-79.937605436476105" zone="Zone 5" incidentdate="2015-06-04" incidenttime="03:10:00" incidentnumber="15099924" address="200 block N Aiken Ave" type="OFFENSE" age="" gender="" description="*********************************************** &lt;br/&gt;3304, Criminal Mischief.&lt;br/&gt;"/><marker lat="40.3991738" lng="-79.9843416" zone="Zone 3" incidentdate="2015-06-04" incidenttime="00:30:00" incidentnumber="15099875" address="1600 block E Cherryhill St" type="OFFENSE" age="" gender="" description="*********************************************** &lt;br/&gt;3921, Theft by Unlawful Taking or Disposition.&lt;br/&gt;"/><marker lat="40.429764885213586" lng="-79.981951688302857" zone="Zone 3" incidentdate="2015-06-04" incidenttime="15:00:00" incidentnumber="15100299" address="S 17th St &amp; Sidney St" type="OFFENSE" age="" gender="" description="*********************************************** &lt;br/&gt;3745, Accidents Involving Damage to Unattended Veh.or Prop.&lt;br/&gt;"/><marker lat="40.460672464720588" lng="-79.988541430999106" zone="Zone 1" incidentdate="2015-06-04" incidenttime="08:20:00" incidentnumber="15099991" address="1300 block Tell St" type="OFFENSE" age="" gender="" description="*********************************************** &lt;br/&gt;9999, 9999 - (Misc. Incident):&lt;br/&gt;"/><marker lat="40.4429969" lng="-80.0420678" zone="Zone 6" incidentdate="2015-06-04" incidenttime="16:30:00" incidentnumber="15100275" address="900 block Calcutta Way" type="OFFENSE" age="" gender="" description="*********************************************** &lt;br/&gt;13(a)(16), Possession of Controlled Substance&lt;br/&gt;6110.1, Possesion of Firearm by Minor&lt;br/&gt;13(a)(30), Possession w/ Intent to Del. Controlled Substance&lt;br/&gt;7512, Criminal Use of Communication&lt;br/&gt;6106, Firearms not to be Carried without a License.&lt;br/&gt;3925, Receiving Stolen Property.&lt;br/&gt;6105(a)(1), Persons not to possess, use, manufacture, control, sell or transfer firearms: Former convict enumerated in subsection (b)&lt;br/&gt;"/><marker lat="40.3835451" lng="-79.9830551" zone="Zone 3" incidentdate="2015-06-04" incidenttime="01:30:00" incidentnumber="15099895" address="Meritt Ave" type="OFFENSE" age="" gender="" description="*********************************************** &lt;br/&gt;9496, Dead on Arrival (DOA)&lt;br/&gt;"/><marker lat="40.382247318404154" lng="-79.995897394247095" zone="Zone 3" incidentdate="2015-06-04" incidenttime="10:25:00" incidentnumber="15100077" address="Ivyglen St &amp; Saw Mill Run Blvd" type="OFFENSE" age="" gender="" description="*********************************************** &lt;br/&gt;3743, Accidents Involving Damage to Attended Veh. or Property&lt;br/&gt;"/><marker lat="40.441174434456997" lng="-79.958892370512714" zone="Zone 4" incidentdate="2015-06-04" incidenttime="14:23:00" incidentnumber="15100213" address="3600 block 5th Ave" type="OFFENSE" age="" gender="" description="*********************************************** &lt;br/&gt;3745, Accidents Involving Damage to Unattended Veh.or Prop.&lt;br/&gt;"/><marker lat="40.414309475534907" lng="-79.990557634779719" zone="Zone 3" incidentdate="2015-06-04" incidenttime="11:00:00" incidentnumber="15100096" address="200 block Bausman St" type="OFFENSE" age="" gender="" description="*********************************************** &lt;br/&gt;3304, Criminal Mischief.&lt;br/&gt;"/><marker lat="40.461414099706971" lng="-79.92481805202975" zone="Zone 5" incidentdate="2015-06-04" incidenttime="14:00:00" incidentnumber="15100181" address="Penn Ave &amp; N Highland Ave" type="OFFENSE" age="" gender="" description="*********************************************** &lt;br/&gt;5505, Public Drunkenness&lt;br/&gt;"/><marker lat="40.465913053577324" lng="-79.953250701447303" zone="Zone 2" incidentdate="2015-06-04" incidenttime="01:00:00" incidentnumber="15100443" address="4400 block Penn Ave" type="OFFENSE" age="" gender="" description="*********************************************** &lt;br/&gt;3924, Theft of Property Lost, Mislaid or Delivered by Mistake.&lt;br/&gt;"/><marker lat="40.4072771" lng="-79.9390541" zone="Zone 4" incidentdate="2015-06-04" incidenttime="08:53:00" incidentnumber="15100025" address="300 block Ashton St" type="OFFENSE" age="" gender="" description="*********************************************** &lt;br/&gt;9999, 9999 - (Misc. Incident):&lt;br/&gt;"/><marker lat="40.427929065959248" lng="-79.982139788014067" zone="Zone 3" incidentdate="2015-06-04" incidenttime="00:35:00" incidentnumber="15099862" address="S 17th St &amp; Sarah St" type="OFFENSE" age="" gender="" description="*********************************************** &lt;br/&gt;5503(a)(2), DISORDERLY CONDUCT - UNREASONABLE NOISE&lt;br/&gt;2701, Simple Assault.&lt;br/&gt;5505, Public Drunkenness&lt;br/&gt;"/><marker lat="40.45867807963706" lng="-79.957402140723502" zone="Zone 5" incidentdate="2015-06-04" incidenttime="11:56:00" incidentnumber="15100126" address="Bloomfield Brg" type="OFFENSE" age="" gender="" description="*********************************************** &lt;br/&gt;4910, Tampering with or Fabricating Physical Evidence.&lt;br/&gt;13(a)(16), Possession of Controlled Substance&lt;br/&gt;13(a)(30), Possession w/ Intent to Del. Controlled Substance&lt;br/&gt;"/><marker lat="40.44680302397537" lng="-80.046050735889125" zone="Zone 6" incidentdate="2015-06-04" incidenttime="07:00:00" incidentnumber="15100120" address="1300 block Crucible St" type="OFFENSE" age="" gender="" description="*********************************************** &lt;br/&gt;3304, Criminal Mischief.&lt;br/&gt;"/><marker lat="40.467765210673555" lng="-79.934311888042416" zone="Zone 5" incidentdate="2015-06-04" incidenttime="01:22:00" incidentnumber="15099880" address="400 block N Aiken Ave" type="OFFENSE" age="" gender="" description="*********************************************** &lt;br/&gt;3502, Burglary.&lt;br/&gt;"/><marker lat="40.452342218528059" lng="-79.96437627929744" zone="Zone 2" incidentdate="2015-06-04" incidenttime="06:00:00" incidentnumber="15100082" address="3300 block MILWAUKEE St" type="OFFENSE" age="" gender="" description="*********************************************** &lt;br/&gt;3921, Theft by Unlawful Taking or Disposition.&lt;br/&gt;"/><marker lat="40.457639660565107" lng="-80.017815309763947" zone="Zone 1" incidentdate="2015-06-04" incidenttime="23:09:00" incidentnumber="15100548" address="Freedmore St &amp; Marquis Way" type="OFFENSE" age="" gender="" description="*********************************************** &lt;br/&gt;4303, General Lighting Requirements.&lt;br/&gt;13(a)(16), Possession of Controlled Substance&lt;br/&gt;13(a)(32), Paraphernalia - Use or Possession&lt;br/&gt;"/><marker lat="40.446856995950952" lng="-80.051173354540921" zone="Zone 6" incidentdate="2015-06-04" incidenttime="21:38:00" incidentnumber="15100503" address="800 block Woodlow St" type="OFFENSE" age="" gender="" description="*********************************************** &lt;br/&gt;2701, Simple Assault.&lt;br/&gt;"/><marker lat="40.470459852290823" lng="-80.0111378348073" zone="Zone 1" incidentdate="2015-06-04" incidenttime="13:40:00" incidentnumber="15100140" address="2900 block N Charles St" type="OFFENSE" age="" gender="" description="*********************************************** &lt;br/&gt;9497, Aided Case&lt;br/&gt;"/><marker lat="40.461816092515612" lng="-79.990556791099038" zone="Zone 1" incidentdate="2015-06-04" incidenttime="16:10:00" incidentnumber="15100256" address="1300 block Diana St" type="OFFENSE" age="" gender="" description="*********************************************** &lt;br/&gt;2706, Terroristic Threats.&lt;br/&gt;"/><marker lat="40.45867807963706" lng="-79.957402140723502" zone="Zone 5" incidentdate="2015-06-04" incidenttime="13:45:00" incidentnumber="15100126" address="Bloomfield Brg" type="ARREST" age="42" gender="M" description="*********************************************** &lt;br/&gt;4910, Tampering with or Fabricating Physical Evidence.&lt;br/&gt;13(a)(16), Possession of Controlled Substance&lt;br/&gt;13(a)(30), Possession w/ Intent to Del. Controlled Substance&lt;br/&gt;"/><marker lat="40.4429969" lng="-80.0420678" zone="Zone 6" incidentdate="2015-06-04" incidenttime="16:30:00" incidentnumber="15100275" address="900 block Calcutta Way" type="ARREST" age="20" gender="M" description="*********************************************** &lt;br/&gt;13(a)(16), Possession of Controlled Substance&lt;br/&gt;6110.1, Possesion of Firearm by Minor&lt;br/&gt;13(a)(30), Possession w/ Intent to Del. Controlled Substance&lt;br/&gt;7512, Criminal Use of Communication&lt;br/&gt;6106, Firearms not to be Carried without a License.&lt;br/&gt;3925, Receiving Stolen Property.&lt;br/&gt;6105(a)(1), Persons not to possess, use, manufacture, control, sell or transfer firearms: Former convict enumerated in subsection (b)&lt;br/&gt;"/><marker lat="40.434716824926056" lng="-80.048882259564337" zone="Zone 6" incidentdate="2015-06-04" incidenttime="01:00:00" incidentnumber="15099845" address="200 block Shadyhill Rd" type="ARREST" age="26" gender="M" description="*********************************************** &lt;br/&gt;13(a)(31), Marijuana: Possession Small Amount&lt;br/&gt;13(a)(32), Paraphernalia - Use or Possession&lt;br/&gt;"/><marker lat="40.456581713944651" lng="-80.000332843470076" zone="Zone 1" incidentdate="2015-06-04" incidenttime="08:50:00" incidentnumber="15100024" address="E North Ave" type="ARREST" age="42" gender="M" description="*********************************************** &lt;br/&gt;5123, Contraband.&lt;br/&gt;13(a)(16), Possession of Controlled Substance&lt;br/&gt;13(a)(30), Possession w/ Intent to Del. Controlled Substance&lt;br/&gt;"/><marker lat="40.372335641215606" lng="-79.914817760635813" zone="Zone 4" incidentdate="2015-06-04" incidenttime="16:40:00" incidentnumber="15085638" address="1200 block Leaside Dr" type="ARREST" age="34" gender="F" description="*********************************************** &lt;br/&gt;4304(a)(1), Endangering Welfare of Children - Course of Conduct Enhanced&lt;br/&gt;"/><marker lat="40.434716824926056" lng="-80.048882259564337" zone="Zone 6" incidentdate="2015-06-04" incidenttime="01:00:00" incidentnumber="15099845" address="200 block Shadyhill Rd" type="ARREST" age="24" gender="F" description="*********************************************** &lt;br/&gt;13(a)(31), Marijuana: Possession Small Amount&lt;br/&gt;13(a)(32), Paraphernalia - Use or Possession&lt;br/&gt;"/><marker lat="40.453539170738004" lng="-80.000575279128412" zone="Zone 1" incidentdate="2015-06-04" incidenttime="15:00:00" incidentnumber="15021887" address="500 block East Ohio St" type="ARREST" age="40" gender="M" description="*********************************************** &lt;br/&gt;9015, Failure To Appear/Arrest on Attachment Order&lt;br/&gt;2701, Simple Assault.&lt;br/&gt;"/><marker lat="40.427929065959248" lng="-79.982139788014067" zone="Zone 3" incidentdate="2015-06-04" incidenttime="00:35:00" incidentnumber="15099862" address="S 17th St &amp; Sarah St" type="ARREST" age="23" gender="F" description="*********************************************** &lt;br/&gt;5503(a)(2), DISORDERLY CONDUCT - UNREASONABLE NOISE&lt;br/&gt;2701, Simple Assault.&lt;br/&gt;5505, Public Drunkenness&lt;br/&gt;"/><marker lat="40.4662320" lng="-79.9243041" zone="Zone 5" incidentdate="2015-06-04" incidenttime="19:50:00" incidentnumber="15100464" address="5900 block East Liberty Blvd" type="ARREST" age="50" gender="M" description="*********************************************** &lt;br/&gt;13(a)(16), Possession of Controlled Substance&lt;br/&gt;4910, Tampering with or Fabricating Physical Evidence.&lt;br/&gt;13(a)(30), Possession w/ Intent to Del. Controlled Substance&lt;br/&gt;903, Criminal Conspiracy.&lt;br/&gt;13(a)(32), Paraphernalia - Use or Possession&lt;br/&gt;"/><marker lat="40.434696587775576" lng="-79.996300985228572" zone="Zone 2" incidentdate="2015-06-04" incidenttime="12:30:00" incidentnumber="15100156" address="600 block 1st Ave" type="ARREST" age="34" gender="M" description="*********************************************** &lt;br/&gt;9093, Indirect Criminal Contempt&lt;br/&gt;"/><marker lat="40.437866329150474" lng="-79.979475933976815" zone="Zone 2" incidentdate="2015-06-04" incidenttime="22:15:00" incidentnumber="15100521" address="Watson St &amp; Gist St" type="ARREST" age="45" gender="F" description="*********************************************** &lt;br/&gt;5902(a)(2), Prostitution - Loitering for purpose of&lt;br/&gt;5902(a)(1), Prostitution&lt;br/&gt;"/><marker lat="40.4429969" lng="-80.0420678" zone="Zone 6" incidentdate="2015-06-04" incidenttime="16:30:00" incidentnumber="15100275" address="900 block Calcutta Way" type="ARREST" age="17" gender="M" description="*********************************************** &lt;br/&gt;13(a)(16), Possession of Controlled Substance&lt;br/&gt;6110.1, Possesion of Firearm by Minor&lt;br/&gt;13(a)(30), Possession w/ Intent to Del. Controlled Substance&lt;br/&gt;7512, Criminal Use of Communication&lt;br/&gt;6106, Firearms not to be Carried without a License.&lt;br/&gt;3925, Receiving Stolen Property.&lt;br/&gt;6105(a)(1), Persons not to possess, use, manufacture, control, sell or transfer firearms: Former convict enumerated in subsection (b)&lt;br/&gt;"/><marker lat="40.4662320" lng="-79.9243041" zone="Zone 5" incidentdate="2015-06-04" incidenttime="19:50:00" incidentnumber="15100464" address="5900 block East Liberty Blvd" type="ARREST" age="37" gender="M" description="*********************************************** &lt;br/&gt;13(a)(16), Possession of Controlled Substance&lt;br/&gt;4910, Tampering with or Fabricating Physical Evidence.&lt;br/&gt;13(a)(30), Possession w/ Intent to Del. Controlled Substance&lt;br/&gt;903, Criminal Conspiracy.&lt;br/&gt;13(a)(32), Paraphernalia - Use or Possession&lt;br/&gt;"/><marker lat="40.454877408624277" lng="-79.999168576409389" zone="Zone 1" incidentdate="2015-06-04" incidenttime="21:35:00" incidentnumber="15100504" address="600 block Foreland St" type="ARREST" age="42" gender="M" description="*********************************************** &lt;br/&gt;5506, Loitering and Prowling at Night&lt;br/&gt;13(a)(32), Paraphernalia - Use or Possession&lt;br/&gt;"/><marker lat="40.457639660565107" lng="-80.017815309763947" zone="Zone 1" incidentdate="2015-06-04" incidenttime="23:09:00" incidentnumber="15100548" address="Freedmore St &amp; Marquis Way" type="ARREST" age="50" gender="M" description="*********************************************** &lt;br/&gt;4303, General Lighting Requirements.&lt;br/&gt;13(a)(16), Possession of Controlled Substance&lt;br/&gt;13(a)(32), Paraphernalia - Use or Possession&lt;br/&gt;"/><marker lat="40.435095503606554" lng="-79.993077686753679" zone="Zone 2" incidentdate="2015-06-04" incidenttime="19:30:00" incidentnumber="15080463" address="900 block Second Ave" type="ARREST" age="54" gender="M" description="*********************************************** &lt;br/&gt;4101, Forgery.&lt;br/&gt;901, Criminal Attempt&lt;br/&gt;"/><marker lat="40.457639660565107" lng="-80.017815309763947" zone="Zone 1" incidentdate="2015-06-04" incidenttime="23:09:00" incidentnumber="15100548" address="Freedmore St &amp; Marquis Way" type="ARREST" age="56" gender="M" description="*********************************************** &lt;br/&gt;4303, General Lighting Requirements.&lt;br/&gt;13(a)(16), Possession of Controlled Substance&lt;br/&gt;13(a)(32), Paraphernalia - Use or Possession&lt;br/&gt;"/><marker lat="40.442888113190847" lng="-79.997936520552642" zone="Zone 2" incidentdate="2015-06-04" incidenttime="10:10:00" incidentnumber="15100057" address="900 block Liberty Ave" type="ARREST" age="47" gender="M" description="*********************************************** &lt;br/&gt;901, Criminal Attempt&lt;br/&gt;"/><marker lat="40.427929065959248" lng="-79.982139788014067" zone="Zone 3" incidentdate="2015-06-04" incidenttime="00:35:00" incidentnumber="15099862" address="S 17th St &amp; Sarah St" type="ARREST" age="25" gender="F" description="*********************************************** &lt;br/&gt;5503(a)(2), DISORDERLY CONDUCT - UNREASONABLE NOISE&lt;br/&gt;2701, Simple Assault.&lt;br/&gt;5505, Public Drunkenness&lt;br/&gt;"/><marker lat="40.4429969" lng="-80.0420678" zone="Zone 6" incidentdate="2015-06-04" incidenttime="16:30:00" incidentnumber="15100275" address="900 block Calcutta Way" type="ARREST" age="18" gender="M" description="*********************************************** &lt;br/&gt;13(a)(16), Possession of Controlled Substance&lt;br/&gt;6110.1, Possesion of Firearm by Minor&lt;br/&gt;13(a)(30), Possession w/ Intent to Del. Controlled Substance&lt;br/&gt;7512, Criminal Use of Communication&lt;br/&gt;6106, Firearms not to be Carried without a License.&lt;br/&gt;3925, Receiving Stolen Property.&lt;br/&gt;6105(a)(1), Persons not to possess, use, manufacture, control, sell or transfer firearms: Former convict enumerated in subsection (b)&lt;br/&gt;"/><marker lat="40.454948691850667" lng="-80.009640272832598" zone="Zone 1" incidentdate="2015-06-04" incidenttime="19:18:00" incidentnumber="15073392" address="300 block E North Ave" type="ARREST" age="23" gender="M" description="*********************************************** &lt;br/&gt;13(a)(31), Marijuana: Possession Small Amount&lt;br/&gt;9015, Failure To Appear/Arrest on Attachment Order&lt;br/&gt;"/><marker lat="40.448273047403532" lng="-80.082588242861064" zone="Zone 6" incidentdate="2015-06-04" incidenttime="14:30:00" incidentnumber="15082545" address="2000 block Broadhead Fording Rd" type="ARREST" age="28" gender="F" description="*********************************************** &lt;br/&gt;3304, Criminal Mischief.&lt;br/&gt;2702, Aggravated Assault.&lt;br/&gt;1543, Driving While Operating Privilege is Suspended or Revoked.&lt;br/&gt;"/><marker lat="40.410409269177919" lng="-79.990349653188431" zone="Zone 3" incidentdate="2015-06-04" incidenttime="15:58:00" incidentnumber="15100248" address="Suncrest St &amp; Brownsville Rd" type="ARREST" age="22" gender="M" description="*********************************************** &lt;br/&gt;9501, Bench Warrant&lt;br/&gt;"/><marker lat="40.445590651116305" lng="-79.949387243364313" zone="Zone 4" incidentdate="2015-06-04" incidenttime="02:14:00" incidentnumber="15099896" address="300 block N Craig St" type="ARREST" age="32" gender="M" description="*********************************************** &lt;br/&gt;2902, Unlawful Restraint.&lt;br/&gt;2701(a)(1), Simple Assault - Intent., Know., Reckless.Cause Bod. Injury&lt;br/&gt;6106.1, Carrying Loaded Weapons Other Than Firearms&lt;br/&gt;6105(a)(1), Persons not to possess, use, manufacture, control, sell or transfer firearms: Former convict enumerated in subsection (b)&lt;br/&gt;2705, Recklessly Endangering Another Person.&lt;br/&gt;6106, Firearms not to be Carried without a License.&lt;br/&gt;"/><marker lat="40.4429969" lng="-80.0420678" zone="Zone 6" incidentdate="2015-06-04" incidenttime="16:30:00" incidentnumber="15100275" address="900 block Calcutta Way" type="ARREST" age="19" gender="M" description="*********************************************** &lt;br/&gt;13(a)(16), Possession of Controlled Substance&lt;br/&gt;6110.1, Possesion of Firearm by Minor&lt;br/&gt;13(a)(30), Possession w/ Intent to Del. Controlled Substance&lt;br/&gt;7512, Criminal Use of Communication&lt;br/&gt;6106, Firearms not to be Carried without a License.&lt;br/&gt;3925, Receiving Stolen Property.&lt;br/&gt;6105(a)(1), Persons not to possess, use, manufacture, control, sell or transfer firearms: Former convict enumerated in subsection (b)&lt;br/&gt;"/><marker lat="40.456581713944651" lng="-80.000332843470076" zone="Zone 1" incidentdate="2015-06-04" incidenttime="08:50:00" incidentnumber="15074913" address="E North Ave" type="ARREST" age="42" gender="M" description="*********************************************** &lt;br/&gt;13(a)(16), Possession of Controlled Substance&lt;br/&gt;7512, Criminal Use of Communication&lt;br/&gt;13(a)(30), Possession w/ Intent to Del. Controlled Substance&lt;br/&gt;13(a)(32), Paraphernalia - Use or Possession&lt;br/&gt;13(a)(30)*, Delivery of Controlled Substance&lt;br/&gt;"/><marker lat="40.4365474" lng="-80.0010604" zone="Zone 2" incidentdate="2015-06-04" incidenttime="18:31:00" incidentnumber="15100379" address="Smithfield St Brg &amp; Fort Pitt Blvd" type="ARREST" age="19" gender="M" description="*********************************************** &lt;br/&gt;13(a)(31), Marijuana: Possession Small Amount&lt;br/&gt;"/><marker lat="40.463504216805177" lng="-79.930660678953373" zone="Zone 5" incidentdate="2015-06-04" incidenttime="19:15:00" incidentnumber="14229353" address="N Negley Ave &amp; Penn Ave" type="ARREST" age="52" gender="M" description="*********************************************** &lt;br/&gt;3701, Robbery.&lt;br/&gt;"/><marker lat="40.440022035257364" lng="-79.97708775488384" zone="Zone 2" incidentdate="2015-06-04" incidenttime="02:30:00" incidentnumber="13208545" address="2100 block Bentley Dr" type="ARREST" age="29" gender="M" description="*********************************************** &lt;br/&gt;2701(a)(1), Simple Assault - Intent., Know., Reckless.Cause Bod. Injury&lt;br/&gt;2709(a)(1), Harassment by Physical Contact, or Attempts or Threats&lt;br/&gt;3921(a), Theft by Unlawful Taking or Disposition - Movable item&lt;br/&gt;"/><marker lat="40.463244507649506" lng="-79.912095482430715" zone="Zone 5" incidentdate="2015-06-04" incidenttime="00:15:00" incidentnumber="15099852" address="500 block Paulson Ave" type="ARREST" age="34" gender="M" description="*********************************************** &lt;br/&gt;2701, Simple Assault.&lt;br/&gt;2706, Terroristic Threats.&lt;br/&gt;5505, Public Drunkenness&lt;br/&gt;5503(a)(2), DISORDERLY CONDUCT - UNREASONABLE NOISE&lt;br/&gt;"/><marker lat="40.411181540883454" lng="-79.994989033332303" zone="Zone 3" incidentdate="2015-06-04" incidenttime="06:15:00" incidentnumber="15099970" address="400 block Suncrest St" type="ARREST" age="43" gender="M" description="*********************************************** &lt;br/&gt;4910, Tampering with or Fabricating Physical Evidence.&lt;br/&gt;13(a)(16), Possession of Controlled Substance&lt;br/&gt;13(a)(30), Possession w/ Intent to Del. Controlled Substance&lt;br/&gt;13(a)(32), Paraphernalia - Use or Possession&lt;br/&gt;"/></markers>
