<?xml version="1.0"?>
<markers><marker lat="40.470559349698817" lng="-79.994946939312101" zone="Zone 1" incidentdate="2015-06-25" incidenttime="08:00:00" incidentnumber="15115707" address="400 block East Commons" type="OFFENSE" age="" gender="" description="*********************************************** &lt;br/&gt;3304, Criminal Mischief.&lt;br/&gt;"/><marker lat="40.419982102910893" lng="-79.93603023000739" zone="Zone 4" incidentdate="2015-06-25" incidenttime="06:00:00" incidentnumber="15115728" address="600 block Montclair St" type="OFFENSE" age="" gender="" description="*********************************************** &lt;br/&gt;3934, Theft from Vehicle&lt;br/&gt;"/><marker lat="40.396229870153952" lng="-80.023661636796888" zone="Zone 6" incidentdate="2015-06-25" incidenttime="21:47:00" incidentnumber="15116059" address="Brookline Blvd &amp; Pioneer Ave" type="OFFENSE" age="" gender="" description="*********************************************** &lt;br/&gt;9497, Aided Case&lt;br/&gt;"/><marker lat="40.461392541723988" lng="-79.919695157123542" zone="Zone 5" incidentdate="2015-06-25" incidenttime="00:50:00" incidentnumber="15115460" address="Cambria Ct" type="OFFENSE" age="" gender="" description="*********************************************** &lt;br/&gt;9497, Aided Case&lt;br/&gt;"/><marker lat="40.447791383449896" lng="-80.003763673123132" zone="Zone 1" incidentdate="2015-06-25" incidenttime="22:30:00" incidentnumber="15116072" address="100 block Federal St S" type="OFFENSE" age="" gender="" description="*********************************************** &lt;br/&gt;5901, Open Lewdness.&lt;br/&gt;2701, Simple Assault.&lt;br/&gt;5505, Public Drunkenness&lt;br/&gt;"/><marker lat="40.400959773280839" lng="-79.988489951478272" zone="Zone 3" incidentdate="2015-06-25" incidenttime="14:00:00" incidentnumber="15115807" address="1500 block Amanda St" type="OFFENSE" age="" gender="" description="*********************************************** &lt;br/&gt;2709, Harassment (Non-Specific)&lt;br/&gt;2701, Simple Assault.&lt;br/&gt;"/><marker lat="40.456549809141613" lng="-79.901784722397153" zone="Zone 5" incidentdate="2015-06-25" incidenttime="00:45:00" incidentnumber="15115667" address="7000 block Kelly St" type="OFFENSE" age="" gender="" description="*********************************************** &lt;br/&gt;3304, Criminal Mischief.&lt;br/&gt;3934, Theft from Vehicle&lt;br/&gt;"/><marker lat="40.448376001131102" lng="-80.025308854016927" zone="Zone 1" incidentdate="2015-06-25" incidenttime="01:30:00" incidentnumber="15115463" address="Belmont St &amp; North Point Dr" type="OFFENSE" age="" gender="" description="*********************************************** &lt;br/&gt;9497, Aided Case&lt;br/&gt;"/><marker lat="40.4325365" lng="-79.9570578" zone="Zone 4" incidentdate="2015-06-25" incidenttime="03:00:00" incidentnumber="15115526" address="3200 block Gorman Way" type="OFFENSE" age="" gender="" description="*********************************************** &lt;br/&gt;9490, Missing Persons (18 and Over)&lt;br/&gt;"/><marker lat="40.435627310518967" lng="-79.933557230688805" zone="Zone 4" incidentdate="2015-06-25" incidenttime="10:00:00" incidentnumber="15115665" address="E Circuit Rd &amp; Darlington Rd" type="OFFENSE" age="" gender="" description="*********************************************** &lt;br/&gt;3745, Accidents Involving Damage to Unattended Veh.or Prop.&lt;br/&gt;"/><marker lat="40.46437699743521" lng="-79.962581005010733" zone="Zone 2" incidentdate="2015-06-25" incidenttime="08:00:00" incidentnumber="15115592" address="300 block 37th St" type="OFFENSE" age="" gender="" description="*********************************************** &lt;br/&gt;3304, Criminal Mischief.&lt;br/&gt;"/><marker lat="40.440824068996903" lng="-80.003015961193057" zone="Zone 2" incidentdate="2015-06-25" incidenttime="12:00:00" incidentnumber="15115719" address="Market Sq" type="OFFENSE" age="" gender="" description="*********************************************** &lt;br/&gt;3924, Theft of Property Lost, Mislaid or Delivered by Mistake.&lt;br/&gt;"/><marker lat="40.468392049674968" lng="-80.025256332998723" zone="Zone 1" incidentdate="2015-06-25" incidenttime="13:04:00" incidentnumber="15115758" address="1100 block Highwood St" type="OFFENSE" age="" gender="" description="*********************************************** &lt;br/&gt;9488, False  Burglar Alarm&lt;br/&gt;"/><marker lat="40.469641696554454" lng="-79.903687926502812" zone="Zone 5" incidentdate="2015-06-25" incidenttime="00:15:00" incidentnumber="15115437" address="6400 block Navarro St" type="OFFENSE" age="" gender="" description="*********************************************** &lt;br/&gt;2701, Simple Assault.&lt;br/&gt;"/><marker lat="40.478243968375068" lng="-80.039674432738352" zone="Zone 1" incidentdate="2015-06-25" incidenttime="01:50:00" incidentnumber="15115476" address="3500 block Massachusetts Ave" type="OFFENSE" age="" gender="" description="*********************************************** &lt;br/&gt;3304, Criminal Mischief.&lt;br/&gt;"/><marker lat="40.440479716215464" lng="-79.965333815773448" zone="Zone 4" incidentdate="2015-06-25" incidenttime="00:07:00" incidentnumber="15115681" address="200 block Robinson St" type="OFFENSE" age="" gender="" description="*********************************************** &lt;br/&gt;2709(a), Harassment.&lt;br/&gt;"/><marker lat="40.452486528081174" lng="-79.999843372145506" zone="Zone 1" incidentdate="2015-06-25" incidenttime="02:46:00" incidentnumber="15115516" address="500 block Lockhart St" type="OFFENSE" age="" gender="" description="*********************************************** &lt;br/&gt;3304, Criminal Mischief.&lt;br/&gt;"/><marker lat="40.427588501697457" lng="-79.976344452438411" zone="Zone 3" incidentdate="2015-06-25" incidenttime="23:21:00" incidentnumber="15116089" address="S 21st St &amp; Sarah St" type="OFFENSE" age="" gender="" description="*********************************************** &lt;br/&gt;3802(d)(2), DUI - Drug - Impaired Ability&lt;br/&gt;"/><marker lat="40.442381390460731" lng="-79.980405310434008" zone="Zone 2" incidentdate="2015-06-25" incidenttime="15:34:00" incidentnumber="15115823" address="400 block Dinwiddie St" type="OFFENSE" age="" gender="" description="*********************************************** &lt;br/&gt;2701, Simple Assault.&lt;br/&gt;"/><marker lat="40.459846940702469" lng="-80.057443353133792" zone="Zone 6" incidentdate="2015-06-25" incidenttime="01:15:00" incidentnumber="15115473" address="500 block Stadium St" type="OFFENSE" age="" gender="" description="*********************************************** &lt;br/&gt;9999, 9999 - (Misc. Incident):&lt;br/&gt;"/><marker lat="40.434696587775576" lng="-79.996300985228572" zone="Zone 2" incidentdate="2015-06-25" incidenttime="12:56:00" incidentnumber="15106239" address="600 block 1st Ave" type="OFFENSE" age="" gender="" description="*********************************************** &lt;br/&gt;4304(a)(1), Endangering Welfare of Children - Course of Conduct Enhanced&lt;br/&gt;"/><marker lat="40.459241184494772" lng="-80.005548013998464" zone="Zone 1" incidentdate="2015-06-25" incidenttime="06:50:00" incidentnumber="15115475" address="1600 block Sandusky Ct" type="OFFENSE" age="" gender="" description="*********************************************** &lt;br/&gt;9093, Indirect Criminal Contempt&lt;br/&gt;"/><marker lat="40.444946049009175" lng="-79.979249761588619" zone="Zone 2" incidentdate="2015-06-25" incidenttime="11:30:00" incidentnumber="15115661" address="100 block Erin St" type="OFFENSE" age="" gender="" description="*********************************************** &lt;br/&gt;3304, Criminal Mischief.&lt;br/&gt;"/><marker lat="40.4533116" lng="-80.0016724" zone="Zone 1" incidentdate="2015-06-25" incidenttime="15:45:00" incidentnumber="15115837" address="East Ohio St &amp; Cedar Ave" type="OFFENSE" age="" gender="" description="*********************************************** &lt;br/&gt;13(a)(31), Marijuana: Possession Small Amount&lt;br/&gt;13(a)(16), Possession of Controlled Substance&lt;br/&gt;13(a)(30), Possession w/ Intent to Del. Controlled Substance&lt;br/&gt;13(a)(31)(i), Marijuana - Possess Small Amt for Personal Use&lt;br/&gt;13(a)(30)*, Delivery of Controlled Substance&lt;br/&gt;"/><marker lat="40.483686786860773" lng="-80.030378914303171" zone="Zone 1" incidentdate="2015-06-25" incidenttime="10:29:00" incidentnumber="15115700" address="1100 block Termon Ave" type="OFFENSE" age="" gender="" description="*********************************************** &lt;br/&gt;4912, Impersonating a Public Servant.&lt;br/&gt;"/><marker lat="40.463504216805177" lng="-79.930660678953373" zone="Zone 5" incidentdate="2015-06-25" incidenttime="03:00:00" incidentnumber="15115537" address="Penn Ave &amp; N Negley Ave" type="OFFENSE" age="" gender="" description="*********************************************** &lt;br/&gt;2702, Aggravated Assault.&lt;br/&gt;6110.1, Possesion of Firearm by Minor&lt;br/&gt;3323, Stop Signs and Yield Signs.&lt;br/&gt;3308, One-Way Roadways and Rotary Traffic Islands.&lt;br/&gt;3361, Driving Vehicle at Safe Speed.&lt;br/&gt;3736, Reckless Driving&lt;br/&gt;3925, Receiving Stolen Property.&lt;br/&gt;3112, Traffic-Control Signals.&lt;br/&gt;3733, Fleeing or Attempting to Elude Police Officer&lt;br/&gt;3745, Accidents Involving Damage to Unattended Veh.or Prop.&lt;br/&gt;6105(a)(1), Persons not to possess, use, manufacture, control, sell or transfer firearms: Former convict enumerated in subsection (b)&lt;br/&gt;2705, Recklessly Endangering Another Person.&lt;br/&gt;"/><marker lat="40.438721756509537" lng="-79.999466085108594" zone="Zone 2" incidentdate="2015-06-25" incidenttime="13:25:00" incidentnumber="15115764" address="400 block Smithfield St" type="OFFENSE" age="" gender="" description="*********************************************** &lt;br/&gt;3929(a)(1), Retail Theft; takes possession of, carries away, or transfers displayed merchandise&lt;br/&gt;"/><marker lat="40.472160202718989" lng="-79.963279968738931" zone="Zone 2" incidentdate="2015-06-25" incidenttime="10:20:00" incidentnumber="15115657" address="100 block 42nd St" type="OFFENSE" age="" gender="" description="*********************************************** &lt;br/&gt;9999, 9999 - (Misc. Incident):&lt;br/&gt;"/><marker lat="40.455273086676286" lng="-80.008870414965187" zone="Zone 5" incidentdate="2015-06-25" incidenttime="10:20:00" incidentnumber="15115653" address="200 block N Negley Ave" type="OFFENSE" age="" gender="" description="*********************************************** &lt;br/&gt;9497, Aided Case&lt;br/&gt;"/><marker lat="40.457561568593881" lng="-79.917422514167981" zone="Zone 5" incidentdate="2015-06-25" incidenttime="07:00:00" incidentnumber="15115647" address="6400 block Penn Ave" type="OFFENSE" age="" gender="" description="*********************************************** &lt;br/&gt;3304, Criminal Mischief.&lt;br/&gt;3934, Theft from Vehicle&lt;br/&gt;"/><marker lat="40.415448582684377" lng="-79.924908446287446" zone="Zone 4" incidentdate="2015-06-25" incidenttime="02:52:00" incidentnumber="15115498" address="Browns Hill Rd &amp; Imogene Rd" type="OFFENSE" age="" gender="" description="*********************************************** &lt;br/&gt;3701, Robbery.&lt;br/&gt;"/><marker lat="40.451592126171548" lng="-80.008413742358997" zone="Zone 1" incidentdate="2015-06-25" incidenttime="12:25:00" incidentnumber="15115733" address="Foster Sq" type="OFFENSE" age="" gender="" description="*********************************************** &lt;br/&gt;9488, False  Burglar Alarm&lt;br/&gt;"/><marker lat="40.418768356120303" lng="-79.974154917908024" zone="Zone 3" incidentdate="2015-06-25" incidenttime="09:30:00" incidentnumber="15115711" address="2300 block Salisbury St" type="OFFENSE" age="" gender="" description="*********************************************** &lt;br/&gt;3934, Theft from Vehicle&lt;br/&gt;"/><marker lat="40.438392615435276" lng="-79.997549508675974" zone="Zone 2" incidentdate="2015-06-25" incidenttime="11:00:00" incidentnumber="15115712" address="400 block Grant St" type="OFFENSE" age="" gender="" description="*********************************************** &lt;br/&gt;9489, Found Property&lt;br/&gt;"/><marker lat="40.458714806047702" lng="-80.027995936641673" zone="Zone 1" incidentdate="2015-06-25" incidenttime="10:09:00" incidentnumber="15115651" address="1400 block Adams St" type="OFFENSE" age="" gender="" description="*********************************************** &lt;br/&gt;2702, Aggravated Assault.&lt;br/&gt;2706, Terroristic Threats.&lt;br/&gt;"/><marker lat="40.4562930" lng="-79.9169468" zone="Zone 4" incidentdate="2015-06-25" incidenttime="11:33:00" incidentnumber="15115699" address="6400 block living Pl" type="OFFENSE" age="" gender="" description="*********************************************** &lt;br/&gt;9999, 9999 - (Misc. Incident):&lt;br/&gt;"/><marker lat="40.441853646860764" lng="-79.955749838736764" zone="Zone 4" incidentdate="2015-06-25" incidenttime="17:43:00" incidentnumber="15115918" address="3900 block Forbes Ave" type="OFFENSE" age="" gender="" description="*********************************************** &lt;br/&gt;13(a)(32), Paraphernalia - Use or Possession&lt;br/&gt;"/><marker lat="40.459241184494772" lng="-80.005548013998464" zone="Zone 1" incidentdate="2015-06-25" incidenttime="01:15:00" incidentnumber="15115475" address="1600 block Sandusky Ct" type="OFFENSE" age="" gender="" description="*********************************************** &lt;br/&gt;9093, Indirect Criminal Contempt&lt;br/&gt;"/><marker lat="40.466952259461593" lng="-79.986083000827605" zone="Zone 1" incidentdate="2015-06-25" incidenttime="07:45:00" incidentnumber="15115629" address="1700 block High St" type="OFFENSE" age="" gender="" description="*********************************************** &lt;br/&gt;9999, 9999 - (Misc. Incident):&lt;br/&gt;"/><marker lat="40.452647198078267" lng="-79.93640525357462" zone="Zone 4" incidentdate="2015-06-25" incidenttime="05:00:00" incidentnumber="15115621" address="5400 block Ellsworth Ave" type="OFFENSE" age="" gender="" description="*********************************************** &lt;br/&gt;3934, Theft from Vehicle&lt;br/&gt;"/><marker lat="40.425360181760851" lng="-79.924935616490913" zone="Zone 4" incidentdate="2015-06-25" incidenttime="08:30:00" incidentnumber="15115656" address="4000 block Ludwick St" type="OFFENSE" age="" gender="" description="*********************************************** &lt;br/&gt;3934, Theft from Vehicle&lt;br/&gt;"/><marker lat="40.455109037149178" lng="-80.0010590994724" zone="Zone 1" incidentdate="2015-06-25" incidenttime="02:43:00" incidentnumber="15115503" address="900 block James St" type="OFFENSE" age="" gender="" description="*********************************************** &lt;br/&gt;4914, False Identification to Law Enforcement Authorities&lt;br/&gt;5506, Loitering and Prowling at Night&lt;br/&gt;"/><marker lat="40.452993055983015" lng="-79.887157686463098" zone="Zone 5" incidentdate="2015-06-25" incidenttime="12:30:00" incidentnumber="15115740" address="7800 block Kelly St" type="OFFENSE" age="" gender="" description="*********************************************** &lt;br/&gt;9504, Lost Property&lt;br/&gt;"/><marker lat="40.400164101491583" lng="-79.982971991748769" zone="Zone 2" incidentdate="2015-06-25" incidenttime="03:20:00" incidentnumber="15115525" address="300 block Allies Blvd" type="OFFENSE" age="" gender="" description="*********************************************** &lt;br/&gt;9497, Aided Case&lt;br/&gt;"/><marker lat="40.441853646860764" lng="-79.955749838736764" zone="Zone 4" incidentdate="2015-06-25" incidenttime="17:45:00" incidentnumber="15115918" address="3900 block Forbes Ave" type="ARREST" age="30" gender="M" description="*********************************************** &lt;br/&gt;13(a)(32), Paraphernalia - Use or Possession&lt;br/&gt;"/><marker lat="40.442381390460731" lng="-79.980405310434008" zone="Zone 2" incidentdate="2015-06-25" incidenttime="15:34:00" incidentnumber="15115823" address="400 block Dinwiddie St" type="ARREST" age="55" gender="M" description="*********************************************** &lt;br/&gt;2701, Simple Assault.&lt;br/&gt;"/><marker lat="40.447791383449896" lng="-80.003763673123132" zone="Zone 1" incidentdate="2015-06-25" incidenttime="22:40:00" incidentnumber="15116072" address="100 block Federal St S" type="ARREST" age="48" gender="M" description="*********************************************** &lt;br/&gt;5901, Open Lewdness.&lt;br/&gt;2701, Simple Assault.&lt;br/&gt;5505, Public Drunkenness&lt;br/&gt;"/><marker lat="40.434696587775576" lng="-79.996300985228572" zone="Zone 2" incidentdate="2015-06-25" incidenttime="19:00:00" incidentnumber="15092605" address="600 block 1st Ave" type="ARREST" age="25" gender="M" description="*********************************************** &lt;br/&gt;2701, Simple Assault.&lt;br/&gt;2701(a)(1), Simple Assault - Intent., Know., Reckless.Cause Bod. Injury&lt;br/&gt;"/><marker lat="40.461630806852277" lng="-79.926784260450063" zone="Zone 5" incidentdate="2015-06-25" incidenttime="10:00:00" incidentnumber="15007445" address="5900 block Penn Ave" type="ARREST" age="28" gender="M" description="*********************************************** &lt;br/&gt;3304, Criminal Mischief.&lt;br/&gt;9015, Failure To Appear/Arrest on Attachment Order&lt;br/&gt;"/><marker lat="40.44511004552583" lng="-80.039246537687731" zone="Zone 6" incidentdate="2015-06-25" incidenttime="10:41:00" incidentnumber="15017029" address="700 block Lorenz Ave" type="ARREST" age="24" gender="F" description="*********************************************** &lt;br/&gt;2701, Simple Assault.&lt;br/&gt;2709(a), Harassment.&lt;br/&gt;3921, Theft by Unlawful Taking or Disposition.&lt;br/&gt;903, Criminal Conspiracy.&lt;br/&gt;2701(a)(1), Simple Assault - Intent., Know., Reckless.Cause Bod. Injury&lt;br/&gt;"/><marker lat="40.4375576" lng="-79.9652091" zone="Zone 4" incidentdate="2015-06-25" incidenttime="03:20:00" incidentnumber="14146458" address="Fifth Ave &amp; Robinson St" type="ARREST" age="35" gender="F" description="*********************************************** &lt;br/&gt;13(a)(31), Marijuana: Possession Small Amount&lt;br/&gt;13(a)(16), Possession of Controlled Substance&lt;br/&gt;13(a)(30), Possession w/ Intent to Del. Controlled Substance&lt;br/&gt;3309, Driving on Roadways Laned for Traffic.&lt;br/&gt;3323, Stop Signs and Yield Signs.&lt;br/&gt;4914, False Identification to Law Enforcement Authorities&lt;br/&gt;"/><marker lat="40.466916125330677" lng="-79.937900974694656" zone="Zone 5" incidentdate="2015-06-25" incidenttime="09:38:00" incidentnumber="14054899" address="5300 block Brown Way" type="ARREST" age="20" gender="M" description="*********************************************** &lt;br/&gt;6106, Firearms not to be Carried without a License.&lt;br/&gt;2705, Recklessly Endangering Another Person.&lt;br/&gt;2501, Criminal Homicide.&lt;br/&gt;"/><marker lat="40.455109037149178" lng="-80.0010590994724" zone="Zone 1" incidentdate="2015-06-25" incidenttime="02:43:00" incidentnumber="15115503" address="900 block James St" type="ARREST" age="17" gender="M" description="*********************************************** &lt;br/&gt;4914, False Identification to Law Enforcement Authorities&lt;br/&gt;5506, Loitering and Prowling at Night&lt;br/&gt;"/><marker lat="40.434696587775576" lng="-79.996300985228572" zone="Zone 2" incidentdate="2015-06-25" incidenttime="12:00:00" incidentnumber="15112046" address="600 block First Ave" type="ARREST" age="49" gender="M" description="*********************************************** &lt;br/&gt;3304, Criminal Mischief.&lt;br/&gt;2709(a)(4), Harassment Communicates Prohibited Acts&lt;br/&gt;"/><marker lat="40.41566859033513" lng="-79.995158645909441" zone="Zone 3" incidentdate="2015-06-25" incidenttime="15:15:00" incidentnumber="15091248" address="400 block Zara St" type="ARREST" age="29" gender="F" description="*********************************************** &lt;br/&gt;2701(a)(3), Simple Assault - Attempts by Physical Menace&lt;br/&gt;"/><marker lat="40.469641696554454" lng="-79.903687926502812" zone="Zone 5" incidentdate="2015-06-25" incidenttime="00:31:00" incidentnumber="15115437" address="6400 block Navarro St" type="ARREST" age="44" gender="M" description="*********************************************** &lt;br/&gt;2701, Simple Assault.&lt;br/&gt;"/><marker lat="40.459241184494772" lng="-80.005548013998464" zone="Zone 1" incidentdate="2015-06-25" incidenttime="06:50:00" incidentnumber="15115475" address="1600 block Sandusky Ct" type="ARREST" age="49" gender="M" description="*********************************************** &lt;br/&gt;9093, Indirect Criminal Contempt&lt;br/&gt;"/><marker lat="40.396671785703397" lng="-80.016490577184641" zone="Zone 6" incidentdate="2015-06-25" incidenttime="02:39:00" incidentnumber="15106556" address="800 block Eathan Ave" type="ARREST" age="40" gender="M" description="*********************************************** &lt;br/&gt;2702, Aggravated Assault.&lt;br/&gt;3701, Robbery.&lt;br/&gt;"/><marker lat="40.466877756870879" lng="-79.994177935104844" zone="Zone 1" incidentdate="2015-06-25" incidenttime="12:45:00" incidentnumber="15099841" address="100 block Rhine Pl" type="ARREST" age="23" gender="M" description="*********************************************** &lt;br/&gt;2701(a)(1), Simple Assault - Intent., Know., Reckless.Cause Bod. Injury&lt;br/&gt;"/><marker lat="40.434696587775576" lng="-79.996300985228572" zone="Zone 2" incidentdate="2015-06-25" incidenttime="08:30:00" incidentnumber="15100990" address="600 block FIRST Ave" type="ARREST" age="34" gender="M" description="*********************************************** &lt;br/&gt;13(a)(31), Marijuana: Possession Small Amount&lt;br/&gt;13(a)(32), Paraphernalia - Use or Possession&lt;br/&gt;"/><marker lat="40.414309475534907" lng="-79.990557634779719" zone="Zone 3" incidentdate="2015-06-25" incidenttime="02:20:00" incidentnumber="15036032" address="200 block Bausman St" type="ARREST" age="37" gender="M" description="*********************************************** &lt;br/&gt;9015, Failure To Appear/Arrest on Attachment Order&lt;br/&gt;13(a)(32), Paraphernalia - Use or Possession&lt;br/&gt;3503, Criminal Trespass&lt;br/&gt;"/><marker lat="40.458714806047702" lng="-80.027995936641673" zone="Zone 1" incidentdate="2015-06-25" incidenttime="10:19:00" incidentnumber="15115651" address="1400 block Adams St" type="ARREST" age="32" gender="M" description="*********************************************** &lt;br/&gt;2702, Aggravated Assault.&lt;br/&gt;2706, Terroristic Threats.&lt;br/&gt;"/><marker lat="40.434696587775576" lng="-79.996300985228572" zone="Zone 2" incidentdate="2015-06-25" incidenttime="10:25:00" incidentnumber="15092372" address="600 block 1st Ave" type="ARREST" age="17" gender="F" description="*********************************************** &lt;br/&gt;2709(a)(1), Harassment by Physical Contact, or Attempts or Threats&lt;br/&gt;9999, 9999 - (Misc. Incident):&lt;br/&gt;907, Possessing Instruments of Crime.&lt;br/&gt;903, Criminal Conspiracy.&lt;br/&gt;3304, Criminal Mischief.&lt;br/&gt;2701(a)(3), Simple Assault - Attempts by Physical Menace&lt;br/&gt;2706, Terroristic Threats.&lt;br/&gt;"/><marker lat="40.463504216805177" lng="-79.930660678953373" zone="Zone 5" incidentdate="2015-06-25" incidenttime="03:06:00" incidentnumber="15115537" address="Penn Ave &amp; N Negley Ave" type="ARREST" age="15" gender="M" description="*********************************************** &lt;br/&gt;2702, Aggravated Assault.&lt;br/&gt;6110.1, Possesion of Firearm by Minor&lt;br/&gt;3323, Stop Signs and Yield Signs.&lt;br/&gt;3308, One-Way Roadways and Rotary Traffic Islands.&lt;br/&gt;3361, Driving Vehicle at Safe Speed.&lt;br/&gt;3736, Reckless Driving&lt;br/&gt;3925, Receiving Stolen Property.&lt;br/&gt;3112, Traffic-Control Signals.&lt;br/&gt;3733, Fleeing or Attempting to Elude Police Officer&lt;br/&gt;3745, Accidents Involving Damage to Unattended Veh.or Prop.&lt;br/&gt;6105(a)(1), Persons not to possess, use, manufacture, control, sell or transfer firearms: Former convict enumerated in subsection (b)&lt;br/&gt;2705, Recklessly Endangering Another Person.&lt;br/&gt;"/><marker lat="40.435095503606554" lng="-79.993077686753679" zone="Zone 2" incidentdate="2015-06-25" incidenttime="15:14:00" incidentnumber="15104375" address="900 block 2nd Ave" type="ARREST" age="19" gender="M" description="*********************************************** &lt;br/&gt;2701(a)(3), Simple Assault - Attempts by Physical Menace&lt;br/&gt;"/><marker lat="40.472345294594255" lng="-79.889120311509416" zone="Zone 5" incidentdate="2015-06-25" incidenttime="00:05:00" incidentnumber="15115421" address="7200 block Verona Blvd" type="ARREST" age="23" gender="F" description="*********************************************** &lt;br/&gt;3503, Criminal Trespass&lt;br/&gt;2706, Terroristic Threats.&lt;br/&gt;2709, Harassment (Non-Specific)&lt;br/&gt;"/><marker lat="40.438721756509537" lng="-79.999466085108594" zone="Zone 2" incidentdate="2015-06-25" incidenttime="13:35:00" incidentnumber="15115764" address="400 block Smithfield St" type="ARREST" age="40" gender="M" description="*********************************************** &lt;br/&gt;3929(a)(1), Retail Theft; takes possession of, carries away, or transfers displayed merchandise&lt;br/&gt;"/><marker lat="40.427588501697457" lng="-79.976344452438411" zone="Zone 3" incidentdate="2015-06-25" incidenttime="23:34:00" incidentnumber="15116089" address="S 21st St &amp; Sarah St" type="ARREST" age="49" gender="M" description="*********************************************** &lt;br/&gt;3802(d)(2), DUI - Drug - Impaired Ability&lt;br/&gt;"/><marker lat="40.4533116" lng="-80.0016724" zone="Zone 1" incidentdate="2015-06-25" incidenttime="16:03:00" incidentnumber="15115837" address="East Ohio St &amp; Cedar Ave" type="ARREST" age="55" gender="M" description="*********************************************** &lt;br/&gt;13(a)(31), Marijuana: Possession Small Amount&lt;br/&gt;13(a)(16), Possession of Controlled Substance&lt;br/&gt;13(a)(30), Possession w/ Intent to Del. Controlled Substance&lt;br/&gt;13(a)(31)(i), Marijuana - Possess Small Amt for Personal Use&lt;br/&gt;13(a)(30)*, Delivery of Controlled Substance&lt;br/&gt;"/><marker lat="40.4533116" lng="-80.0016724" zone="Zone 1" incidentdate="2015-06-25" incidenttime="15:50:00" incidentnumber="15115837" address="East Ohio St &amp; Cedar Ave" type="ARREST" age="38" gender="M" description="*********************************************** &lt;br/&gt;13(a)(31), Marijuana: Possession Small Amount&lt;br/&gt;13(a)(16), Possession of Controlled Substance&lt;br/&gt;13(a)(30), Possession w/ Intent to Del. Controlled Substance&lt;br/&gt;13(a)(31)(i), Marijuana - Possess Small Amt for Personal Use&lt;br/&gt;13(a)(30)*, Delivery of Controlled Substance&lt;br/&gt;"/><marker lat="40.434696587775576" lng="-79.996300985228572" zone="Zone 2" incidentdate="2015-06-25" incidenttime="12:56:00" incidentnumber="15106239" address="600 block 1st Ave" type="ARREST" age="32" gender="F" description="*********************************************** &lt;br/&gt;4304(a)(1), Endangering Welfare of Children - Course of Conduct Enhanced&lt;br/&gt;"/></markers>
