<?xml version="1.0"?>
<markers><marker lat="40.4381936" lng="-79.999851" zone="Zone 2" incidentdate="2014-07-31" incidenttime="01:10:00" incidentnumber="14149716" address="300 Smithfield Street, Pittsburgh, PA 15222, USA" type="OFFENSE" description="*********************************************** &lt;br/&gt;9497, Aided Case&lt;br/&gt;"/><marker lat="40.4664505" lng="-79.9424924" zone="Zone 5" incidentdate="2014-07-31" incidenttime="01:31:00" incidentnumber="14149809" address="5100 Broad Street, Pittsburgh, PA 15224, USA" type="OFFENSE" description="*********************************************** &lt;br/&gt;029, Missing Juvenile&lt;br/&gt;"/><marker lat="40.4411485" lng="-80.0039178" zone="Zone 2" incidentdate="2014-07-31" incidenttime="16:20:00" incidentnumber="14150108" address="Forbes Avenue &amp; Stanwix Street, Pittsburgh, PA 15222, USA" type="OFFENSE" description="*********************************************** &lt;br/&gt;0291, Located Runaway - Outside City&lt;br/&gt;"/><marker lat="40.4484536" lng="-80.0199759" zone="Zone 1" incidentdate="2014-07-31" incidenttime="16:30:00" incidentnumber="14150118" address="1200 Reedsdale Street, Pittsburgh, PA 15233, USA" type="OFFENSE" description="*********************************************** &lt;br/&gt;2706, Terroristic Threats.&lt;br/&gt;3302, Causing or Risking Catastrophe.&lt;br/&gt;"/><marker lat="40.4444363" lng="-79.9581482" zone="Zone 4" incidentdate="2014-07-31" incidenttime="16:30:00" incidentnumber="14150126" address="OHara Street, Pittsburgh, PA 15213, USA" type="OFFENSE" description="*********************************************** &lt;br/&gt;9490, Missing Persons (18 and Over)&lt;br/&gt;"/><marker lat="40.427828" lng="-79.9806317" zone="Zone 3" incidentdate="2014-07-31" incidenttime="16:34:00" incidentnumber="14150122" address="1800 Sarah Street, Pittsburgh, PA 15203, USA" type="OFFENSE" description="*********************************************** &lt;br/&gt;3921, Theft by Unlawful Taking or Disposition.&lt;br/&gt;"/><marker lat="40.4452876" lng="-80.0135558" zone="Zone 1" incidentdate="2014-07-31" incidenttime="16:42:00" incidentnumber="14150157" address="North Shore Drive, Pittsburgh, PA 15212, USA" type="OFFENSE" description="*********************************************** &lt;br/&gt;2709(a)(1), Harassment by Physical Contact, or Attempts or Threats&lt;br/&gt;"/><marker lat="40.4501122" lng="-79.9497478" zone="Zone 4" incidentdate="2014-07-31" incidenttime="16:45:00" incidentnumber="14150136" address="200 Melwood Avenue, Pittsburgh, PA 15213, USA" type="OFFENSE" description="*********************************************** &lt;br/&gt;9999, 9999 - (Misc. Incident):&lt;br/&gt;"/><marker lat="40.4182061" lng="-79.9990364" zone="Zone 3" incidentdate="2014-07-31" incidenttime="17:00:00" incidentnumber="14150130" address="500 Curtin Avenue, Pittsburgh, PA 15210, USA" type="OFFENSE" description="*********************************************** &lt;br/&gt;13(a)(16), Possession of Controlled Substance&lt;br/&gt;13(a)(30), Possession w/ Intent to Del. Controlled Substance&lt;br/&gt;4910, Tampering with or Fabricating Physical Evidence.&lt;br/&gt;6106, Firearms not to be Carried without a License.&lt;br/&gt;6110.1, Possesion of Firearm by Minor&lt;br/&gt;6110.2, Possesion of Firearm with Altered Mfg. Number&lt;br/&gt;13(a)(16), Possession of Controlled Substance&lt;br/&gt;13(a)(30), Possession w/ Intent to Del. Controlled Substance&lt;br/&gt;4910, Tampering with or Fabricating Physical Evidence.&lt;br/&gt;6106, Firearms not to be Carried without a License.&lt;br/&gt;6110.1, Possesion of Firearm by Minor&lt;br/&gt;6110.2, Possesion of Firearm with Altered Mfg. Number&lt;br/&gt;"/><marker lat="40.446871" lng="-79.9467399" zone="Zone 4" incidentdate="2014-07-31" incidenttime="17:00:00" incidentnumber="14150154" address="4700 Fifth Avenue, Carnegie Mellon University, Pittsburgh, PA 15213, USA" type="OFFENSE" description="*********************************************** &lt;br/&gt;3745, Accidents Involving Damage to Unattended Veh.or Prop.&lt;br/&gt;"/><marker lat="40.4399743" lng="-79.957597" zone="Zone 4" incidentdate="2014-07-31" incidenttime="17:05:00" incidentnumber="14150159" address="Meyran Avenue &amp; Fresco Way, University of Pittsburgh, Pittsburgh, PA 15213, USA" type="OFFENSE" description="*********************************************** &lt;br/&gt;3743, Accidents Involving Damage to Attended Veh. or Property&lt;br/&gt;"/><marker lat="40.4512829" lng="-80.000609" zone="Zone 1" incidentdate="2014-07-31" incidenttime="17:30:00" incidentnumber="14150163" address="300 Cedar Avenue, Pittsburgh, PA 15212, USA" type="OFFENSE" description="*********************************************** &lt;br/&gt;13(a)(32), Paraphernalia - Use or Possession&lt;br/&gt;13(a)(32), Paraphernalia - Use or Possession&lt;br/&gt;"/><marker lat="40.443834" lng="-79.927649" zone="Zone 4" incidentdate="2014-07-31" incidenttime="17:30:00" incidentnumber="14150147" address="5600 Wilkins Avenue, Pittsburgh, PA 15217, USA" type="OFFENSE" description="*********************************************** &lt;br/&gt;5503, Disorderly Conduct.&lt;br/&gt;5505, Public Drunkenness&lt;br/&gt;601.08(a), Alcohol or Liquor Consumption on Streets or Sidewalks&lt;br/&gt;"/><marker lat="40.4522289" lng="-80.0034219" zone="Zone 1" incidentdate="2014-07-31" incidenttime="17:35:00" incidentnumber="14150184" address="East Commons &amp; Allegheny Square East, Pittsburgh, PA 15212, USA" type="OFFENSE" description="*********************************************** &lt;br/&gt;3743, Accidents Involving Damage to Attended Veh. or Property&lt;br/&gt;"/><marker lat="40.4692786" lng="-79.9615624" zone="Zone 2" incidentdate="2014-07-31" incidenttime="17:40:00" incidentnumber="14121203" address="200 Fisk Street, Pittsburgh, PA 15201, USA" type="OFFENSE" description="*********************************************** &lt;br/&gt;9494, Summary Warrants&lt;br/&gt;"/><marker lat="40.4406248" lng="-79.9958864" zone="Zone 2" incidentdate="2014-07-31" incidenttime="17:53:00" incidentnumber="14150173" address="Pittsburgh, PA, USA" type="OFFENSE" description="*********************************************** &lt;br/&gt;3743, Accidents Involving Damage to Attended Veh. or Property&lt;br/&gt;"/><marker lat="40.467349" lng="-79.957979" zone="Zone 2" incidentdate="2014-07-31" incidenttime="18:05:00" incidentnumber="14121202" address="300 Main Street, Pittsburgh, PA 15201, USA" type="OFFENSE" description="*********************************************** &lt;br/&gt;9494, Summary Warrants&lt;br/&gt;"/><marker lat="40.4619459" lng="-79.9091126" zone="Zone 5" incidentdate="2014-07-31" incidenttime="18:05:00" incidentnumber="14150238" address="500 Elmer L Williams Square, Pittsburgh, PA 15206, USA" type="OFFENSE" description="*********************************************** &lt;br/&gt;3502, Burglary.&lt;br/&gt;"/><marker lat="40.4052597" lng="-80.0186883" zone="Zone 6" incidentdate="2014-07-31" incidenttime="18:30:00" incidentnumber="14150225" address="100 Capital Avenue, Pittsburgh, PA 15226, USA" type="OFFENSE" description="*********************************************** &lt;br/&gt;3745, Accidents Involving Damage to Unattended Veh.or Prop.&lt;br/&gt;3745, Accidents Involving Damage to Unattended Veh.or Prop.&lt;br/&gt;"/><marker lat="40.4050775" lng="-80.0301035" zone="Zone 6" incidentdate="2014-07-31" incidenttime="18:30:00" incidentnumber="14150199" address="2100 Broadway Avenue, Pittsburgh, PA 15216, USA" type="OFFENSE" description="*********************************************** &lt;br/&gt;3304, Criminal Mischief.&lt;br/&gt;"/><marker lat="40.4566814" lng="-79.8989809" zone="Zone 5" incidentdate="2014-07-31" incidenttime="18:45:00" incidentnumber="14112947" address="700 North Lang Avenue, Pittsburgh, PA 15208, USA" type="OFFENSE" description="*********************************************** &lt;br/&gt;2701, Simple Assault.&lt;br/&gt;2701, Simple Assault.&lt;br/&gt;"/><marker lat="40.4601417" lng="-79.9002608" zone="Zone 5" incidentdate="2014-07-31" incidenttime="19:03:00" incidentnumber="14150224" address="7000 Monticello Street, Pittsburgh, PA 15208, USA" type="OFFENSE" description="*********************************************** &lt;br/&gt;4910, Tampering with or Fabricating Physical Evidence.&lt;br/&gt;6106, Firearms not to be Carried without a License.&lt;br/&gt;6110.1, Possesion of Firearm by Minor&lt;br/&gt;4910, Tampering with or Fabricating Physical Evidence.&lt;br/&gt;6106, Firearms not to be Carried without a License.&lt;br/&gt;6110.1, Possesion of Firearm by Minor&lt;br/&gt;"/><marker lat="40.4197513" lng="-79.984884" zone="Zone 3" incidentdate="2014-07-31" incidenttime="19:30:00" incidentnumber="14150283" address="South 18th St, Pittsburgh, PA 15210, USA" type="OFFENSE" description="*********************************************** &lt;br/&gt;9999, 9999 - (Misc. Incident):&lt;br/&gt;"/><marker lat="40.4689188" lng="-79.9359451" zone="Zone 5" incidentdate="2014-07-31" incidenttime="19:30:00" incidentnumber="14150242" address="Columbo Street, Pittsburgh, PA, USA" type="OFFENSE" description="*********************************************** &lt;br/&gt;9017, Found Drugs&lt;br/&gt;"/><marker lat="40.4752086" lng="-80.0234202" zone="Zone 1" incidentdate="2014-07-31" incidenttime="19:40:00" incidentnumber="14150246" address="900 Smithton Avenue, Pittsburgh, PA 15212, USA" type="OFFENSE" description="*********************************************** &lt;br/&gt;9999, 9999 - (Misc. Incident):&lt;br/&gt;"/><marker lat="40.464615" lng="-79.922397" zone="Zone 5" incidentdate="2014-07-31" incidenttime="19:50:00" incidentnumber="14150253" address="400 North Highland Avenue, Pittsburgh, PA 15206, USA" type="OFFENSE" description="*********************************************** &lt;br/&gt;3921(a), Theft by Unlawful Taking or Disposition - Movable item&lt;br/&gt;3929, Retail Theft.&lt;br/&gt;903, Criminal Conspiracy.&lt;br/&gt;3921(a), Theft by Unlawful Taking or Disposition - Movable item&lt;br/&gt;3929, Retail Theft.&lt;br/&gt;903, Criminal Conspiracy.&lt;br/&gt;3921(a), Theft by Unlawful Taking or Disposition - Movable item&lt;br/&gt;3929, Retail Theft.&lt;br/&gt;903, Criminal Conspiracy.&lt;br/&gt;"/><marker lat="40.470205" lng="-79.9595238" zone="Zone 2" incidentdate="2014-07-31" incidenttime="20:00:00" incidentnumber="14121204" address="4300 Summit Street, Pittsburgh, PA 15201, USA" type="OFFENSE" description="*********************************************** &lt;br/&gt;9494, Summary Warrants&lt;br/&gt;"/><marker lat="40.4480182" lng="-79.8945396" zone="Zone 4" incidentdate="2014-07-31" incidenttime="20:30:00" incidentnumber="14150281" address="North Braddock Avenue &amp; Meade Street, Pittsburgh, PA 15208, USA" type="OFFENSE" description="*********************************************** &lt;br/&gt;5902(e), Patronizing a Prostitute&lt;br/&gt;902, Criminal Solicitation.&lt;br/&gt;5902(e), Patronizing a Prostitute&lt;br/&gt;902, Criminal Solicitation.&lt;br/&gt;902, Criminal Solicitation.&lt;br/&gt;"/><marker lat="40.4303766" lng="-79.9774332" zone="Zone 3" incidentdate="2014-07-31" incidenttime="20:35:00" incidentnumber="14150282" address="Wharton Street &amp; South 20th Street, Pittsburgh, PA 15203, USA" type="OFFENSE" description="*********************************************** &lt;br/&gt;2705, Recklessly Endangering Another Person.&lt;br/&gt;3304, Criminal Mischief.&lt;br/&gt;3503.B1I, DEF. TRESPASS ACTUAL COMMUNICATION&lt;br/&gt;5121, Escape.&lt;br/&gt;5503, Disorderly Conduct.&lt;br/&gt;5505, Public Drunkenness&lt;br/&gt;2705, Recklessly Endangering Another Person.&lt;br/&gt;3304, Criminal Mischief.&lt;br/&gt;3503.B1I, DEF. TRESPASS ACTUAL COMMUNICATION&lt;br/&gt;5121, Escape.&lt;br/&gt;5503, Disorderly Conduct.&lt;br/&gt;5505, Public Drunkenness&lt;br/&gt;"/><marker lat="40.4462926" lng="-79.9803137" zone="Zone 2" incidentdate="2014-07-31" incidenttime="20:45:00" incidentnumber="14150286" address="2100 Webster Avenue, Pittsburgh, PA 15219, USA" type="OFFENSE" description="*********************************************** &lt;br/&gt;13(a)(32), Paraphernalia - Use or Possession&lt;br/&gt;3503, Criminal Trespass&lt;br/&gt;4910, Tampering with or Fabricating Physical Evidence.&lt;br/&gt;13(a)(32), Paraphernalia - Use or Possession&lt;br/&gt;3503, Criminal Trespass&lt;br/&gt;4910, Tampering with or Fabricating Physical Evidence.&lt;br/&gt;4910, Tampering with or Fabricating Physical Evidence.&lt;br/&gt;"/><marker lat="40.4895294" lng="-80.0384543" zone="Zone 1" incidentdate="2014-07-31" incidenttime="21:10:00" incidentnumber="14150298" address="Kleber Street &amp; Pennock Road, Pittsburgh, PA 15212, USA" type="OFFENSE" description="*********************************************** &lt;br/&gt;9999, 9999 - (Misc. Incident):&lt;br/&gt;9999, 9999 - (Misc. Incident):&lt;br/&gt;"/><marker lat="40.4645014" lng="-79.9300816" zone="Zone 5" incidentdate="2014-07-31" incidenttime="21:30:00" incidentnumber="14150331" address="North Negley Avenue &amp; Broad Street, Pittsburgh, PA 15206, USA" type="OFFENSE" description="*********************************************** &lt;br/&gt;13(a)(16), Possession of Controlled Substance&lt;br/&gt;5902(e), Patronizing a Prostitute&lt;br/&gt;902, Criminal Solicitation.&lt;br/&gt;13(a)(16), Possession of Controlled Substance&lt;br/&gt;5902(e), Patronizing a Prostitute&lt;br/&gt;902, Criminal Solicitation.&lt;br/&gt;"/><marker lat="40.4645014" lng="-79.9300816" zone="Zone 5" incidentdate="2014-07-31" incidenttime="21:50:00" incidentnumber="14150342" address="North Negley Avenue &amp; Broad Street, Pittsburgh, PA 15206, USA" type="OFFENSE" description="*********************************************** &lt;br/&gt;5902(e), Patronizing a Prostitute&lt;br/&gt;902, Criminal Solicitation.&lt;br/&gt;5902(e), Patronizing a Prostitute&lt;br/&gt;902, Criminal Solicitation.&lt;br/&gt;902, Criminal Solicitation.&lt;br/&gt;"/><marker lat="40.4284295" lng="-79.9746395" zone="Zone 3" incidentdate="2014-07-31" incidenttime="01:57:00" incidentnumber="14149738" address="East Carson Street &amp; South 22nd Street, Pittsburgh, PA 15203, USA" type="OFFENSE" description="*********************************************** &lt;br/&gt;3112, Traffic-Control Signals.&lt;br/&gt;3802(a)(1), DUI - General Impairment&lt;br/&gt;3802(c), DUI - Highest Rate of Alcohol - BAC &gt;= .16%&lt;br/&gt;3112, Traffic-Control Signals.&lt;br/&gt;3802(a)(1), DUI - General Impairment&lt;br/&gt;3802(c), DUI - Highest Rate of Alcohol - BAC &gt;= .16%&lt;br/&gt;"/><marker lat="40.4418905" lng="-79.8793507" zone="Zone OSC" incidentdate="2014-07-31" incidenttime="02:09:00" incidentnumber="14149747" address="Penn Avenue &amp; Coal Street, Pittsburgh, PA 15221, USA" type="OFFENSE" description="*********************************************** &lt;br/&gt;1501, Drivers Required to be Licensed.&lt;br/&gt;3304, Criminal Mischief.&lt;br/&gt;3733, Fleeing or Attempting to Elude Police Officer&lt;br/&gt;3736, Reckless Driving&lt;br/&gt;3745, Accidents Involving Damage to Unattended Veh.or Prop.&lt;br/&gt;3921, Theft by Unlawful Taking or Disposition.&lt;br/&gt;3925, Receiving Stolen Property.&lt;br/&gt;5104, Resisting Arrest or Other Law Enforcement.&lt;br/&gt;1501, Drivers Required to be Licensed.&lt;br/&gt;3304, Criminal Mischief.&lt;br/&gt;3733, Fleeing or Attempting to Elude Police Officer&lt;br/&gt;3736, Reckless Driving&lt;br/&gt;3745, Accidents Involving Damage to Unattended Veh.or Prop.&lt;br/&gt;3921, Theft by Unlawful Taking or Disposition.&lt;br/&gt;3925, Receiving Stolen Property.&lt;br/&gt;5104, Resisting Arrest or Other Law Enforcement.&lt;br/&gt;"/><marker lat="40.426221" lng="-79.9674684" zone="Zone 3" incidentdate="2014-07-31" incidenttime="02:31:00" incidentnumber="14149758" address="South 27th Street, Pittsburgh, PA 15203, USA" type="OFFENSE" description="*********************************************** &lt;br/&gt;9488, False  Burglar Alarm&lt;br/&gt;"/><marker lat="40.469014" lng="-80.031657" zone="Zone 1" incidentdate="2014-07-31" incidenttime="04:36:00" incidentnumber="14149807" address="1400 Woodland Avenue, Pittsburgh, PA 15212, USA" type="OFFENSE" description="*********************************************** &lt;br/&gt;9999, 9999 - (Misc. Incident):&lt;br/&gt;"/><marker lat="40.4519645" lng="-79.891618" zone="Zone 5" incidentdate="2014-07-31" incidenttime="05:30:00" incidentnumber="14149821" address="North Braddock Avenue &amp; Tioga Street, Pittsburgh, PA 15208, USA" type="OFFENSE" description="*********************************************** &lt;br/&gt;3921(a), Theft by Unlawful Taking or Disposition - Movable item&lt;br/&gt;"/><marker lat="40.4541373" lng="-79.925302" zone="Zone 4" incidentdate="2014-07-31" incidenttime="07:00:00" incidentnumber="14149857" address="6000 Walnut Street, Pittsburgh, PA 15206, USA" type="OFFENSE" description="*********************************************** &lt;br/&gt;3934, Theft from Vehicle&lt;br/&gt;"/><marker lat="40.4571763" lng="-79.9275268" zone="Zone 4" incidentdate="2014-07-31" incidenttime="07:00:00" incidentnumber="14149864" address="300 Spahr Street, Pittsburgh, PA 15232, USA" type="OFFENSE" description="*********************************************** &lt;br/&gt;3934, Theft from Vehicle&lt;br/&gt;"/><marker lat="40.4834704" lng="-80.0411805" zone="Zone 1" incidentdate="2014-07-31" incidenttime="08:15:00" incidentnumber="14149879" address="1700 Marmaduke Street, Pittsburgh, PA 15212, USA" type="OFFENSE" description="*********************************************** &lt;br/&gt;3934, Theft from Vehicle&lt;br/&gt;"/><marker lat="40.3941159" lng="-80.029093" zone="Zone 6" incidentdate="2014-07-31" incidenttime="08:30:00" incidentnumber="14150140" address="3000 Knowlson Avenue, Pittsburgh, PA 15226, USA" type="OFFENSE" description="*********************************************** &lt;br/&gt;3934, Theft from Vehicle&lt;br/&gt;"/><marker lat="40.385786" lng="-79.9782387" zone="Zone 3" incidentdate="2014-07-31" incidenttime="08:52:00" incidentnumber="14149837" address="100 Kirk Avenue, Pittsburgh, PA 15227, USA" type="OFFENSE" description="*********************************************** &lt;br/&gt;13(a)(32), Paraphernalia - Use or Possession&lt;br/&gt;13(a)(32), Paraphernalia - Use or Possession&lt;br/&gt;2702, Aggravated Assault.&lt;br/&gt;5101, Obstructing Admin. of Law&lt;br/&gt;5104, Resisting Arrest or Other Law Enforcement.&lt;br/&gt;903, Criminal Conspiracy.&lt;br/&gt;13(a)(16), Possession of Controlled Substance&lt;br/&gt;13(a)(30), Possession w/ Intent to Del. Controlled Substance&lt;br/&gt;13(a)(32), Paraphernalia - Use or Possession&lt;br/&gt;4910, Tampering with or Fabricating Physical Evidence.&lt;br/&gt;13(a)(16), Possession of Controlled Substance&lt;br/&gt;13(a)(30), Possession w/ Intent to Del. Controlled Substance&lt;br/&gt;13(a)(32), Paraphernalia - Use or Possession&lt;br/&gt;2702, Aggravated Assault.&lt;br/&gt;4910, Tampering with or Fabricating Physical Evidence.&lt;br/&gt;5101, Obstructing Admin. of Law&lt;br/&gt;5104, Resisting Arrest or Other Law Enforcement.&lt;br/&gt;903, Criminal Conspiracy.&lt;br/&gt;"/><marker lat="40.4303015" lng="-79.9177299" zone="Zone 4" incidentdate="2014-07-31" incidenttime="09:15:00" incidentnumber="14149924" address="6400 Nicholson Street, Pittsburgh, PA 15217, USA" type="OFFENSE" description="*********************************************** &lt;br/&gt;2709, Harassment (Non-Specific)&lt;br/&gt;"/><marker lat="40.4296992" lng="-79.9235171" zone="Zone 4" incidentdate="2014-07-31" incidenttime="09:22:00" incidentnumber="14149888" address="2600 Murray Avenue, Pittsburgh, PA 15217, USA" type="OFFENSE" description="*********************************************** &lt;br/&gt;9498, 302 (Mental)&lt;br/&gt;"/><marker lat="40.4559259" lng="-79.894395" zone="Zone 5" incidentdate="2014-07-31" incidenttime="09:25:00" incidentnumber="14149890" address="7300 Bennett Street, Pittsburgh, PA 15208, USA" type="OFFENSE" description="*********************************************** &lt;br/&gt;2501, Criminal Homicide.&lt;br/&gt;"/><marker lat="40.482526" lng="-79.9284459" zone="Zone 5" incidentdate="2014-07-31" incidenttime="09:30:00" incidentnumber="14149912" address="1600 Jancey Street, Pittsburgh, PA 15206, USA" type="OFFENSE" description="*********************************************** &lt;br/&gt;3934, Theft from Vehicle&lt;br/&gt;"/><marker lat="40.4274829" lng="-80.0096249" zone="Zone 3" incidentdate="2014-07-31" incidenttime="09:33:00" incidentnumber="14149892" address="Cowan Street, Pittsburgh, PA 15211, USA" type="OFFENSE" description="*********************************************** &lt;br/&gt;9489, Found Property&lt;br/&gt;"/><marker lat="40.454003" lng="-79.9533334" zone="Zone 4" incidentdate="2014-07-31" incidenttime="09:42:00" incidentnumber="14149898" address="Baum Boulevard &amp; North Craig Street, Pittsburgh, PA 15213, USA" type="OFFENSE" description="*********************************************** &lt;br/&gt;9999, 9999 - (Misc. Incident):&lt;br/&gt;"/><marker lat="40.4789" lng="-80.034899" zone="Zone 1" incidentdate="2014-07-31" incidenttime="09:55:00" incidentnumber="14149904" address="3500 McClure Avenue, Pittsburgh, PA 15212, USA" type="OFFENSE" description="*********************************************** &lt;br/&gt;9488, False  Burglar Alarm&lt;br/&gt;"/><marker lat="40.4959731" lng="-79.9311212" zone="Zone 2" incidentdate="2014-07-31" incidenttime="10:26:00" incidentnumber="14149923" address="11th Street, Pittsburgh, PA 15215, USA" type="OFFENSE" description="*********************************************** &lt;br/&gt;3924, Theft of Property Lost, Mislaid or Delivered by Mistake.&lt;br/&gt;"/><marker lat="40.4006389" lng="-79.9387609" zone="Zone 4" incidentdate="2014-07-31" incidenttime="10:27:00" incidentnumber="14149941" address="100 Renova Street, Pittsburgh, PA 15207, USA" type="OFFENSE" description="*********************************************** &lt;br/&gt;13(a)(16), Possession of Controlled Substance&lt;br/&gt;13(a)(30), Possession w/ Intent to Del. Controlled Substance&lt;br/&gt;13(a)(32), Paraphernalia - Use or Possession&lt;br/&gt;3925, Receiving Stolen Property.&lt;br/&gt;6105, Former Convict not to Own a Firearm, Etc.&lt;br/&gt;6106, Firearms not to be Carried without a License.&lt;br/&gt;13(a)(16), Possession of Controlled Substance&lt;br/&gt;13(a)(30), Possession w/ Intent to Del. Controlled Substance&lt;br/&gt;13(a)(32), Paraphernalia - Use or Possession&lt;br/&gt;3925, Receiving Stolen Property.&lt;br/&gt;6105, Former Convict not to Own a Firearm, Etc.&lt;br/&gt;6106, Firearms not to be Carried without a License.&lt;br/&gt;"/><marker lat="40.4211885" lng="-79.914715" zone="Zone 4" incidentdate="2014-07-31" incidenttime="10:48:00" incidentnumber="14149927" address="Fairstead Lane, Pittsburgh, PA 15217, USA" type="OFFENSE" description="*********************************************** &lt;br/&gt;9488, False  Burglar Alarm&lt;br/&gt;"/><marker lat="40.438248" lng="-79.991558" zone="Zone 2" incidentdate="2014-07-31" incidenttime="11:00:00" incidentnumber="14150081" address="900 Watson Street, Duquesne University, Pittsburgh, PA 15219, USA" type="OFFENSE" description="*********************************************** &lt;br/&gt;4120, Identity Theft&lt;br/&gt;"/><marker lat="40.457316" lng="-80.013304" zone="Zone 1" incidentdate="2014-07-31" incidenttime="11:38:00" incidentnumber="14149950" address="1500 Monterey Street, Pittsburgh, PA 15212, USA" type="OFFENSE" description="*********************************************** &lt;br/&gt;5503, Disorderly Conduct.&lt;br/&gt;"/><marker lat="40.468819" lng="-80.035259" zone="Zone 1" incidentdate="2014-07-31" incidenttime="11:47:00" incidentnumber="14149955" address="2800 California Avenue, Pittsburgh, PA 15212, USA" type="OFFENSE" description="*********************************************** &lt;br/&gt;13(a)(32), Paraphernalia - Use or Possession&lt;br/&gt;1543, Driving While Operating Privilege is Suspended or Revoked.&lt;br/&gt;3702, Robbery of Motor Vehicle.&lt;br/&gt;13(a)(32), Paraphernalia - Use or Possession&lt;br/&gt;1543, Driving While Operating Privilege is Suspended or Revoked.&lt;br/&gt;3702, Robbery of Motor Vehicle.&lt;br/&gt;"/><marker lat="40.4651691" lng="-79.9579286" zone="Zone 2" incidentdate="2014-07-31" incidenttime="12:00:00" incidentnumber="14150146" address="4000 Penn Avenue, Pittsburgh, PA 15224, USA" type="OFFENSE" description="*********************************************** &lt;br/&gt;2706, Terroristic Threats.&lt;br/&gt;3732.1, Aggravated Assault by Vehicle&lt;br/&gt;"/><marker lat="40.4292389" lng="-79.8680978" zone="Zone 5" incidentdate="2014-07-31" incidenttime="13:00:00" incidentnumber="14148852" address="100 Hawthorne Court, Pittsburgh, PA 15221, USA" type="OFFENSE" description="*********************************************** &lt;br/&gt;2709.1, Stalking Conduct or Repeatedly Acts Including Follows&lt;br/&gt;2709.1, Stalking Conduct or Repeatedly Acts Including Follows&lt;br/&gt;"/><marker lat="40.4435483" lng="-79.9944514" zone="Zone 2" incidentdate="2014-07-31" incidenttime="13:40:00" incidentnumber="14149834" address="1000 Liberty Avenue, Pittsburgh, PA 15222, USA" type="OFFENSE" description="*********************************************** &lt;br/&gt;5507, Obstructing Highways and Passages.&lt;br/&gt;"/><marker lat="40.45922" lng="-79.910882" zone="Zone 5" incidentdate="2014-07-31" incidenttime="14:30:00" incidentnumber="14150057" address="6600 Frankstown Avenue, Pittsburgh, PA 15206, USA" type="OFFENSE" description="*********************************************** &lt;br/&gt;3745, Accidents Involving Damage to Unattended Veh.or Prop.&lt;br/&gt;"/><marker lat="40.4559285" lng="-79.8807523" zone="Zone 5" incidentdate="2014-07-31" incidenttime="15:00:00" incidentnumber="14150089" address="1000 Silverdale Street, Pittsburgh, PA 15221, USA" type="OFFENSE" description="*********************************************** &lt;br/&gt;13(a)(16), Possession of Controlled Substance&lt;br/&gt;13(a)(31), Marijuana: Possession Small Amount&lt;br/&gt;13(a)(16), Possession of Controlled Substance&lt;br/&gt;13(a)(31), Marijuana: Possession Small Amount&lt;br/&gt;3743, Accidents Involving Damage to Attended Veh. or Property&lt;br/&gt;"/><marker lat="40.466513" lng="-80.007102" zone="Zone 1" incidentdate="2014-07-31" incidenttime="15:10:00" incidentnumber="14150041" address="2300 Osgood Street, Pittsburgh, PA 15214, USA" type="OFFENSE" description="*********************************************** &lt;br/&gt;9489, Found Property&lt;br/&gt;"/><marker lat="40.462257" lng="-79.9884599" zone="Zone 1" incidentdate="2014-07-31" incidenttime="15:15:00" incidentnumber="14150083" address="1400 Firth Street, Pittsburgh, PA 15212, USA" type="OFFENSE" description="*********************************************** &lt;br/&gt;2709, Harassment (Non-Specific)&lt;br/&gt;"/><marker lat="40.4275469" lng="-80.0234968" zone="Zone 3" incidentdate="2014-07-31" incidenttime="15:30:00" incidentnumber="14150148" address="1200 Lewis Street, Pittsburgh, PA 15220, USA" type="OFFENSE" description="*********************************************** &lt;br/&gt;3304(a)(5), CRIMINAL MISCHIEF - Intentionally Damages Real Or Personal Property Of Another&lt;br/&gt;"/><marker lat="40.4727056" lng="-79.8889282" zone="Zone 5" incidentdate="2014-07-31" incidenttime="15:41:00" incidentnumber="14150077" address="7200 Verona Boulevard, Pittsburgh, PA 15235, USA" type="OFFENSE" description="*********************************************** &lt;br/&gt;9497, Aided Case&lt;br/&gt;"/><marker lat="40.4227459" lng="-79.9958118" zone="Zone 3" incidentdate="2014-07-31" incidenttime="16:00:00" incidentnumber="14150303" address="700 Excelsior Street, Pittsburgh, PA 15210, USA" type="OFFENSE" description="*********************************************** &lt;br/&gt;2709, Harassment (Non-Specific)&lt;br/&gt;"/><marker lat="40.4506106" lng="-80.0134127" zone="Zone 1" incidentdate="2014-07-31" incidenttime="16:10:00" incidentnumber="14150098" address="800 Ridge Avenue, Pittsburgh, PA 15212, USA" type="OFFENSE" description="*********************************************** &lt;br/&gt;3924, Theft of Property Lost, Mislaid or Delivered by Mistake.&lt;br/&gt;"/><marker lat="40.459395" lng="-80.000869" zone="Zone 1" incidentdate="2014-07-31" incidenttime="16:20:00" incidentnumber="14150103" address="1500 Compromise Street, Pittsburgh, PA 15212, USA" type="OFFENSE" description="*********************************************** &lt;br/&gt;029, Missing Juvenile&lt;br/&gt;"/><marker lat="40.4802356" lng="-79.94986" zone="Zone 2" incidentdate="2014-07-31" incidenttime="16:20:00" incidentnumber="14150105" address="5300 Lotus Way, Pittsburgh, PA 15201, USA" type="OFFENSE" description="*********************************************** &lt;br/&gt;3502, Burglary.&lt;br/&gt;"/><marker lat="40.455482" lng="-80.025269" zone="Zone 1" incidentdate="2014-07-31" incidenttime="01:41:00" incidentnumber="14081898" address="1300 Liverpool Street, Pittsburgh, PA 15233, USA" type="ARREST" description="*********************************************** &lt;br/&gt;3921(a), Theft by Unlawful Taking or Disposition - Movable item&lt;br/&gt;3925, Receiving Stolen Property.&lt;br/&gt;903, Criminal Conspiracy.&lt;br/&gt;"/><marker lat="40.458297" lng="-79.891019" zone="Zone 5" incidentdate="2014-07-31" incidenttime="15:33:00" incidentnumber="14138278" address="7400 Monticello Street, Pittsburgh, PA 15208, USA" type="ARREST" description="*********************************************** &lt;br/&gt;2709(a)(4), Harassment Communicates Prohibited Acts&lt;br/&gt;"/><marker lat="40.4418905" lng="-79.8793507" zone="Zone OSC" incidentdate="2014-07-31" incidenttime="02:09:00" incidentnumber="14149747" address="Penn Avenue &amp; Coal Street, Pittsburgh, PA 15221, USA" type="ARREST" description="*********************************************** &lt;br/&gt;1501, Drivers Required to be Licensed.&lt;br/&gt;3304, Criminal Mischief.&lt;br/&gt;3733, Fleeing or Attempting to Elude Police Officer&lt;br/&gt;3736, Reckless Driving&lt;br/&gt;3745, Accidents Involving Damage to Unattended Veh.or Prop.&lt;br/&gt;3921, Theft by Unlawful Taking or Disposition.&lt;br/&gt;3925, Receiving Stolen Property.&lt;br/&gt;5104, Resisting Arrest or Other Law Enforcement.&lt;br/&gt;1501, Drivers Required to be Licensed.&lt;br/&gt;3304, Criminal Mischief.&lt;br/&gt;3733, Fleeing or Attempting to Elude Police Officer&lt;br/&gt;3736, Reckless Driving&lt;br/&gt;3745, Accidents Involving Damage to Unattended Veh.or Prop.&lt;br/&gt;3921, Theft by Unlawful Taking or Disposition.&lt;br/&gt;3925, Receiving Stolen Property.&lt;br/&gt;5104, Resisting Arrest or Other Law Enforcement.&lt;br/&gt;"/><marker lat="40.4006389" lng="-79.9387609" zone="Zone 4" incidentdate="2014-07-31" incidenttime="10:30:00" incidentnumber="14149941" address="100 Renova Street, Pittsburgh, PA 15207, USA" type="ARREST" description="*********************************************** &lt;br/&gt;13(a)(16), Possession of Controlled Substance&lt;br/&gt;13(a)(30), Possession w/ Intent to Del. Controlled Substance&lt;br/&gt;13(a)(32), Paraphernalia - Use or Possession&lt;br/&gt;3925, Receiving Stolen Property.&lt;br/&gt;6105, Former Convict not to Own a Firearm, Etc.&lt;br/&gt;6106, Firearms not to be Carried without a License.&lt;br/&gt;13(a)(16), Possession of Controlled Substance&lt;br/&gt;13(a)(30), Possession w/ Intent to Del. Controlled Substance&lt;br/&gt;13(a)(32), Paraphernalia - Use or Possession&lt;br/&gt;3925, Receiving Stolen Property.&lt;br/&gt;6105, Former Convict not to Own a Firearm, Etc.&lt;br/&gt;6106, Firearms not to be Carried without a License.&lt;br/&gt;"/><marker lat="40.4284295" lng="-79.9746395" zone="Zone 3" incidentdate="2014-07-31" incidenttime="02:18:00" incidentnumber="14149738" address="East Carson Street &amp; South 22nd Street, Pittsburgh, PA 15203, USA" type="ARREST" description="*********************************************** &lt;br/&gt;3112, Traffic-Control Signals.&lt;br/&gt;3802(a)(1), DUI - General Impairment&lt;br/&gt;3802(c), DUI - Highest Rate of Alcohol - BAC &gt;= .16%&lt;br/&gt;3112, Traffic-Control Signals.&lt;br/&gt;3802(a)(1), DUI - General Impairment&lt;br/&gt;3802(c), DUI - Highest Rate of Alcohol - BAC &gt;= .16%&lt;br/&gt;"/><marker lat="40.4182061" lng="-79.9990364" zone="Zone 3" incidentdate="2014-07-31" incidenttime="16:55:00" incidentnumber="14150130" address="500 Curtin Avenue, Pittsburgh, PA 15210, USA" type="ARREST" description="*********************************************** &lt;br/&gt;13(a)(16), Possession of Controlled Substance&lt;br/&gt;13(a)(30), Possession w/ Intent to Del. Controlled Substance&lt;br/&gt;4910, Tampering with or Fabricating Physical Evidence.&lt;br/&gt;6106, Firearms not to be Carried without a License.&lt;br/&gt;6110.1, Possesion of Firearm by Minor&lt;br/&gt;6110.2, Possesion of Firearm with Altered Mfg. Number&lt;br/&gt;13(a)(16), Possession of Controlled Substance&lt;br/&gt;13(a)(30), Possession w/ Intent to Del. Controlled Substance&lt;br/&gt;4910, Tampering with or Fabricating Physical Evidence.&lt;br/&gt;6106, Firearms not to be Carried without a License.&lt;br/&gt;6110.1, Possesion of Firearm by Minor&lt;br/&gt;6110.2, Possesion of Firearm with Altered Mfg. Number&lt;br/&gt;"/><marker lat="40.4955791" lng="-80.0666574" zone="Zone 1" incidentdate="2014-07-31" incidenttime="02:35:00" incidentnumber="14142646" address="Ohio River Boulevard, Pittsburgh, PA, USA" type="ARREST" description="*********************************************** &lt;br/&gt;3802(a)(1), DUI - General Impairment&lt;br/&gt;1501, Drivers Required to be Licensed.&lt;br/&gt;3802(a)(1), DUI - General Impairment&lt;br/&gt;3802(c), DUI - Highest Rate of Alcohol - BAC &gt;= .16%&lt;br/&gt;"/><marker lat="40.4559285" lng="-79.8807523" zone="Zone 5" incidentdate="2014-07-31" incidenttime="15:59:00" incidentnumber="14150089" address="1000 Silverdale Street, Pittsburgh, PA 15221, USA" type="ARREST" description="*********************************************** &lt;br/&gt;13(a)(16), Possession of Controlled Substance&lt;br/&gt;13(a)(31), Marijuana: Possession Small Amount&lt;br/&gt;13(a)(16), Possession of Controlled Substance&lt;br/&gt;13(a)(31), Marijuana: Possession Small Amount&lt;br/&gt;3743, Accidents Involving Damage to Attended Veh. or Property&lt;br/&gt;"/><marker lat="40.4395028" lng="-80.0235574" zone="Zone 3" incidentdate="2014-07-31" incidenttime="05:30:00" incidentnumber="14123777" address="200 Edith Street, Pittsburgh, PA 15211, USA" type="ARREST" description="*********************************************** &lt;br/&gt;2701(a)(1), Simple Assault - Intent., Know., Reckless.Cause Bod. Injury&lt;br/&gt;3503(a), Criminal Trespass&lt;br/&gt;3701, Robbery.&lt;br/&gt;"/><marker lat="40.4359335" lng="-79.9971487" zone="Zone 2" incidentdate="2014-07-31" incidenttime="11:30:00" incidentnumber="14114574" address="600 First Avenue, Pittsburgh, PA 15219, USA" type="ARREST" description="*********************************************** &lt;br/&gt;4106, Access Device Fraud&lt;br/&gt;"/><marker lat="40.385786" lng="-79.9782387" zone="Zone 3" incidentdate="2014-07-31" incidenttime="06:20:00" incidentnumber="14149837" address="100 Kirk Avenue, Pittsburgh, PA 15227, USA" type="ARREST" description="*********************************************** &lt;br/&gt;13(a)(32), Paraphernalia - Use or Possession&lt;br/&gt;13(a)(32), Paraphernalia - Use or Possession&lt;br/&gt;2702, Aggravated Assault.&lt;br/&gt;5101, Obstructing Admin. of Law&lt;br/&gt;5104, Resisting Arrest or Other Law Enforcement.&lt;br/&gt;903, Criminal Conspiracy.&lt;br/&gt;13(a)(16), Possession of Controlled Substance&lt;br/&gt;13(a)(30), Possession w/ Intent to Del. Controlled Substance&lt;br/&gt;13(a)(32), Paraphernalia - Use or Possession&lt;br/&gt;4910, Tampering with or Fabricating Physical Evidence.&lt;br/&gt;13(a)(16), Possession of Controlled Substance&lt;br/&gt;13(a)(30), Possession w/ Intent to Del. Controlled Substance&lt;br/&gt;13(a)(32), Paraphernalia - Use or Possession&lt;br/&gt;2702, Aggravated Assault.&lt;br/&gt;4910, Tampering with or Fabricating Physical Evidence.&lt;br/&gt;5101, Obstructing Admin. of Law&lt;br/&gt;5104, Resisting Arrest or Other Law Enforcement.&lt;br/&gt;903, Criminal Conspiracy.&lt;br/&gt;"/><marker lat="40.385786" lng="-79.9782387" zone="Zone 3" incidentdate="2014-07-31" incidenttime="06:20:00" incidentnumber="14149837" address="100 Kirk Avenue, Pittsburgh, PA 15227, USA" type="ARREST" description="*********************************************** &lt;br/&gt;13(a)(32), Paraphernalia - Use or Possession&lt;br/&gt;13(a)(32), Paraphernalia - Use or Possession&lt;br/&gt;2702, Aggravated Assault.&lt;br/&gt;5101, Obstructing Admin. of Law&lt;br/&gt;5104, Resisting Arrest or Other Law Enforcement.&lt;br/&gt;903, Criminal Conspiracy.&lt;br/&gt;13(a)(16), Possession of Controlled Substance&lt;br/&gt;13(a)(30), Possession w/ Intent to Del. Controlled Substance&lt;br/&gt;13(a)(32), Paraphernalia - Use or Possession&lt;br/&gt;4910, Tampering with or Fabricating Physical Evidence.&lt;br/&gt;13(a)(16), Possession of Controlled Substance&lt;br/&gt;13(a)(30), Possession w/ Intent to Del. Controlled Substance&lt;br/&gt;13(a)(32), Paraphernalia - Use or Possession&lt;br/&gt;2702, Aggravated Assault.&lt;br/&gt;4910, Tampering with or Fabricating Physical Evidence.&lt;br/&gt;5101, Obstructing Admin. of Law&lt;br/&gt;5104, Resisting Arrest or Other Law Enforcement.&lt;br/&gt;903, Criminal Conspiracy.&lt;br/&gt;"/><marker lat="40.4480182" lng="-79.8945396" zone="Zone 4" incidentdate="2014-07-31" incidenttime="20:30:00" incidentnumber="14150281" address="North Braddock Avenue &amp; Meade Street, Pittsburgh, PA 15208, USA" type="ARREST" description="*********************************************** &lt;br/&gt;5902(e), Patronizing a Prostitute&lt;br/&gt;902, Criminal Solicitation.&lt;br/&gt;5902(e), Patronizing a Prostitute&lt;br/&gt;902, Criminal Solicitation.&lt;br/&gt;902, Criminal Solicitation.&lt;br/&gt;"/><marker lat="40.468819" lng="-80.035259" zone="Zone 1" incidentdate="2014-07-31" incidenttime="11:47:00" incidentnumber="14149955" address="2800 California Avenue, Pittsburgh, PA 15212, USA" type="ARREST" description="*********************************************** &lt;br/&gt;13(a)(32), Paraphernalia - Use or Possession&lt;br/&gt;1543, Driving While Operating Privilege is Suspended or Revoked.&lt;br/&gt;3702, Robbery of Motor Vehicle.&lt;br/&gt;13(a)(32), Paraphernalia - Use or Possession&lt;br/&gt;1543, Driving While Operating Privilege is Suspended or Revoked.&lt;br/&gt;3702, Robbery of Motor Vehicle.&lt;br/&gt;"/><marker lat="40.443106" lng="-79.8664306" zone="Zone 2" incidentdate="2014-07-31" incidenttime="08:00:00" incidentnumber="14144438" address="1700 Penn Avenue, Pittsburgh, PA 15221, USA" type="ARREST" description="*********************************************** &lt;br/&gt;3929, Retail Theft.&lt;br/&gt;3929, Retail Theft.&lt;br/&gt;"/><marker lat="40.4645014" lng="-79.9300816" zone="Zone 5" incidentdate="2014-07-31" incidenttime="21:50:00" incidentnumber="14150342" address="North Negley Avenue &amp; Broad Street, Pittsburgh, PA 15206, USA" type="ARREST" description="*********************************************** &lt;br/&gt;5902(e), Patronizing a Prostitute&lt;br/&gt;902, Criminal Solicitation.&lt;br/&gt;5902(e), Patronizing a Prostitute&lt;br/&gt;902, Criminal Solicitation.&lt;br/&gt;902, Criminal Solicitation.&lt;br/&gt;"/><marker lat="40.385786" lng="-79.9782387" zone="Zone 3" incidentdate="2014-07-31" incidenttime="08:20:00" incidentnumber="14149837" address="100 Kirk Avenue, Pittsburgh, PA 15227, USA" type="ARREST" description="*********************************************** &lt;br/&gt;13(a)(32), Paraphernalia - Use or Possession&lt;br/&gt;13(a)(32), Paraphernalia - Use or Possession&lt;br/&gt;2702, Aggravated Assault.&lt;br/&gt;5101, Obstructing Admin. of Law&lt;br/&gt;5104, Resisting Arrest or Other Law Enforcement.&lt;br/&gt;903, Criminal Conspiracy.&lt;br/&gt;13(a)(16), Possession of Controlled Substance&lt;br/&gt;13(a)(30), Possession w/ Intent to Del. Controlled Substance&lt;br/&gt;13(a)(32), Paraphernalia - Use or Possession&lt;br/&gt;4910, Tampering with or Fabricating Physical Evidence.&lt;br/&gt;13(a)(16), Possession of Controlled Substance&lt;br/&gt;13(a)(30), Possession w/ Intent to Del. Controlled Substance&lt;br/&gt;13(a)(32), Paraphernalia - Use or Possession&lt;br/&gt;2702, Aggravated Assault.&lt;br/&gt;4910, Tampering with or Fabricating Physical Evidence.&lt;br/&gt;5101, Obstructing Admin. of Law&lt;br/&gt;5104, Resisting Arrest or Other Law Enforcement.&lt;br/&gt;903, Criminal Conspiracy.&lt;br/&gt;"/><marker lat="40.4303766" lng="-79.9774332" zone="Zone 3" incidentdate="2014-07-31" incidenttime="20:39:00" incidentnumber="14150282" address="Wharton Street &amp; South 20th Street, Pittsburgh, PA 15203, USA" type="ARREST" description="*********************************************** &lt;br/&gt;2705, Recklessly Endangering Another Person.&lt;br/&gt;3304, Criminal Mischief.&lt;br/&gt;3503.B1I, DEF. TRESPASS ACTUAL COMMUNICATION&lt;br/&gt;5121, Escape.&lt;br/&gt;5503, Disorderly Conduct.&lt;br/&gt;5505, Public Drunkenness&lt;br/&gt;2705, Recklessly Endangering Another Person.&lt;br/&gt;3304, Criminal Mischief.&lt;br/&gt;3503.B1I, DEF. TRESPASS ACTUAL COMMUNICATION&lt;br/&gt;5121, Escape.&lt;br/&gt;5503, Disorderly Conduct.&lt;br/&gt;5505, Public Drunkenness&lt;br/&gt;"/><marker lat="40.4292389" lng="-79.8680978" zone="Zone 5" incidentdate="2014-07-31" incidenttime="13:00:00" incidentnumber="14148852" address="100 Hawthorne Court, Pittsburgh, PA 15221, USA" type="ARREST" description="*********************************************** &lt;br/&gt;2709.1, Stalking Conduct or Repeatedly Acts Including Follows&lt;br/&gt;2709.1, Stalking Conduct or Repeatedly Acts Including Follows&lt;br/&gt;"/><marker lat="40.4475989" lng="-79.966328" zone="Zone 2" incidentdate="2014-07-31" incidenttime="09:00:00" incidentnumber="14139068" address="2800 Centre Avenue, Pittsburgh, PA 15219, USA" type="ARREST" description="*********************************************** &lt;br/&gt;3925, Receiving Stolen Property.&lt;br/&gt;"/><marker lat="40.3844" lng="-79.991285" zone="Zone 3" incidentdate="2014-07-31" incidenttime="09:15:00" incidentnumber="14036259" address="700 Maytide Street, Pittsburgh, PA 15227, USA" type="ARREST" description="*********************************************** &lt;br/&gt;2701, Simple Assault.&lt;br/&gt;"/><marker lat="40.4645014" lng="-79.9300816" zone="Zone 5" incidentdate="2014-07-31" incidenttime="21:30:00" incidentnumber="14150331" address="North Negley Avenue &amp; Broad Street, Pittsburgh, PA 15206, USA" type="ARREST" description="*********************************************** &lt;br/&gt;13(a)(16), Possession of Controlled Substance&lt;br/&gt;5902(e), Patronizing a Prostitute&lt;br/&gt;902, Criminal Solicitation.&lt;br/&gt;13(a)(16), Possession of Controlled Substance&lt;br/&gt;5902(e), Patronizing a Prostitute&lt;br/&gt;902, Criminal Solicitation.&lt;br/&gt;"/><marker lat="40.464615" lng="-79.922397" zone="Zone 5" incidentdate="2014-07-31" incidenttime="20:02:00" incidentnumber="14150253" address="400 North Highland Avenue, Pittsburgh, PA 15206, USA" type="ARREST" description="*********************************************** &lt;br/&gt;3921(a), Theft by Unlawful Taking or Disposition - Movable item&lt;br/&gt;3929, Retail Theft.&lt;br/&gt;903, Criminal Conspiracy.&lt;br/&gt;3921(a), Theft by Unlawful Taking or Disposition - Movable item&lt;br/&gt;3929, Retail Theft.&lt;br/&gt;903, Criminal Conspiracy.&lt;br/&gt;3921(a), Theft by Unlawful Taking or Disposition - Movable item&lt;br/&gt;3929, Retail Theft.&lt;br/&gt;903, Criminal Conspiracy.&lt;br/&gt;"/><marker lat="40.4512829" lng="-80.000609" zone="Zone 1" incidentdate="2014-07-31" incidenttime="17:35:00" incidentnumber="14150163" address="300 Cedar Avenue, Pittsburgh, PA 15212, USA" type="ARREST" description="*********************************************** &lt;br/&gt;13(a)(32), Paraphernalia - Use or Possession&lt;br/&gt;13(a)(32), Paraphernalia - Use or Possession&lt;br/&gt;"/><marker lat="40.4311765" lng="-79.9592397" zone="Zone 4" incidentdate="2014-07-31" incidenttime="14:55:00" incidentnumber="14150040" address="Second Avenue &amp; Technology Drive, Pittsburgh, PA 15213, USA" type="ARREST" description="*********************************************** &lt;br/&gt;1501, Drivers Required to be Licensed.&lt;br/&gt;3925, Receiving Stolen Property.&lt;br/&gt;"/><marker lat="40.464615" lng="-79.922397" zone="Zone 5" incidentdate="2014-07-31" incidenttime="20:02:00" incidentnumber="14150253" address="400 North Highland Avenue, Pittsburgh, PA 15206, USA" type="ARREST" description="*********************************************** &lt;br/&gt;3921(a), Theft by Unlawful Taking or Disposition - Movable item&lt;br/&gt;3929, Retail Theft.&lt;br/&gt;903, Criminal Conspiracy.&lt;br/&gt;3921(a), Theft by Unlawful Taking or Disposition - Movable item&lt;br/&gt;3929, Retail Theft.&lt;br/&gt;903, Criminal Conspiracy.&lt;br/&gt;3921(a), Theft by Unlawful Taking or Disposition - Movable item&lt;br/&gt;3929, Retail Theft.&lt;br/&gt;903, Criminal Conspiracy.&lt;br/&gt;"/><marker lat="40.4601417" lng="-79.9002608" zone="Zone 5" incidentdate="2014-07-31" incidenttime="19:08:00" incidentnumber="14150224" address="7000 Monticello Street, Pittsburgh, PA 15208, USA" type="ARREST" description="*********************************************** &lt;br/&gt;4910, Tampering with or Fabricating Physical Evidence.&lt;br/&gt;6106, Firearms not to be Carried without a License.&lt;br/&gt;6110.1, Possesion of Firearm by Minor&lt;br/&gt;4910, Tampering with or Fabricating Physical Evidence.&lt;br/&gt;6106, Firearms not to be Carried without a License.&lt;br/&gt;6110.1, Possesion of Firearm by Minor&lt;br/&gt;"/><marker lat="40.4462926" lng="-79.9803137" zone="Zone 2" incidentdate="2014-07-31" incidenttime="21:00:00" incidentnumber="14150286" address="2100 Webster Avenue, Pittsburgh, PA 15219, USA" type="ARREST" description="*********************************************** &lt;br/&gt;13(a)(32), Paraphernalia - Use or Possession&lt;br/&gt;3503, Criminal Trespass&lt;br/&gt;4910, Tampering with or Fabricating Physical Evidence.&lt;br/&gt;13(a)(32), Paraphernalia - Use or Possession&lt;br/&gt;3503, Criminal Trespass&lt;br/&gt;4910, Tampering with or Fabricating Physical Evidence.&lt;br/&gt;4910, Tampering with or Fabricating Physical Evidence.&lt;br/&gt;"/><marker lat="40.4359335" lng="-79.9971487" zone="Zone 2" incidentdate="2014-07-31" incidenttime="10:00:00" incidentnumber="14147757" address="600 First Avenue, Pittsburgh, PA 15219, USA" type="ARREST" description="*********************************************** &lt;br/&gt;1786, Required Financial Responsibility.&lt;br/&gt;3743, Accidents Involving Damage to Attended Veh. or Property&lt;br/&gt;1786, Required Financial Responsibility.&lt;br/&gt;3743, Accidents Involving Damage to Attended Veh. or Property&lt;br/&gt;"/><marker lat="40.4227549" lng="-79.9916213" zone="Zone 3" incidentdate="2014-07-31" incidenttime="10:15:00" incidentnumber="14140641" address="900 Excelsior Street, Pittsburgh, PA 15210, USA" type="ARREST" description="*********************************************** &lt;br/&gt;2701, Simple Assault.&lt;br/&gt;"/><marker lat="40.4566814" lng="-79.8989809" zone="Zone 5" incidentdate="2014-07-31" incidenttime="18:00:00" incidentnumber="14112947" address="700 North Lang Avenue, Pittsburgh, PA 15208, USA" type="ARREST" description="*********************************************** &lt;br/&gt;2701, Simple Assault.&lt;br/&gt;2701, Simple Assault.&lt;br/&gt;"/></markers>
