<?xml version="1.0"?>
<markers><marker lat="40.488209834026463" lng="-80.015158575586483" zone="Zone 1" incidentdate="2015-04-02" incidenttime="16:47:00" incidentnumber="15056989" address="3800 block east St" type="OFFENSE" age="" gender="" description="*********************************************** &lt;br/&gt;2709(a)(1), Harassment by Physical Contact, or Attempts or Threats&lt;br/&gt;"/><marker lat="40.473257525681689" lng="-79.92829187485539" zone="Zone 5" incidentdate="2015-04-02" incidenttime="16:00:00" incidentnumber="15056988" address="5500 block Jackson St" type="OFFENSE" age="" gender="" description="*********************************************** &lt;br/&gt;3921, Theft by Unlawful Taking or Disposition.&lt;br/&gt;"/><marker lat="40.456026397140533" lng="-80.006488644201866" zone="Zone 1" incidentdate="2015-04-02" incidenttime="09:01:00" incidentnumber="15056651" address="1200 block Federal St N" type="OFFENSE" age="" gender="" description="*********************************************** &lt;br/&gt;9488, False  Burglar Alarm&lt;br/&gt;"/><marker lat="40.4399938" lng="-80.0474175" zone="Zone 6" incidentdate="2015-04-02" incidenttime="16:17:00" incidentnumber="15056862" address="Arnold St &amp; Hassler St" type="OFFENSE" age="" gender="" description="*********************************************** &lt;br/&gt;13(a)(32), Paraphernalia - Use or Possession&lt;br/&gt;"/><marker lat="40.461667866820619" lng="-79.965948134786927" zone="Zone 2" incidentdate="2015-04-02" incidenttime="12:00:00" incidentnumber="15056883" address="3400 block Denny St" type="OFFENSE" age="" gender="" description="*********************************************** &lt;br/&gt;3921, Theft by Unlawful Taking or Disposition.&lt;br/&gt;"/><marker lat="40.466854854459186" lng="-79.964274684128924" zone="Zone 2" incidentdate="2015-04-02" incidenttime="17:15:00" incidentnumber="15056640" address="38th St &amp; Butler St" type="OFFENSE" age="" gender="" description="*********************************************** &lt;br/&gt;3934, Theft from Vehicle&lt;br/&gt;3304, Criminal Mischief.&lt;br/&gt;"/><marker lat="40.435649239353118" lng="-80.013139117050898" zone="Zone 3" incidentdate="2015-04-02" incidenttime="22:44:00" incidentnumber="15057086" address="600 block Grandview Ave" type="OFFENSE" age="" gender="" description="*********************************************** &lt;br/&gt;9999, 9999 - (Misc. Incident):&lt;br/&gt;"/><marker lat="40.461630806852277" lng="-79.926784260450063" zone="Zone 4" incidentdate="2015-04-02" incidenttime="16:23:00" incidentnumber="15056910" address="5900 block Penn Cir S" type="OFFENSE" age="" gender="" description="*********************************************** &lt;br/&gt;3929, Retail Theft.&lt;br/&gt;"/><marker lat="40.474248305519382" lng="-79.965250627899067" zone="Zone 2" incidentdate="2015-04-02" incidenttime="17:41:00" incidentnumber="15056921" address="43rd St" type="OFFENSE" age="" gender="" description="*********************************************** &lt;br/&gt;3304, Criminal Mischief.&lt;br/&gt;"/><marker lat="40.427168151484665" lng="-79.977741347784132" zone="Zone 3" incidentdate="2015-04-02" incidenttime="18:20:00" incidentnumber="15056956" address="2000 block Larkins Way" type="OFFENSE" age="" gender="" description="*********************************************** &lt;br/&gt;9496, Dead on Arrival (DOA)&lt;br/&gt;"/><marker lat="40.419619018630861" lng="-80.005890606372347" zone="Zone 3" incidentdate="2015-04-02" incidenttime="22:15:00" incidentnumber="15057081" address="100 block Industry St" type="OFFENSE" age="" gender="" description="*********************************************** &lt;br/&gt;4303, General Lighting Requirements.&lt;br/&gt;13(a)(31), Marijuana: Possession Small Amount&lt;br/&gt;"/><marker lat="40.459227130464114" lng="-80.005623690982688" zone="Zone 1" incidentdate="2015-04-02" incidenttime="20:24:00" incidentnumber="15057015" address="Henderson St &amp; Sandusky Ct" type="OFFENSE" age="" gender="" description="*********************************************** &lt;br/&gt;13(a)(32), Paraphernalia - Use or Possession&lt;br/&gt;"/><marker lat="40.41585770010623" lng="-79.988118814925556" zone="Zone 3" incidentdate="2015-04-02" incidenttime="14:30:00" incidentnumber="15057024" address="100 block Zara St" type="OFFENSE" age="" gender="" description="*********************************************** &lt;br/&gt;9999, 9999 - (Misc. Incident):&lt;br/&gt;"/><marker lat="40.453711737203285" lng="-79.898092583777213" zone="Zone 5" incidentdate="2015-04-02" incidenttime="23:17:00" incidentnumber="15057106" address="7200 block Susquehanna St" type="OFFENSE" age="" gender="" description="*********************************************** &lt;br/&gt;3928, Unauthorized Use of Automobile and Other Vehicles.&lt;br/&gt;"/><marker lat="40.458714806047702" lng="-80.027995936641673" zone="Zone 1" incidentdate="2015-04-02" incidenttime="10:40:00" incidentnumber="15056690" address="1400 block Adams St" type="OFFENSE" age="" gender="" description="*********************************************** &lt;br/&gt;9489, Found Property&lt;br/&gt;"/><marker lat="40.434850439066452" lng="-80.011975665580493" zone="Zone 3" incidentdate="2015-04-02" incidenttime="19:00:00" incidentnumber="15057030" address="100 block Ulysses St" type="OFFENSE" age="" gender="" description="*********************************************** &lt;br/&gt;3934, Theft from Vehicle&lt;br/&gt;"/><marker lat="40.473061294243244" lng="-79.959112240217038" zone="Zone 2" incidentdate="2015-04-02" incidenttime="15:00:00" incidentnumber="15056819" address="4600 block Eden Way" type="OFFENSE" age="" gender="" description="*********************************************** &lt;br/&gt;2709, Harassment (Non-Specific)&lt;br/&gt;"/><marker lat="40.434696587775576" lng="-79.996300985228572" zone="Zone 2" incidentdate="2015-04-02" incidenttime="17:50:00" incidentnumber="15048356" address="600 block 1st Ave" type="OFFENSE" age="" gender="" description="*********************************************** &lt;br/&gt;2701(b)(2), Simple Assault -  Child Under 12 / Adult 21 Or Older&lt;br/&gt;4304(a)(1), Endangering Welfare of Children - Course of Conduct Enhanced&lt;br/&gt;"/><marker lat="40.441372308321661" lng="-79.923287923128115" zone="Zone 4" incidentdate="2015-04-02" incidenttime="10:00:00" incidentnumber="15056695" address="5800 block Northumberland St" type="OFFENSE" age="" gender="" description="*********************************************** &lt;br/&gt;9124, Drug Investigation&lt;br/&gt;"/><marker lat="40.473257525681689" lng="-79.92829187485539" zone="Zone 5" incidentdate="2015-04-02" incidenttime="00:15:00" incidentnumber="15056496" address="5500 block Jackson St" type="OFFENSE" age="" gender="" description="*********************************************** &lt;br/&gt;2709, Harassment (Non-Specific)&lt;br/&gt;"/><marker lat="40.453159607019344" lng="-80.061802952779757" zone="Zone 6" incidentdate="2015-04-02" incidenttime="08:25:00" incidentnumber="15056696" address="1200 block Adon St" type="OFFENSE" age="" gender="" description="*********************************************** &lt;br/&gt;9496, Dead on Arrival (DOA)&lt;br/&gt;"/><marker lat="40.423818885642874" lng="-79.923864159522552" zone="Zone 4" incidentdate="2015-04-02" incidenttime="00:01:00" incidentnumber="15057016" address="6300 block Caton St" type="OFFENSE" age="" gender="" description="*********************************************** &lt;br/&gt;4120, Identity Theft&lt;br/&gt;"/><marker lat="40.472866390131692" lng="-79.9639201912602" zone="Zone 2" incidentdate="2015-04-02" incidenttime="12:00:00" incidentnumber="15056952" address="100 block 43rd St" type="OFFENSE" age="" gender="" description="*********************************************** &lt;br/&gt;3304, Criminal Mischief.&lt;br/&gt;"/><marker lat="40.454382898318165" lng="-79.94767358766066" zone="Zone 5" incidentdate="2015-04-02" incidenttime="15:25:00" incidentnumber="15056839" address="Baum Blvd &amp; S Millvale Ave" type="OFFENSE" age="" gender="" description="*********************************************** &lt;br/&gt;3743, Accidents Involving Damage to Attended Veh. or Property&lt;br/&gt;"/><marker lat="40.485070104693577" lng="-79.946015671800723" zone="Zone 5" incidentdate="2015-04-02" incidenttime="11:40:00" incidentnumber="15056723" address="5700 block Butler St" type="OFFENSE" age="" gender="" description="*********************************************** &lt;br/&gt;2706, Terroristic Threats.&lt;br/&gt;"/><marker lat="40.384498425925131" lng="-80.003577385204096" zone="Zone 3" incidentdate="2015-04-02" incidenttime="13:38:00" incidentnumber="15056772" address="2300 block Bernard St" type="OFFENSE" age="" gender="" description="*********************************************** &lt;br/&gt;9999, 9999 - (Misc. Incident):&lt;br/&gt;"/><marker lat="40.421531877189601" lng="-79.993577564166102" zone="Zone 3" incidentdate="2015-04-02" incidenttime="10:00:00" incidentnumber="15056903" address="800 block E Warrington Ave" type="OFFENSE" age="" gender="" description="*********************************************** &lt;br/&gt;9124, Drug Investigation&lt;br/&gt;"/><marker lat="40.436180549657671" lng="-79.919025770995219" zone="Zone 4" incidentdate="2015-04-02" incidenttime="10:30:00" incidentnumber="15056697" address="6300 block Bartlett St" type="OFFENSE" age="" gender="" description="*********************************************** &lt;br/&gt;4103, Fraud. Destruct., Remov. or Conceal.of Record. Instr.&lt;br/&gt;4120, Identity Theft&lt;br/&gt;"/><marker lat="40.411913134501503" lng="-80.021236729846365" zone="Zone 6" incidentdate="2015-04-02" incidenttime="23:40:00" incidentnumber="15057109" address="1500 block Alton St" type="OFFENSE" age="" gender="" description="*********************************************** &lt;br/&gt;9497, Aided Case&lt;br/&gt;"/><marker lat="40.462206527800817" lng="-80.051237561811348" zone="Zone 6" incidentdate="2015-04-02" incidenttime="23:52:00" incidentnumber="15057119" address="3000 block W Carson St" type="OFFENSE" age="" gender="" description="*********************************************** &lt;br/&gt;9123, Miscellaneous Fire Other Investigation to Continue&lt;br/&gt;"/><marker lat="40.45256405025323" lng="-79.928958143126664" zone="Zone 4" incidentdate="2015-04-02" incidenttime="09:04:00" incidentnumber="15056650" address="800 block Maryland Ave" type="OFFENSE" age="" gender="" description="*********************************************** &lt;br/&gt;9488, False  Burglar Alarm&lt;br/&gt;"/><marker lat="40.450901096519573" lng="-79.930622154707279" zone="Zone 5" incidentdate="2015-04-02" incidenttime="13:00:00" incidentnumber="15056886" address="900 block N Negley Ave" type="OFFENSE" age="" gender="" description="*********************************************** &lt;br/&gt;029, Missing Juvenile&lt;br/&gt;"/><marker lat="40.4234140" lng="-79.9855379" zone="Zone 3" incidentdate="2015-04-02" incidenttime="15:30:00" incidentnumber="15056847" address="100 block Monastery Ave" type="OFFENSE" age="" gender="" description="*********************************************** &lt;br/&gt;3745, Accidents Involving Damage to Unattended Veh.or Prop.&lt;br/&gt;"/><marker lat="40.425371808712953" lng="-79.94216631853314" zone="Zone 4" incidentdate="2015-04-02" incidenttime="07:30:00" incidentnumber="15056955" address="500 block Greenfield Ave" type="OFFENSE" age="" gender="" description="*********************************************** &lt;br/&gt;3745, Accidents Involving Damage to Unattended Veh.or Prop.&lt;br/&gt;"/><marker lat="40.466922169053831" lng="-80.01885858168292" zone="Zone 1" incidentdate="2015-04-02" incidenttime="08:30:00" incidentnumber="15056644" address="2500 block N Charles St" type="OFFENSE" age="" gender="" description="*********************************************** &lt;br/&gt;9497, Aided Case&lt;br/&gt;"/><marker lat="40.489613629341036" lng="-80.018113956283486" zone="Zone 1" incidentdate="2015-04-02" incidenttime="21:15:00" incidentnumber="15057051" address="3900 block PERRYSVILLE Ave" type="OFFENSE" age="" gender="" description="*********************************************** &lt;br/&gt;3304, Criminal Mischief.&lt;br/&gt;2707, Propulsion of Missiles&lt;br/&gt;"/><marker lat="40.459431038763775" lng="-79.886892905158163" zone="Zone 5" incidentdate="2015-04-02" incidenttime="01:23:00" incidentnumber="15056526" address="1200 block Nolan Ct" type="OFFENSE" age="" gender="" description="*********************************************** &lt;br/&gt;6106, Firearms not to be Carried without a License.&lt;br/&gt;2701(a)(3), Simple Assault - Attempts by Physical Menace&lt;br/&gt;2706, Terroristic Threats.&lt;br/&gt;"/><marker lat="40.487704115374648" lng="-80.040952703262178" zone="Zone 1" incidentdate="2015-04-02" incidenttime="18:00:00" incidentnumber="15056962" address="4000 block Cambronne St" type="OFFENSE" age="" gender="" description="*********************************************** &lt;br/&gt;3921, Theft by Unlawful Taking or Disposition.&lt;br/&gt;"/><marker lat="40.3870698882073" lng="-79.993231346090113" zone="Zone 3" incidentdate="2015-04-02" incidenttime="17:08:00" incidentnumber="15056896" address="2300 block Walton Ave" type="OFFENSE" age="" gender="" description="*********************************************** &lt;br/&gt;4120, Identity Theft&lt;br/&gt;"/><marker lat="40.466967677021174" lng="-79.991361232264538" zone="Zone 1" incidentdate="2015-04-02" incidenttime="20:56:00" incidentnumber="15057047" address="2100 block Donora St" type="OFFENSE" age="" gender="" description="*********************************************** &lt;br/&gt;2709, Harassment (Non-Specific)&lt;br/&gt;"/><marker lat="40.421745129795497" lng="-79.990481180721886" zone="Zone 3" incidentdate="2015-04-02" incidenttime="07:30:00" incidentnumber="15056629" address="900 block E Warrington Ave" type="OFFENSE" age="" gender="" description="*********************************************** &lt;br/&gt;3502, Burglary.&lt;br/&gt;3921(a), Theft by Unlawful Taking or Disposition - Movable item&lt;br/&gt;"/><marker lat="40.443610698976059" lng="-79.998043561602501" zone="Zone 2" incidentdate="2015-04-02" incidenttime="01:00:00" incidentnumber="15056520" address="900 block Penn Ave" type="OFFENSE" age="" gender="" description="*********************************************** &lt;br/&gt;2701, Simple Assault.&lt;br/&gt;"/><marker lat="40.483353952298792" lng="-80.046812252185561" zone="Zone 1" incidentdate="2015-04-02" incidenttime="17:11:00" incidentnumber="15056897" address="3800 block Wilksboro Ave" type="OFFENSE" age="" gender="" description="*********************************************** &lt;br/&gt;9496, Dead on Arrival (DOA)&lt;br/&gt;"/><marker lat="40.441265804144287" lng="-79.959168852587027" zone="Zone 4" incidentdate="2015-04-02" incidenttime="07:15:00" incidentnumber="15056684" address="5th Ave &amp; Meyran Ave" type="OFFENSE" age="" gender="" description="*********************************************** &lt;br/&gt;3742, Accidents Involving Death or Personal Injury&lt;br/&gt;"/><marker lat="40.434437703476185" lng="-79.916386042416022" zone="Zone 4" incidentdate="2015-04-02" incidenttime="14:00:00" incidentnumber="15056804" address="6500 block Beacon St" type="OFFENSE" age="" gender="" description="*********************************************** &lt;br/&gt;9999, 9999 - (Misc. Incident):&lt;br/&gt;"/><marker lat="40.452842368054668" lng="-79.920673298428596" zone="Zone 4" incidentdate="2015-04-02" incidenttime="17:44:00" incidentnumber="15056929" address="6300 block 5th Ave" type="OFFENSE" age="" gender="" description="*********************************************** &lt;br/&gt;633.08, Dogs at Large Prohibited&lt;br/&gt;"/><marker lat="40.442131579489732" lng="-80.021349551869505" zone="Zone 3" incidentdate="2015-04-02" incidenttime="07:50:00" incidentnumber="15056623" address="1600 block W Carson St" type="OFFENSE" age="" gender="" description="*********************************************** &lt;br/&gt;9999, 9999 - (Misc. Incident):&lt;br/&gt;"/><marker lat="40.461155375538418" lng="-80.000977884332485" zone="Zone 1" incidentdate="2015-04-02" incidenttime="19:30:00" incidentnumber="15056987" address="Compromise St &amp; Sprain St" type="OFFENSE" age="" gender="" description="*********************************************** &lt;br/&gt;13(a)(32), Paraphernalia - Use or Possession&lt;br/&gt;"/><marker lat="40.441374477166953" lng="-80.002034043128006" zone="Zone 2" incidentdate="2015-04-02" incidenttime="13:00:00" incidentnumber="15056848" address="500 block Market St" type="OFFENSE" age="" gender="" description="*********************************************** &lt;br/&gt;3921, Theft by Unlawful Taking or Disposition.&lt;br/&gt;"/><marker lat="40.466438533655484" lng="-79.964520678268954" zone="Zone 2" incidentdate="2015-04-02" incidenttime="01:45:00" incidentnumber="15056530" address="200 block Ater Way" type="OFFENSE" age="" gender="" description="*********************************************** &lt;br/&gt;2702, Aggravated Assault.&lt;br/&gt;5101, Obstructing Admin. of Law&lt;br/&gt;"/><marker lat="40.488511600926138" lng="-80.010246618949779" zone="Zone 1" incidentdate="2015-04-02" incidenttime="00:30:00" incidentnumber="15056499" address="3600 block Baytree St" type="OFFENSE" age="" gender="" description="*********************************************** &lt;br/&gt;2709(a), Harassment.&lt;br/&gt;"/><marker lat="40.416192601732035" lng="-80.025299190128038" zone="Zone 6" incidentdate="2015-04-02" incidenttime="23:20:00" incidentnumber="15057116" address="1300 block Beechview Ave" type="OFFENSE" age="" gender="" description="*********************************************** &lt;br/&gt;13(a)(31), Marijuana: Possession Small Amount&lt;br/&gt;1543, Driving While Operating Privilege is Suspended or Revoked.&lt;br/&gt;3334, Turning Movements and Required Signals.&lt;br/&gt;"/><marker lat="40.469959059252467" lng="-80.029657086822525" zone="Zone 1" incidentdate="2015-04-02" incidenttime="20:50:00" incidentnumber="15057032" address="2800 block Frederick St" type="OFFENSE" age="" gender="" description="*********************************************** &lt;br/&gt;13(a)(32), Paraphernalia - Use or Possession&lt;br/&gt;"/><marker lat="40.461182116300265" lng="-79.894422111190181" zone="Zone 5" incidentdate="2015-04-02" incidenttime="12:00:00" incidentnumber="15056733" address="7200 block Mt Vernon St" type="OFFENSE" age="" gender="" description="*********************************************** &lt;br/&gt;6106, Firearms not to be Carried without a License.&lt;br/&gt;"/><marker lat="40.468580303977795" lng="-80.011778618826" zone="Zone 1" incidentdate="2015-04-02" incidenttime="14:13:00" incidentnumber="15056809" address="100 block W Mc Intyre Ave" type="OFFENSE" age="" gender="" description="*********************************************** &lt;br/&gt;9093, Indirect Criminal Contempt&lt;br/&gt;"/><marker lat="40.44553634641376" lng="-79.986596869009489" zone="Zone 2" incidentdate="2015-04-02" incidenttime="02:30:00" incidentnumber="15056555" address="1700 block Cliff St" type="OFFENSE" age="" gender="" description="*********************************************** &lt;br/&gt;2701, Simple Assault.&lt;br/&gt;"/><marker lat="40.454433060321314" lng="-79.933218009743044" zone="Zone 4" incidentdate="2015-04-02" incidenttime="17:30:00" incidentnumber="15056892" address="Ellsworth Ave &amp; Myrtle Way" type="OFFENSE" age="" gender="" description="*********************************************** &lt;br/&gt;2709(a)(1), Harassment by Physical Contact, or Attempts or Threats&lt;br/&gt;3304(a)(5), CRIMINAL MISCHIEF - Intentionally Damages Real Or Personal Property Of Another&lt;br/&gt;5503(a)(4), DISORDERLY CONDUCT - HAZARDOUS/PHYS. OFF&lt;br/&gt;"/><marker lat="40.454621656087944" lng="-79.911385923902941" zone="Zone 4" incidentdate="2015-04-02" incidenttime="18:40:00" incidentnumber="15056996" address="6700 block Thomas St" type="OFFENSE" age="" gender="" description="*********************************************** &lt;br/&gt;9999, 9999 - (Misc. Incident):&lt;br/&gt;"/><marker lat="40.436628217364635" lng="-79.927290270007219" zone="Zone 4" incidentdate="2015-04-02" incidenttime="16:20:00" incidentnumber="15056953" address="5600 block Darlington Rd" type="OFFENSE" age="" gender="" description="*********************************************** &lt;br/&gt;3745, Accidents Involving Damage to Unattended Veh.or Prop.&lt;br/&gt;"/><marker lat="40.457620313610263" lng="-79.963477589245301" zone="Zone 2" incidentdate="2015-04-02" incidenttime="20:18:00" incidentnumber="15057013" address="3300 block Cargill St" type="OFFENSE" age="" gender="" description="*********************************************** &lt;br/&gt;3745, Accidents Involving Damage to Unattended Veh.or Prop.&lt;br/&gt;"/><marker lat="40.4635268" lng="-79.9694442" zone="Zone 2" incidentdate="2015-04-02" incidenttime="15:00:00" incidentnumber="15056860" address="100 block 34th St" type="OFFENSE" age="" gender="" description="*********************************************** &lt;br/&gt;9999, 9999 - (Misc. Incident):&lt;br/&gt;"/><marker lat="40.393868247768545" lng="-80.005803235629187" zone="Zone 6" incidentdate="2015-04-02" incidenttime="08:30:00" incidentnumber="15056713" address="1500 block Milan Ave" type="OFFENSE" age="" gender="" description="*********************************************** &lt;br/&gt;2701(a)(3), Simple Assault - Attempts by Physical Menace&lt;br/&gt;2701, Simple Assault.&lt;br/&gt;2705, Recklessly Endangering Another Person.&lt;br/&gt;"/><marker lat="40.465362325725394" lng="-79.954708691264614" zone="Zone 5" incidentdate="2015-04-02" incidenttime="09:00:00" incidentnumber="15056808" address="4100 block Main St" type="OFFENSE" age="" gender="" description="*********************************************** &lt;br/&gt;3304, Criminal Mischief.&lt;br/&gt;"/><marker lat="40.468749760081941" lng="-79.927499101456689" zone="Zone 5" incidentdate="2015-04-02" incidenttime="13:20:00" incidentnumber="15056766" address="N Negley Ave &amp; Black St" type="OFFENSE" age="" gender="" description="*********************************************** &lt;br/&gt;13(a)(16), Possession of Controlled Substance&lt;br/&gt;3714, Careless Driving&lt;br/&gt;1543, Driving While Operating Privilege is Suspended or Revoked.&lt;br/&gt;13(a)(30), Possession w/ Intent to Del. Controlled Substance&lt;br/&gt;3743, Accidents Involving Damage to Attended Veh. or Property&lt;br/&gt;13(a)(32), Paraphernalia - Use or Possession&lt;br/&gt;9501, Bench Warrant&lt;br/&gt;3802(a)(1), DUI - General Impairment&lt;br/&gt;"/><marker lat="40.4642764" lng="-79.9802776" zone="Zone 1" incidentdate="2015-04-02" incidenttime="04:15:00" incidentnumber="15056674" address="200 block East Ohio St" type="OFFENSE" age="" gender="" description="*********************************************** &lt;br/&gt;3304, Criminal Mischief.&lt;br/&gt;"/><marker lat="40.45803936285224" lng="-79.904251416277006" zone="Zone 5" incidentdate="2015-04-02" incidenttime="10:50:00" incidentnumber="15056700" address="6900 block Frankstown Ave" type="OFFENSE" age="" gender="" description="*********************************************** &lt;br/&gt;2709(a), Harassment.&lt;br/&gt;"/><marker lat="40.464490361835331" lng="-80.028450594341209" zone="Zone 1" incidentdate="2015-04-02" incidenttime="12:00:00" incidentnumber="15056739" address="2400 block Sorrell St" type="OFFENSE" age="" gender="" description="*********************************************** &lt;br/&gt;3502, Burglary.&lt;br/&gt;"/><marker lat="40.438283155996956" lng="-79.960432406044589" zone="Zone 4" incidentdate="2015-04-02" incidenttime="09:30:00" incidentnumber="15056672" address="200 block Halket Pl" type="OFFENSE" age="" gender="" description="*********************************************** &lt;br/&gt;3745, Accidents Involving Damage to Unattended Veh.or Prop.&lt;br/&gt;"/><marker lat="40.416270061036585" lng="-80.026025801749483" zone="Zone 6" incidentdate="2015-04-02" incidenttime="21:39:00" incidentnumber="15057060" address="1300 block Methyl St" type="OFFENSE" age="" gender="" description="*********************************************** &lt;br/&gt;2701, Simple Assault.&lt;br/&gt;"/><marker lat="40.439534165811146" lng="-79.99836772444668" zone="Zone 2" incidentdate="2015-04-02" incidenttime="13:55:00" incidentnumber="15056792" address="400 block 5th Ave" type="OFFENSE" age="" gender="" description="*********************************************** &lt;br/&gt;9501, Bench Warrant&lt;br/&gt;13(a)(16), Possession of Controlled Substance&lt;br/&gt;3929, Retail Theft.&lt;br/&gt;"/><marker lat="40.445716462337785" lng="-79.991904857952989" zone="Zone 2" incidentdate="2015-04-02" incidenttime="23:45:00" incidentnumber="15057103" address="1200 block Penn Ave" type="OFFENSE" age="" gender="" description="*********************************************** &lt;br/&gt;9489, Found Property&lt;br/&gt;"/><marker lat="40.445099987229362" lng="-79.999050002208406" zone="Zone 2" incidentdate="2015-04-02" incidenttime="20:18:00" incidentnumber="15057048" address="100 block 9th St" type="OFFENSE" age="" gender="" description="*********************************************** &lt;br/&gt;3743, Accidents Involving Damage to Attended Veh. or Property&lt;br/&gt;"/><marker lat="40.450901096519573" lng="-79.930622154707279" zone="Zone 5" incidentdate="2015-04-02" incidenttime="13:00:00" incidentnumber="15056887" address="900 block N Negley Ave" type="OFFENSE" age="" gender="" description="*********************************************** &lt;br/&gt;029, Missing Juvenile&lt;br/&gt;"/><marker lat="40.423307201998043" lng="-79.961250980900815" zone="Zone 3" incidentdate="2015-04-02" incidenttime="08:05:00" incidentnumber="15056634" address="3200 block E Carson St" type="OFFENSE" age="" gender="" description="*********************************************** &lt;br/&gt;3929, Retail Theft.&lt;br/&gt;"/><marker lat="40.3297823" lng="-80.0336670" zone="Zone 1" incidentdate="2015-04-02" incidenttime="15:15:00" incidentnumber="15056832" address="East Ohio St &amp; East St" type="OFFENSE" age="" gender="" description="*********************************************** &lt;br/&gt;3743, Accidents Involving Damage to Attended Veh. or Property&lt;br/&gt;"/><marker lat="40.438599583297822" lng="-79.953331991920535" zone="Zone 4" incidentdate="2015-04-02" incidenttime="17:12:00" incidentnumber="15056900" address="400 block Oakland Ave" type="OFFENSE" age="" gender="" description="*********************************************** &lt;br/&gt;3745, Accidents Involving Damage to Unattended Veh.or Prop.&lt;br/&gt;"/><marker lat="40.388741934386147" lng="-80.009221362059762" zone="Zone 6" incidentdate="2015-04-02" incidenttime="13:11:00" incidentnumber="15056761" address="1600 block Seaton St" type="OFFENSE" age="" gender="" description="*********************************************** &lt;br/&gt;9123, Miscellaneous Fire Other Investigation to Continue&lt;br/&gt;"/><marker lat="40.430719146660898" lng="-80.007572238034967" zone="Zone 3" incidentdate="2015-04-02" incidenttime="13:10:00" incidentnumber="15056857" address="200 block Shiloh St" type="OFFENSE" age="" gender="" description="*********************************************** &lt;br/&gt;3929, Retail Theft.&lt;br/&gt;"/><marker lat="40.441650742650353" lng="-79.999451753561061" zone="Zone 2" incidentdate="2015-04-02" incidenttime="20:00:00" incidentnumber="15056941" address="300 block 6th Ave" type="OFFENSE" age="" gender="" description="*********************************************** &lt;br/&gt;2702, Aggravated Assault.&lt;br/&gt;3503.B1I, DEF. TRESPASS ACTUAL COMMUNICATION&lt;br/&gt;2706, Terroristic Threats.&lt;br/&gt;5104, Resisting Arrest or Other Law Enforcement.&lt;br/&gt;3929, Retail Theft.&lt;br/&gt;"/><marker lat="40.46204345242208" lng="-79.945097247005123" zone="Zone 5" incidentdate="2015-04-02" incidenttime="07:41:00" incidentnumber="15056619" address="4900 block Friendship Ave" type="OFFENSE" age="" gender="" description="*********************************************** &lt;br/&gt;9496, Dead on Arrival (DOA)&lt;br/&gt;"/><marker lat="40.447440632972715" lng="-79.973274836176174" zone="Zone 2" incidentdate="2015-04-02" incidenttime="11:39:00" incidentnumber="15056718" address="600 block Chauncey St" type="OFFENSE" age="" gender="" description="*********************************************** &lt;br/&gt;9090, Recovered Firearm&lt;br/&gt;"/><marker lat="40.488418831575196" lng="-80.04053294354955" zone="Zone 1" incidentdate="2015-04-02" incidenttime="09:00:00" incidentnumber="15056643" address="4000 block Brandon Rd" type="OFFENSE" age="" gender="" description="*********************************************** &lt;br/&gt;9498, 302 (Mental)&lt;br/&gt;"/><marker lat="40.434125456654385" lng="-80.056070382102774" zone="Zone 6" incidentdate="2015-04-02" incidenttime="09:25:00" incidentnumber="15056666" address="1400 block Hyde St" type="OFFENSE" age="" gender="" description="*********************************************** &lt;br/&gt;4912, Impersonating a Public Servant.&lt;br/&gt;"/><marker lat="40.46661657932281" lng="-79.995544826762455" zone="Zone 1" incidentdate="2015-04-02" incidenttime="06:28:00" incidentnumber="15056601" address="1100 block Buente St" type="OFFENSE" age="" gender="" description="*********************************************** &lt;br/&gt;9488, False  Burglar Alarm&lt;br/&gt;"/><marker lat="40.449469284796763" lng="-79.975556473583893" zone="Zone 2" incidentdate="2015-04-02" incidenttime="10:10:00" incidentnumber="15056707" address="2300 block Bedford Ave" type="OFFENSE" age="" gender="" description="*********************************************** &lt;br/&gt;3745, Accidents Involving Damage to Unattended Veh.or Prop.&lt;br/&gt;"/><marker lat="40.439534165811146" lng="-79.99836772444668" zone="Zone 2" incidentdate="2015-04-02" incidenttime="15:15:00" incidentnumber="15056792" address="400 block 5th Ave" type="ARREST" age="52" gender="M" description="*********************************************** &lt;br/&gt;9501, Bench Warrant&lt;br/&gt;13(a)(16), Possession of Controlled Substance&lt;br/&gt;3929, Retail Theft.&lt;br/&gt;"/><marker lat="40.466438533655484" lng="-79.964520678268954" zone="Zone 2" incidentdate="2015-04-02" incidenttime="02:02:00" incidentnumber="15056530" address="200 block Ater Way" type="ARREST" age="18" gender="F" description="*********************************************** &lt;br/&gt;2702, Aggravated Assault.&lt;br/&gt;5101, Obstructing Admin. of Law&lt;br/&gt;"/><marker lat="40.461182116300265" lng="-79.894422111190181" zone="Zone 5" incidentdate="2015-04-02" incidenttime="12:19:00" incidentnumber="15056733" address="7200 block Mt Vernon St" type="ARREST" age="21" gender="M" description="*********************************************** &lt;br/&gt;6106, Firearms not to be Carried without a License.&lt;br/&gt;"/><marker lat="40.434696587775576" lng="-79.996300985228572" zone="Zone 2" incidentdate="2015-04-02" incidenttime="17:40:00" incidentnumber="15048356" address="600 block 1st Ave" type="ARREST" age="27" gender="F" description="*********************************************** &lt;br/&gt;2701(b)(2), Simple Assault -  Child Under 12 / Adult 21 Or Older&lt;br/&gt;4304(a)(1), Endangering Welfare of Children - Course of Conduct Enhanced&lt;br/&gt;"/><marker lat="40.393868247768545" lng="-80.005803235629187" zone="Zone 6" incidentdate="2015-04-02" incidenttime="13:06:00" incidentnumber="15056713" address="1500 block Milan Ave" type="ARREST" age="31" gender="M" description="*********************************************** &lt;br/&gt;2701(a)(3), Simple Assault - Attempts by Physical Menace&lt;br/&gt;2701, Simple Assault.&lt;br/&gt;2705, Recklessly Endangering Another Person.&lt;br/&gt;"/><marker lat="40.441650742650353" lng="-79.999451753561061" zone="Zone 2" incidentdate="2015-04-02" incidenttime="18:30:00" incidentnumber="15056941" address="300 block 6th Ave" type="ARREST" age="35" gender="F" description="*********************************************** &lt;br/&gt;2702, Aggravated Assault.&lt;br/&gt;3503.B1I, DEF. TRESPASS ACTUAL COMMUNICATION&lt;br/&gt;2706, Terroristic Threats.&lt;br/&gt;5104, Resisting Arrest or Other Law Enforcement.&lt;br/&gt;3929, Retail Theft.&lt;br/&gt;"/><marker lat="40.416270061036585" lng="-80.026025801749483" zone="Zone 6" incidentdate="2015-04-02" incidenttime="22:00:00" incidentnumber="15057060" address="1300 block Methyl St" type="ARREST" age="" gender="M" description="*********************************************** &lt;br/&gt;2701, Simple Assault.&lt;br/&gt;"/><marker lat="40.435095503606554" lng="-79.993077686753679" zone="Zone 2" incidentdate="2015-04-02" incidenttime="12:40:00" incidentnumber="15039040" address="900 block 2nd Ave" type="ARREST" age="61" gender="M" description="*********************************************** &lt;br/&gt;4915, Failure to Comply with Megans Law&lt;br/&gt;"/><marker lat="40.443610698976059" lng="-79.998043561602501" zone="Zone 2" incidentdate="2015-04-02" incidenttime="01:30:00" incidentnumber="15056520" address="900 block Penn Ave" type="ARREST" age="40" gender="F" description="*********************************************** &lt;br/&gt;2701, Simple Assault.&lt;br/&gt;"/><marker lat="40.446867779409757" lng="-80.020757813868244" zone="Zone 1" incidentdate="2015-04-02" incidenttime="02:00:00" incidentnumber="15053361" address="700 block Casino Dr" type="ARREST" age="26" gender="M" description="*********************************************** &lt;br/&gt;3304, Criminal Mischief.&lt;br/&gt;5503, Disorderly Conduct.&lt;br/&gt;5505, Public Drunkenness&lt;br/&gt;"/><marker lat="40.459227130464114" lng="-80.005623690982688" zone="Zone 1" incidentdate="2015-04-02" incidenttime="20:24:00" incidentnumber="15057015" address="Henderson St &amp; Sandusky Ct" type="ARREST" age="28" gender="F" description="*********************************************** &lt;br/&gt;13(a)(32), Paraphernalia - Use or Possession&lt;br/&gt;"/><marker lat="40.416192601732035" lng="-80.025299190128038" zone="Zone 6" incidentdate="2015-04-02" incidenttime="23:20:00" incidentnumber="15057116" address="1300 block Beechview Ave" type="ARREST" age="26" gender="M" description="*********************************************** &lt;br/&gt;13(a)(31), Marijuana: Possession Small Amount&lt;br/&gt;1543, Driving While Operating Privilege is Suspended or Revoked.&lt;br/&gt;3334, Turning Movements and Required Signals.&lt;br/&gt;"/><marker lat="40.468749760081941" lng="-79.927499101456689" zone="Zone 5" incidentdate="2015-04-02" incidenttime="15:00:00" incidentnumber="15056766" address="N Negley Ave &amp; Black St" type="ARREST" age="25" gender="M" description="*********************************************** &lt;br/&gt;13(a)(16), Possession of Controlled Substance&lt;br/&gt;3714, Careless Driving&lt;br/&gt;1543, Driving While Operating Privilege is Suspended or Revoked.&lt;br/&gt;13(a)(30), Possession w/ Intent to Del. Controlled Substance&lt;br/&gt;3743, Accidents Involving Damage to Attended Veh. or Property&lt;br/&gt;13(a)(32), Paraphernalia - Use or Possession&lt;br/&gt;9501, Bench Warrant&lt;br/&gt;3802(a)(1), DUI - General Impairment&lt;br/&gt;"/><marker lat="40.459811206906437" lng="-79.886886299411756" zone="Zone 5" incidentdate="2015-04-02" incidenttime="15:00:00" incidentnumber="14253689" address="1200 block Mohler St" type="ARREST" age="18" gender="M" description="*********************************************** &lt;br/&gt;2702, Aggravated Assault.&lt;br/&gt;607.03, Discharging Firearm or Airgun&lt;br/&gt;2705, Recklessly Endangering Another Person.&lt;br/&gt;"/><marker lat="40.485778512937927" lng="-79.923039523172207" zone="Zone 5" incidentdate="2015-04-02" incidenttime="20:29:00" incidentnumber="15053410" address="1900 block Antietam St" type="ARREST" age="19" gender="M" description="*********************************************** &lt;br/&gt;3304, Criminal Mischief.&lt;br/&gt;3921, Theft by Unlawful Taking or Disposition.&lt;br/&gt;3925, Receiving Stolen Property.&lt;br/&gt;"/><marker lat="40.466438533655484" lng="-79.964520678268954" zone="Zone 2" incidentdate="2015-04-02" incidenttime="02:02:00" incidentnumber="15056530" address="200 block Ater Way" type="ARREST" age="21" gender="M" description="*********************************************** &lt;br/&gt;2702, Aggravated Assault.&lt;br/&gt;5101, Obstructing Admin. of Law&lt;br/&gt;"/><marker lat="40.457089015587194" lng="-79.997256310787947" zone="Zone 1" incidentdate="2015-04-02" incidenttime="02:20:00" incidentnumber="15048098" address="800 block Blossom Way" type="ARREST" age="34" gender="M" description="*********************************************** &lt;br/&gt;2702, Aggravated Assault.&lt;br/&gt;2701(a)(2), Simple Asslt - Neg. Cause Bod. Harm Deadly Weap.&lt;br/&gt;3921, Theft by Unlawful Taking or Disposition.&lt;br/&gt;3304, Criminal Mischief.&lt;br/&gt;2701(a)(3), Simple Assault - Attempts by Physical Menace&lt;br/&gt;2706, Terroristic Threats.&lt;br/&gt;2701(a)(1), Simple Assault - Intent., Know., Reckless.Cause Bod. Injury&lt;br/&gt;"/><marker lat="40.419619018630861" lng="-80.005890606372347" zone="Zone 3" incidentdate="2015-04-02" incidenttime="22:15:00" incidentnumber="15057081" address="100 block Industry St" type="ARREST" age="48" gender="M" description="*********************************************** &lt;br/&gt;4303, General Lighting Requirements.&lt;br/&gt;13(a)(31), Marijuana: Possession Small Amount&lt;br/&gt;"/><marker lat="40.4399938" lng="-80.0474175" zone="Zone 6" incidentdate="2015-04-02" incidenttime="16:50:00" incidentnumber="15056862" address="Arnold St &amp; Hassler St" type="ARREST" age="29" gender="M" description="*********************************************** &lt;br/&gt;13(a)(32), Paraphernalia - Use or Possession&lt;br/&gt;"/><marker lat="40.469959059252467" lng="-80.029657086822525" zone="Zone 1" incidentdate="2015-04-02" incidenttime="21:40:00" incidentnumber="15057032" address="2800 block Frederick St" type="ARREST" age="46" gender="M" description="*********************************************** &lt;br/&gt;13(a)(32), Paraphernalia - Use or Possession&lt;br/&gt;"/><marker lat="40.434696587775576" lng="-79.996300985228572" zone="Zone 2" incidentdate="2015-04-02" incidenttime="13:48:00" incidentnumber="15045834" address="600 block 1st Ave" type="ARREST" age="16" gender="M" description="*********************************************** &lt;br/&gt;3921, Theft by Unlawful Taking or Disposition.&lt;br/&gt;"/><marker lat="40.459431038763775" lng="-79.886892905158163" zone="Zone 5" incidentdate="2015-04-02" incidenttime="02:02:00" incidentnumber="15056526" address="1200 block Nolan Ct" type="ARREST" age="18" gender="M" description="*********************************************** &lt;br/&gt;6106, Firearms not to be Carried without a License.&lt;br/&gt;2701(a)(3), Simple Assault - Attempts by Physical Menace&lt;br/&gt;2706, Terroristic Threats.&lt;br/&gt;"/><marker lat="40.461155375538418" lng="-80.000977884332485" zone="Zone 1" incidentdate="2015-04-02" incidenttime="19:45:00" incidentnumber="15056987" address="Compromise St &amp; Sprain St" type="ARREST" age="34" gender="M" description="*********************************************** &lt;br/&gt;13(a)(32), Paraphernalia - Use or Possession&lt;br/&gt;"/></markers>
