<?xml version="1.0"?>
<markers><marker lat="40.417627041456356" lng="-80.009889438915522" zone="Zone 3" incidentdate="2015-05-21" incidenttime="06:30:00" incidentnumber="15090195" address="Climax St" type="OFFENSE" age="" gender="" description="*********************************************** &lt;br/&gt;13(a)(16), Possession of Controlled Substance&lt;br/&gt;13(a)(30), Possession w/ Intent to Del. Controlled Substance&lt;br/&gt;"/><marker lat="40.442418612062234" lng="-80.041665252648485" zone="Zone 6" incidentdate="2015-05-21" incidenttime="11:55:00" incidentnumber="15090299" address="900 block Steuben St" type="OFFENSE" age="" gender="" description="*********************************************** &lt;br/&gt;3921(a), Theft by Unlawful Taking or Disposition - Movable item&lt;br/&gt;"/><marker lat="40.452042212663898" lng="-80.008738896002342" zone="Zone 1" incidentdate="2015-05-21" incidenttime="22:00:00" incidentnumber="15090629" address="200 block Ridge Ave" type="OFFENSE" age="" gender="" description="*********************************************** &lt;br/&gt;029, Missing Juvenile&lt;br/&gt;"/><marker lat="40.4294751" lng="-79.9508102" zone="Zone 4" incidentdate="2015-05-21" incidenttime="17:40:00" incidentnumber="15090473" address="2nd Ave &amp; Swinburne St" type="OFFENSE" age="" gender="" description="*********************************************** &lt;br/&gt;3743, Accidents Involving Damage to Attended Veh. or Property&lt;br/&gt;"/><marker lat="40.433407688215397" lng="-80.009896325968413" zone="Zone 3" incidentdate="2015-05-21" incidenttime="18:30:00" incidentnumber="15090508" address="300 block Grandview Ave" type="OFFENSE" age="" gender="" description="*********************************************** &lt;br/&gt;2706, Terroristic Threats.&lt;br/&gt;"/><marker lat="40.393515742313681" lng="-80.020021227154487" zone="Zone 6" incidentdate="2015-05-21" incidenttime="07:30:00" incidentnumber="15090192" address="800 block Brookline Blvd" type="OFFENSE" age="" gender="" description="*********************************************** &lt;br/&gt;3934, Theft from Vehicle&lt;br/&gt;"/><marker lat="40.456026397140533" lng="-80.006488644201866" zone="Zone 1" incidentdate="2015-05-21" incidenttime="19:51:00" incidentnumber="15090545" address="1200 block Federal St" type="OFFENSE" age="" gender="" description="*********************************************** &lt;br/&gt;9488, False  Burglar Alarm&lt;br/&gt;"/><marker lat="40.424206948264811" lng="-80.024861250847621" zone="Zone 6" incidentdate="2015-05-21" incidenttime="00:31:00" incidentnumber="15090065" address="800 block Tropical Ave" type="OFFENSE" age="" gender="" description="*********************************************** &lt;br/&gt;029, Missing Juvenile&lt;br/&gt;"/><marker lat="40.410949712877226" lng="-80.013988112262453" zone="Zone 6" incidentdate="2015-05-21" incidenttime="09:00:00" incidentnumber="15090212" address="1400 block West Liberty Ave" type="OFFENSE" age="" gender="" description="*********************************************** &lt;br/&gt;3714, Careless Driving&lt;br/&gt;3802(d)(2), DUI - Drug - Impaired Ability&lt;br/&gt;1786, Required Financial Responsibility.&lt;br/&gt;1501(A), Valid Drivers License Required&lt;br/&gt;"/><marker lat="40.427437109046565" lng="-79.986500313235538" zone="Zone 3" incidentdate="2015-05-21" incidenttime="06:00:00" incidentnumber="15090485" address="100 block S 12th St" type="OFFENSE" age="" gender="" description="*********************************************** &lt;br/&gt;3745, Accidents Involving Damage to Unattended Veh.or Prop.&lt;br/&gt;"/><marker lat="40.415673444263682" lng="-79.968816666496636" zone="Zone 3" incidentdate="2015-05-21" incidenttime="22:55:00" incidentnumber="15090643" address="Spring St &amp; Rinne St" type="OFFENSE" age="" gender="" description="*********************************************** &lt;br/&gt;13(a)(16), Possession of Controlled Substance&lt;br/&gt;3334, Turning Movements and Required Signals.&lt;br/&gt;1501, Drivers Required to be Licensed.&lt;br/&gt;"/><marker lat="40.456515048695316" lng="-80.016515559088219" zone="Zone 1" incidentdate="2015-05-21" incidenttime="03:00:00" incidentnumber="15090136" address="1500 block Brighton Rd" type="OFFENSE" age="" gender="" description="*********************************************** &lt;br/&gt;9999, 9999 - (Misc. Incident):&lt;br/&gt;"/><marker lat="40.446263051038443" lng="-80.012336576772157" zone="Zone 1" incidentdate="2015-05-21" incidenttime="06:40:00" incidentnumber="15090164" address="400 block North Shore Dr" type="OFFENSE" age="" gender="" description="*********************************************** &lt;br/&gt;9488, False  Burglar Alarm&lt;br/&gt;"/><marker lat="40.4406248" lng="-79.9958864" zone="Zone 4" incidentdate="2015-05-21" incidenttime="23:00:00" incidentnumber="15090654" address="3760 EB Under Greenfield Bridge Hwy" type="OFFENSE" age="" gender="" description="*********************************************** &lt;br/&gt;1785, Proof of Financial Responsibility Following Accident.&lt;br/&gt;"/><marker lat="40.468384979096037" lng="-79.945448350810281" zone="Zone 5" incidentdate="2015-05-21" incidenttime="07:30:00" incidentnumber="15090188" address="4800 block Rosetta St" type="OFFENSE" age="" gender="" description="*********************************************** &lt;br/&gt;3304(a)(5), CRIMINAL MISCHIEF - Intentionally Damages Real Or Personal Property Of Another&lt;br/&gt;"/><marker lat="40.437013241026392" lng="-79.998416183772434" zone="Zone 2" incidentdate="2015-05-21" incidenttime="07:00:00" incidentnumber="15090187" address="500 block 2nd Ave" type="OFFENSE" age="" gender="" description="*********************************************** &lt;br/&gt;3304, Criminal Mischief.&lt;br/&gt;"/><marker lat="40.395220820695485" lng="-80.022485571709225" zone="Zone 6" incidentdate="2015-05-21" incidenttime="16:30:00" incidentnumber="15090450" address="600 block Brookline Blvd" type="OFFENSE" age="" gender="" description="*********************************************** &lt;br/&gt;9999, 9999 - (Misc. Incident):&lt;br/&gt;"/><marker lat="40.441988005423603" lng="-80.042103644258248" zone="Zone 6" incidentdate="2015-05-21" incidenttime="20:45:00" incidentnumber="15090576" address="Neidel St &amp; Hassler St" type="OFFENSE" age="" gender="" description="*********************************************** &lt;br/&gt;13(a)(32), Paraphernalia - Use or Possession&lt;br/&gt;13(a)(16), Possession of Controlled Substance&lt;br/&gt;"/><marker lat="40.456026397140533" lng="-80.006488644201866" zone="Zone 1" incidentdate="2015-05-21" incidenttime="14:00:00" incidentnumber="15090582" address="1200 block Federal St" type="OFFENSE" age="" gender="" description="*********************************************** &lt;br/&gt;3924, Theft of Property Lost, Mislaid or Delivered by Mistake.&lt;br/&gt;"/><marker lat="40.3835986" lng="-79.9957921" zone="Zone 3" incidentdate="2015-05-21" incidenttime="08:30:00" incidentnumber="15090252" address="Saw Mill Run Blvd &amp; Underwood St" type="OFFENSE" age="" gender="" description="*********************************************** &lt;br/&gt;3743, Accidents Involving Damage to Attended Veh. or Property&lt;br/&gt;"/><marker lat="40.464946051166713" lng="-79.944867088787618" zone="Zone 5" incidentdate="2015-05-21" incidenttime="17:54:00" incidentnumber="15090470" address="4900 block Penn Ave" type="OFFENSE" age="" gender="" description="*********************************************** &lt;br/&gt;3502, Burglary.&lt;br/&gt;"/><marker lat="40.441772984812665" lng="-80.001620450643472" zone="Zone 2" incidentdate="2015-05-21" incidenttime="19:30:00" incidentnumber="15090530" address="600 block Liberty Ave" type="OFFENSE" age="" gender="" description="*********************************************** &lt;br/&gt;601.11(a), Littering and Dumping; Any waste, dangerous or detrimental substance upon public property&lt;br/&gt;"/><marker lat="40.461263755824248" lng="-79.946362797859464" zone="Zone 5" incidentdate="2015-05-21" incidenttime="07:45:00" incidentnumber="15090225" address="4800 block Friendship Ave" type="OFFENSE" age="" gender="" description="*********************************************** &lt;br/&gt;3921, Theft by Unlawful Taking or Disposition.&lt;br/&gt;"/><marker lat="40.402445430402565" lng="-80.01596895279458" zone="Zone 6" incidentdate="2015-05-21" incidenttime="22:15:00" incidentnumber="15090633" address="Dunster St &amp; Pioneer Ave" type="OFFENSE" age="" gender="" description="*********************************************** &lt;br/&gt;7613(a), Computer Theft&lt;br/&gt;3334, Turning Movements and Required Signals.&lt;br/&gt;13(a)(32), Paraphernalia - Use or Possession&lt;br/&gt;"/><marker lat="40.456633448414188" lng="-79.936435139782176" zone="Zone 4" incidentdate="2015-05-21" incidenttime="20:50:00" incidentnumber="15090596" address="5500 block Centre Ave" type="OFFENSE" age="" gender="" description="*********************************************** &lt;br/&gt;4914, False Identification to Law Enforcement Authorities&lt;br/&gt;3503, Criminal Trespass&lt;br/&gt;3929, Retail Theft.&lt;br/&gt;"/><marker lat="40.459797883860972" lng="-79.940683765233075" zone="Zone 5" incidentdate="2015-05-21" incidenttime="08:00:00" incidentnumber="15090468" address="Harriet St &amp; S Pacific Ave" type="OFFENSE" age="" gender="" description="*********************************************** &lt;br/&gt;3304, Criminal Mischief.&lt;br/&gt;"/><marker lat="40.396586164180739" lng="-80.01956384486806" zone="Zone 6" incidentdate="2015-05-21" incidenttime="15:30:00" incidentnumber="15090442" address="700 block Gallion Ave" type="OFFENSE" age="" gender="" description="*********************************************** &lt;br/&gt;3502, Burglary.&lt;br/&gt;"/><marker lat="40.460675033924637" lng="-80.052000006296609" zone="Zone 6" incidentdate="2015-05-21" incidenttime="08:00:00" incidentnumber="15090193" address="300 block Stadium St" type="OFFENSE" age="" gender="" description="*********************************************** &lt;br/&gt;3502, Burglary.&lt;br/&gt;"/><marker lat="40.479440327926326" lng="-80.031798895058756" zone="Zone 1" incidentdate="2015-05-21" incidenttime="12:44:00" incidentnumber="15090321" address="3500 block Corona St" type="OFFENSE" age="" gender="" description="*********************************************** &lt;br/&gt;9488, False  Burglar Alarm&lt;br/&gt;"/><marker lat="40.47754547838678" lng="-80.036482582341762" zone="Zone 1" incidentdate="2015-05-21" incidenttime="10:44:00" incidentnumber="15090255" address="3400 block Mc Clure Ave" type="OFFENSE" age="" gender="" description="*********************************************** &lt;br/&gt;9488, False  Burglar Alarm&lt;br/&gt;"/><marker lat="40.442092052039932" lng="-79.999423512399062" zone="Zone 2" incidentdate="2015-05-21" incidenttime="11:30:00" incidentnumber="15090524" address="600 block Wood St" type="OFFENSE" age="" gender="" description="*********************************************** &lt;br/&gt;3921, Theft by Unlawful Taking or Disposition.&lt;br/&gt;"/><marker lat="40.419202190025132" lng="-79.976963610870172" zone="Zone 3" incidentdate="2015-05-21" incidenttime="15:00:00" incidentnumber="15090452" address="2100 block Salisbury St" type="OFFENSE" age="" gender="" description="*********************************************** &lt;br/&gt;3934, Theft from Vehicle&lt;br/&gt;"/><marker lat="40.428670110505003" lng="-79.979135233578759" zone="Zone 3" incidentdate="2015-05-21" incidenttime="00:15:00" incidentnumber="15090048" address="S 19th St &amp; E Carson St" type="OFFENSE" age="" gender="" description="*********************************************** &lt;br/&gt;3925, Receiving Stolen Property.&lt;br/&gt;"/><marker lat="40.472607820161087" lng="-79.935817480313915" zone="Zone 5" incidentdate="2015-05-21" incidenttime="00:18:00" incidentnumber="15090059" address="5300 block Mossfield St" type="OFFENSE" age="" gender="" description="*********************************************** &lt;br/&gt;2705, Recklessly Endangering Another Person.&lt;br/&gt;3701, Robbery.&lt;br/&gt;"/><marker lat="40.429530203881427" lng="-80.007331466693074" zone="Zone 3" incidentdate="2015-05-21" incidenttime="02:00:00" incidentnumber="15090081" address="100 block Virginia Ave" type="OFFENSE" age="" gender="" description="*********************************************** &lt;br/&gt;5503(a)(4), DISORDERLY CONDUCT - HAZARDOUS/PHYS. OFF&lt;br/&gt;5507(a), Obstructing highway, railroad or public passage&lt;br/&gt;5505, Public Drunkenness&lt;br/&gt;"/><marker lat="40.449920330979076" lng="-79.974597253786143" zone="Zone 2" incidentdate="2015-05-21" incidenttime="20:51:00" incidentnumber="15090578" address="2400 block Chauncey Dr" type="OFFENSE" age="" gender="" description="*********************************************** &lt;br/&gt;4101, Forgery.&lt;br/&gt;"/><marker lat="40.448699979367696" lng="-79.989356149169026" zone="Zone 2" incidentdate="2015-05-21" incidenttime="10:00:00" incidentnumber="15090337" address="15th St &amp; Smallman St" type="OFFENSE" age="" gender="" description="*********************************************** &lt;br/&gt;9999, 9999 - (Misc. Incident):&lt;br/&gt;"/><marker lat="40.441024249715781" lng="-79.95736833680553" zone="Zone 4" incidentdate="2015-05-21" incidenttime="15:55:00" incidentnumber="15090401" address="3700 block Forbes Ave" type="OFFENSE" age="" gender="" description="*********************************************** &lt;br/&gt;3929, Retail Theft.&lt;br/&gt;"/><marker lat="40.484315812013776" lng="-79.947461917888361" zone="Zone 2" incidentdate="2015-05-21" incidenttime="16:36:00" incidentnumber="15090427" address="5600 block Donson Way" type="OFFENSE" age="" gender="" description="*********************************************** &lt;br/&gt;3304, Criminal Mischief.&lt;br/&gt;3503, Criminal Trespass&lt;br/&gt;"/><marker lat="40.419607469652064" lng="-79.927151382845352" zone="Zone 4" incidentdate="2015-05-21" incidenttime="16:26:00" incidentnumber="15090399" address="Beechwood Blvd &amp; Hazelwood Ave" type="OFFENSE" age="" gender="" description="*********************************************** &lt;br/&gt;9501, Bench Warrant&lt;br/&gt;"/><marker lat="40.428726365881886" lng="-79.987518246307118" zone="Zone 3" incidentdate="2015-05-21" incidenttime="22:15:00" incidentnumber="15090625" address="E Carson St &amp; S 11th St" type="OFFENSE" age="" gender="" description="*********************************************** &lt;br/&gt;13(a)(31), Marijuana: Possession Small Amount&lt;br/&gt;1301, Registration and Certificate of Title Required.&lt;br/&gt;13(a)(32), Paraphernalia - Use or Possession&lt;br/&gt;"/><marker lat="40.456127163177364" lng="-80.015108866216636" zone="Zone 1" incidentdate="2015-05-21" incidenttime="07:26:00" incidentnumber="15090178" address="1300 block Brighton Rd" type="OFFENSE" age="" gender="" description="*********************************************** &lt;br/&gt;9488, False  Burglar Alarm&lt;br/&gt;"/><marker lat="40.449606365527259" lng="-79.974270684591801" zone="Zone 2" incidentdate="2015-05-21" incidenttime="15:29:00" incidentnumber="15090447" address="2400 block Bedford Ave" type="OFFENSE" age="" gender="" description="*********************************************** &lt;br/&gt;2709(a)(5), Harassment Communicates Repeatedly in Anonymous Manner&lt;br/&gt;"/><marker lat="40.488081814906529" lng="-79.894317224387123" zone="Zone 5" incidentdate="2015-05-21" incidenttime="19:00:00" incidentnumber="15090523" address="900 block Freeport Rd" type="OFFENSE" age="" gender="" description="*********************************************** &lt;br/&gt;3745, Accidents Involving Damage to Unattended Veh.or Prop.&lt;br/&gt;"/><marker lat="40.421531877189601" lng="-79.993577564166102" zone="Zone 3" incidentdate="2015-05-21" incidenttime="18:50:00" incidentnumber="15090510" address="800 block E Warrington Ave" type="OFFENSE" age="" gender="" description="*********************************************** &lt;br/&gt;9999, 9999 - (Misc. Incident):&lt;br/&gt;"/><marker lat="40.455698212121163" lng="-80.008810965955405" zone="Zone 1" incidentdate="2015-05-21" incidenttime="01:00:00" incidentnumber="15090072" address="Arch St &amp; Eloise St" type="OFFENSE" age="" gender="" description="*********************************************** &lt;br/&gt;1543, Driving While Operating Privilege is Suspended or Revoked.&lt;br/&gt;13(a)(16), Possession of Controlled Substance&lt;br/&gt;13(a)(30), Possession w/ Intent to Del. Controlled Substance&lt;br/&gt;7512, Criminal Use of Communication&lt;br/&gt;1501, Drivers Required to be Licensed.&lt;br/&gt;13(a)(30)*, Delivery of Controlled Substance&lt;br/&gt;5506, Loitering and Prowling at Night&lt;br/&gt;13(a)(31), Marijuana: Possession Small Amount&lt;br/&gt;"/><marker lat="40.384269284473667" lng="-79.99129690112143" zone="Zone 3" incidentdate="2015-05-21" incidenttime="16:44:00" incidentnumber="15090421" address="700 block Maytide St" type="OFFENSE" age="" gender="" description="*********************************************** &lt;br/&gt;3802(a)(1), DUI - General Impairment&lt;br/&gt;4304(a)(1) Enhanced, Welfare of Children - Course of Conduct&lt;br/&gt;"/><marker lat="40.46135235006998" lng="-80.015186810367837" zone="Zone 1" incidentdate="2015-05-21" incidenttime="11:14:00" incidentnumber="15090279" address="500 block Geranium St" type="OFFENSE" age="" gender="" description="*********************************************** &lt;br/&gt;3304, Criminal Mischief.&lt;br/&gt;"/><marker lat="40.436929435103927" lng="-79.954991220056257" zone="Zone 4" incidentdate="2015-05-21" incidenttime="15:30:00" incidentnumber="15067579" address="400 block Semple St" type="OFFENSE" age="" gender="" description="*********************************************** &lt;br/&gt;3502, Burglary.&lt;br/&gt;"/><marker lat="40.415552944398641" lng="-79.990644943443641" zone="Zone 3" incidentdate="2015-05-21" incidenttime="10:15:00" incidentnumber="15090306" address="100 block Knox Ave" type="OFFENSE" age="" gender="" description="*********************************************** &lt;br/&gt;4106, Access Device Fraud&lt;br/&gt;"/><marker lat="40.459418534097999" lng="-79.883186004261944" zone="Zone 5" incidentdate="2015-05-21" incidenttime="15:00:00" incidentnumber="15090376" address="1100 block Blackadore St" type="OFFENSE" age="" gender="" description="*********************************************** &lt;br/&gt;2709, Harassment (Non-Specific)&lt;br/&gt;"/><marker lat="40.442273086548795" lng="-80.00411265495255" zone="Zone 2" incidentdate="2015-05-21" incidenttime="23:30:00" incidentnumber="15090626" address="500 block Penn Ave" type="OFFENSE" age="" gender="" description="*********************************************** &lt;br/&gt;2709.2, Stalking Conduct or Repeatedly Communicates&lt;br/&gt;2706, Terroristic Threats.&lt;br/&gt;"/><marker lat="40.454074811291946" lng="-80.021051277011892" zone="Zone 1" incidentdate="2015-05-21" incidenttime="03:00:00" incidentnumber="15090122" address="1000 block Sheffield St" type="OFFENSE" age="" gender="" description="*********************************************** &lt;br/&gt;3502, Burglary.&lt;br/&gt;"/><marker lat="40.430020824945359" lng="-79.976813326700821" zone="Zone 3" incidentdate="2015-05-21" incidenttime="20:05:00" incidentnumber="15090544" address="2000 block Wharton St" type="OFFENSE" age="" gender="" description="*********************************************** &lt;br/&gt;3503.B1I, DEF. TRESPASS ACTUAL COMMUNICATION&lt;br/&gt;3929, Retail Theft.&lt;br/&gt;13(a)(32), Paraphernalia - Use or Possession&lt;br/&gt;"/><marker lat="40.451993427634157" lng="-79.914985879770683" zone="Zone 4" incidentdate="2015-05-21" incidenttime="11:45:00" incidentnumber="15090292" address="6700 block Reynolds St" type="OFFENSE" age="" gender="" description="*********************************************** &lt;br/&gt;3701, Robbery.&lt;br/&gt;"/><marker lat="40.454805394016809" lng="-79.89936146663365" zone="Zone 5" incidentdate="2015-05-21" incidenttime="16:46:00" incidentnumber="15090435" address="7100 block Hamilton Ave" type="OFFENSE" age="" gender="" description="*********************************************** &lt;br/&gt;2709(a)(1), Harassment by Physical Contact, or Attempts or Threats&lt;br/&gt;"/><marker lat="40.444713091612456" lng="-79.915303237189718" zone="Zone 4" incidentdate="2015-05-21" incidenttime="20:40:00" incidentnumber="15090549" address="6600 block Kinsman Rd" type="OFFENSE" age="" gender="" description="*********************************************** &lt;br/&gt;2709, Harassment (Non-Specific)&lt;br/&gt;"/><marker lat="40.389049309059942" lng="-79.985519858598082" zone="Zone 3" incidentdate="2015-05-21" incidenttime="08:15:00" incidentnumber="15090206" address="2300 block Brownsville Rd" type="OFFENSE" age="" gender="" description="*********************************************** &lt;br/&gt;1786, Required Financial Responsibility.&lt;br/&gt;"/><marker lat="40.452049197733132" lng="-79.879056303447655" zone="Zone 5" incidentdate="2015-05-21" incidenttime="00:12:00" incidentnumber="15090075" address="600 block Seagirt St" type="OFFENSE" age="" gender="" description="*********************************************** &lt;br/&gt;2902, Unlawful Restraint.&lt;br/&gt;"/><marker lat="40.434696587775576" lng="-79.996300985228572" zone="Zone 2" incidentdate="2015-05-21" incidenttime="20:51:00" incidentnumber="15090580" address="600 block 1st Ave" type="OFFENSE" age="" gender="" description="*********************************************** &lt;br/&gt;9489, Found Property&lt;br/&gt;"/><marker lat="40.384269284473667" lng="-79.99129690112143" zone="Zone 3" incidentdate="2015-05-21" incidenttime="07:07:00" incidentnumber="15090170" address="700 block Maytide St" type="OFFENSE" age="" gender="" description="*********************************************** &lt;br/&gt;2709(a), Harassment.&lt;br/&gt;"/><marker lat="40.453539170738004" lng="-80.000575279128412" zone="Zone 1" incidentdate="2015-05-21" incidenttime="12:08:00" incidentnumber="15090300" address="500 block East Ohio St" type="OFFENSE" age="" gender="" description="*********************************************** &lt;br/&gt;3304, Criminal Mischief.&lt;br/&gt;"/><marker lat="40.417033670470893" lng="-79.995310183576279" zone="Zone 3" incidentdate="2015-05-21" incidenttime="10:00:00" incidentnumber="15090259" address="400 block Jucunda St" type="OFFENSE" age="" gender="" description="*********************************************** &lt;br/&gt;3921, Theft by Unlawful Taking or Disposition.&lt;br/&gt;"/><marker lat="40.488887256606667" lng="-79.924901618513928" zone="Zone 5" incidentdate="2015-05-21" incidenttime="21:16:00" incidentnumber="15090597" address="6900 block Butler St" type="OFFENSE" age="" gender="" description="*********************************************** &lt;br/&gt;3745, Accidents Involving Damage to Unattended Veh.or Prop.&lt;br/&gt;3802(a)(1), DUI - General Impairment&lt;br/&gt;3802(c), DUI - Highest Rate of Alcohol - BAC &gt;= .16%&lt;br/&gt;"/><marker lat="40.438369941847732" lng="-79.986310041229473" zone="Zone 2" incidentdate="2015-05-21" incidenttime="10:00:00" incidentnumber="15090430" address="1400 block 5th Ave" type="OFFENSE" age="" gender="" description="*********************************************** &lt;br/&gt;3921, Theft by Unlawful Taking or Disposition.&lt;br/&gt;"/><marker lat="40.484550069346753" lng="-80.035692783449747" zone="Zone 1" incidentdate="2015-05-21" incidenttime="14:15:00" incidentnumber="15090512" address="3800 block Brighton Rd" type="OFFENSE" age="" gender="" description="*********************************************** &lt;br/&gt;029, Missing Juvenile&lt;br/&gt;"/><marker lat="40.463864436778074" lng="-79.957555065168606" zone="Zone 5" incidentdate="2015-05-21" incidenttime="15:45:00" incidentnumber="15090397" address="4000 block Cabinet St" type="OFFENSE" age="" gender="" description="*********************************************** &lt;br/&gt;3745, Accidents Involving Damage to Unattended Veh.or Prop.&lt;br/&gt;"/><marker lat="40.440273809757635" lng="-79.96551756354684" zone="Zone 4" incidentdate="2015-05-21" incidenttime="12:00:00" incidentnumber="15090381" address="3200 block Terrace St" type="OFFENSE" age="" gender="" description="*********************************************** &lt;br/&gt;3745, Accidents Involving Damage to Unattended Veh.or Prop.&lt;br/&gt;"/><marker lat="40.394957985423687" lng="-79.986864420495252" zone="Zone 3" incidentdate="2015-05-21" incidenttime="15:15:00" incidentnumber="15090386" address="2000 block Brownsville Rd" type="OFFENSE" age="" gender="" description="*********************************************** &lt;br/&gt;3304, Criminal Mischief.&lt;br/&gt;"/><marker lat="40.450966080336222" lng="-79.93359390037547" zone="Zone 4" incidentdate="2015-05-21" incidenttime="19:08:00" incidentnumber="15090513" address="5500 block Walnut St" type="OFFENSE" age="" gender="" description="*********************************************** &lt;br/&gt;3929(a)(1), Retail Theft; takes possession of, carries away, or transfers displayed merchandise&lt;br/&gt;"/><marker lat="40.461353731915985" lng="-79.92481731514026" zone="Zone 5" incidentdate="2015-05-21" incidenttime="17:02:00" incidentnumber="15090449" address="6000 block Penn Ave" type="OFFENSE" age="" gender="" description="*********************************************** &lt;br/&gt;3929, Retail Theft.&lt;br/&gt;"/><marker lat="40.449606365527259" lng="-79.974270684591801" zone="Zone 2" incidentdate="2015-05-21" incidenttime="19:36:00" incidentnumber="15090542" address="2400 block Bedford Ave" type="OFFENSE" age="" gender="" description="*********************************************** &lt;br/&gt;9501, Bench Warrant&lt;br/&gt;"/><marker lat="40.465157804159951" lng="-79.922171643415098" zone="Zone 5" incidentdate="2015-05-21" incidenttime="16:30:00" incidentnumber="15090426" address="400 block N Highland Ave" type="OFFENSE" age="" gender="" description="*********************************************** &lt;br/&gt;3929, Retail Theft.&lt;br/&gt;"/><marker lat="40.417669314235489" lng="-79.963417835194747" zone="Zone 3" incidentdate="2015-05-21" incidenttime="13:06:00" incidentnumber="15090334" address="3100 block Cordell Pl" type="OFFENSE" age="" gender="" description="*********************************************** &lt;br/&gt;13(a)(16), Possession of Controlled Substance&lt;br/&gt;3701, Robbery.&lt;br/&gt;13(a)(30), Possession w/ Intent to Del. Controlled Substance&lt;br/&gt;3925, Receiving Stolen Property.&lt;br/&gt;6106, Firearms not to be Carried without a License.&lt;br/&gt;"/><marker lat="40.450934256715165" lng="-79.973807393033383" zone="Zone 2" incidentdate="2015-05-21" incidenttime="18:20:00" incidentnumber="14090504" address="2500 block Chauncey Dr" type="OFFENSE" age="" gender="" description="*********************************************** &lt;br/&gt;2701, Simple Assault.&lt;br/&gt;3701, Robbery.&lt;br/&gt;"/><marker lat="40.453969822993002" lng="-79.998974758094874" zone="Zone 1" incidentdate="2015-05-21" incidenttime="12:16:00" incidentnumber="15090311" address="600 block East Ohio St" type="OFFENSE" age="" gender="" description="*********************************************** &lt;br/&gt;3929, Retail Theft.&lt;br/&gt;"/><marker lat="40.441919441965581" lng="-79.982892744621594" zone="Zone 2" incidentdate="2015-05-21" incidenttime="13:00:00" incidentnumber="15090328" address="1800 block Centre Ave" type="OFFENSE" age="" gender="" description="*********************************************** &lt;br/&gt;5104, Resisting Arrest or Other Law Enforcement.&lt;br/&gt;3929, Retail Theft.&lt;br/&gt;9501, Bench Warrant&lt;br/&gt;4914, False Identification to Law Enforcement Authorities&lt;br/&gt;5126, Flight to Avoid Apprehension, Trial or Punishment.&lt;br/&gt;"/><marker lat="40.470765549360131" lng="-80.012352558386596" zone="Zone 1" incidentdate="2015-05-21" incidenttime="12:32:00" incidentnumber="15090317" address="2600 block Leland St" type="OFFENSE" age="" gender="" description="*********************************************** &lt;br/&gt;9488, False  Burglar Alarm&lt;br/&gt;"/><marker lat="40.391145503209898" lng="-79.994269603159907" zone="Zone 3" incidentdate="2015-05-21" incidenttime="06:30:00" incidentnumber="15090203" address="2100 block Walton Ave" type="OFFENSE" age="" gender="" description="*********************************************** &lt;br/&gt;9999, 9999 - (Misc. Incident):&lt;br/&gt;"/><marker lat="40.476377925537506" lng="-80.039721353393048" zone="Zone 1" incidentdate="2015-05-21" incidenttime="15:05:00" incidentnumber="15090380" address="3400 block California Ave" type="OFFENSE" age="" gender="" description="*********************************************** &lt;br/&gt;2701, Simple Assault.&lt;br/&gt;"/><marker lat="40.467390210623442" lng="-79.974655233492285" zone="Zone 1" incidentdate="2015-05-21" incidenttime="06:13:00" incidentnumber="15090159" address="200 block Waterfront Dr" type="OFFENSE" age="" gender="" description="*********************************************** &lt;br/&gt;9488, False  Burglar Alarm&lt;br/&gt;"/><marker lat="40.451200236409136" lng="-79.993738080662197" zone="Zone 1" incidentdate="2015-05-21" incidenttime="17:30:00" incidentnumber="15090458" address="River Ave &amp; Warfield St" type="OFFENSE" age="" gender="" description="*********************************************** &lt;br/&gt;9496, Dead on Arrival (DOA)&lt;br/&gt;"/><marker lat="40.447791383449896" lng="-80.003763673123132" zone="Zone 1" incidentdate="2015-05-21" incidenttime="18:00:00" incidentnumber="15090492" address="100 block Federal St S" type="OFFENSE" age="" gender="" description="*********************************************** &lt;br/&gt;3921(a), Theft by Unlawful Taking or Disposition - Movable item&lt;br/&gt;"/><marker lat="40.42743910968148" lng="-80.010692747611913" zone="Zone 3" incidentdate="2015-05-21" incidenttime="08:00:00" incidentnumber="15090514" address="Dilworth St &amp; Cowan St" type="OFFENSE" age="" gender="" description="*********************************************** &lt;br/&gt;3304, Criminal Mischief.&lt;br/&gt;2709(a)(1), Harassment by Physical Contact, or Attempts or Threats&lt;br/&gt;"/><marker lat="40.456648834479218" lng="-80.012377140945262" zone="Zone 1" incidentdate="2015-05-21" incidenttime="09:30:00" incidentnumber="15090229" address="500 block N Taylor Ave" type="OFFENSE" age="" gender="" description="*********************************************** &lt;br/&gt;9489, Found Property&lt;br/&gt;"/><marker lat="40.465157804159951" lng="-79.922171643415098" zone="Zone 5" incidentdate="2015-05-21" incidenttime="16:35:00" incidentnumber="15090426" address="400 block N Highland Ave" type="ARREST" age="58" gender="M" description="*********************************************** &lt;br/&gt;3929, Retail Theft.&lt;br/&gt;"/><marker lat="40.385891735246354" lng="-79.978254236122268" zone="Zone 3" incidentdate="2015-05-21" incidenttime="12:00:00" incidentnumber="15029143" address="100 block Kirk Ave" type="ARREST" age="45" gender="M" description="*********************************************** &lt;br/&gt;13(a)(16), Possession of Controlled Substance&lt;br/&gt;13(a)(32), Paraphernalia - Use or Possession&lt;br/&gt;"/><marker lat="40.452049197733132" lng="-79.879056303447655" zone="Zone 5" incidentdate="2015-05-21" incidenttime="00:15:00" incidentnumber="15090075" address="600 block Seagirt St" type="ARREST" age="35" gender="M" description="*********************************************** &lt;br/&gt;2902, Unlawful Restraint.&lt;br/&gt;"/><marker lat="40.384413993627369" lng="-79.994277181866664" zone="Zone 3" incidentdate="2015-05-21" incidenttime="20:05:00" incidentnumber="15086515" address="Maytide St" type="ARREST" age="21" gender="M" description="*********************************************** &lt;br/&gt;3304, Criminal Mischief.&lt;br/&gt;"/><marker lat="40.410949712877226" lng="-80.013988112262453" zone="Zone 6" incidentdate="2015-05-21" incidenttime="09:11:00" incidentnumber="15090212" address="1400 block West Liberty Ave" type="ARREST" age="43" gender="M" description="*********************************************** &lt;br/&gt;3714, Careless Driving&lt;br/&gt;3802(d)(2), DUI - Drug - Impaired Ability&lt;br/&gt;1786, Required Financial Responsibility.&lt;br/&gt;1501(A), Valid Drivers License Required&lt;br/&gt;"/><marker lat="40.450966080336222" lng="-79.93359390037547" zone="Zone 4" incidentdate="2015-05-21" incidenttime="19:08:00" incidentnumber="15090513" address="5500 block Walnut St" type="ARREST" age="19" gender="F" description="*********************************************** &lt;br/&gt;3929(a)(1), Retail Theft; takes possession of, carries away, or transfers displayed merchandise&lt;br/&gt;"/><marker lat="40.435095503606554" lng="-79.993077686753679" zone="Zone 2" incidentdate="2015-05-21" incidenttime="11:50:00" incidentnumber="15077056" address="900 block 2nd Ave" type="ARREST" age="24" gender="M" description="*********************************************** &lt;br/&gt;4101, Forgery.&lt;br/&gt;3921(a), Theft by Unlawful Taking or Disposition - Movable item&lt;br/&gt;"/><marker lat="40.4590238" lng="-79.8933058" zone="Zone 5" incidentdate="2015-05-21" incidenttime="14:00:00" incidentnumber="15036382" address="7600 block Monticello St" type="ARREST" age="23" gender="M" description="*********************************************** &lt;br/&gt;2701, Simple Assault.&lt;br/&gt;3921(a), Theft by Unlawful Taking or Disposition - Movable item&lt;br/&gt;"/><marker lat="40.449606365527259" lng="-79.974270684591801" zone="Zone 2" incidentdate="2015-05-21" incidenttime="19:36:00" incidentnumber="15090542" address="2400 block Bedford Ave" type="ARREST" age="46" gender="M" description="*********************************************** &lt;br/&gt;9501, Bench Warrant&lt;br/&gt;"/><marker lat="40.441988005423603" lng="-80.042103644258248" zone="Zone 6" incidentdate="2015-05-21" incidenttime="20:45:00" incidentnumber="15090576" address="Neidel St &amp; Hassler St" type="ARREST" age="35" gender="F" description="*********************************************** &lt;br/&gt;13(a)(32), Paraphernalia - Use or Possession&lt;br/&gt;13(a)(16), Possession of Controlled Substance&lt;br/&gt;"/><marker lat="40.459241184494772" lng="-80.005548013998464" zone="Zone 1" incidentdate="2015-05-21" incidenttime="08:45:00" incidentnumber="15029534" address="1600 block Sandusky Ct" type="ARREST" age="24" gender="F" description="*********************************************** &lt;br/&gt;13(a)(16), Possession of Controlled Substance&lt;br/&gt;3701, Robbery.&lt;br/&gt;903, Criminal Conspiracy.&lt;br/&gt;13(a)(30), Possession w/ Intent to Del. Controlled Substance&lt;br/&gt;13(a)(32), Paraphernalia - Use or Possession&lt;br/&gt;"/><marker lat="40.417669314235489" lng="-79.963417835194747" zone="Zone 3" incidentdate="2015-05-21" incidenttime="13:30:00" incidentnumber="15090334" address="3100 block Cordell Pl" type="ARREST" age="34" gender="M" description="*********************************************** &lt;br/&gt;13(a)(16), Possession of Controlled Substance&lt;br/&gt;3701, Robbery.&lt;br/&gt;13(a)(30), Possession w/ Intent to Del. Controlled Substance&lt;br/&gt;3925, Receiving Stolen Property.&lt;br/&gt;6106, Firearms not to be Carried without a License.&lt;br/&gt;"/><marker lat="40.417627041456356" lng="-80.009889438915522" zone="Zone 3" incidentdate="2015-05-21" incidenttime="06:30:00" incidentnumber="15090195" address="Climax St" type="ARREST" age="21" gender="M" description="*********************************************** &lt;br/&gt;13(a)(16), Possession of Controlled Substance&lt;br/&gt;13(a)(30), Possession w/ Intent to Del. Controlled Substance&lt;br/&gt;"/><marker lat="40.384269284473667" lng="-79.99129690112143" zone="Zone 3" incidentdate="2015-05-21" incidenttime="17:02:00" incidentnumber="15090421" address="700 block Maytide St" type="ARREST" age="31" gender="F" description="*********************************************** &lt;br/&gt;3802(a)(1), DUI - General Impairment&lt;br/&gt;4304(a)(1) Enhanced, Welfare of Children - Course of Conduct&lt;br/&gt;"/><marker lat="40.456633448414188" lng="-79.936435139782176" zone="Zone 4" incidentdate="2015-05-21" incidenttime="20:50:00" incidentnumber="15090596" address="5500 block Centre Ave" type="ARREST" age="43" gender="F" description="*********************************************** &lt;br/&gt;4914, False Identification to Law Enforcement Authorities&lt;br/&gt;3503, Criminal Trespass&lt;br/&gt;3929, Retail Theft.&lt;br/&gt;"/><marker lat="40.390954067239271" lng="-80.015183178805231" zone="Zone 6" incidentdate="2015-05-21" incidenttime="10:30:00" incidentnumber="15082786" address="1100 block Creedmoor Ave" type="ARREST" age="21" gender="M" description="*********************************************** &lt;br/&gt;2701, Simple Assault.&lt;br/&gt;2701(a)(1), Simple Assault - Intent., Know., Reckless.Cause Bod. Injury&lt;br/&gt;"/><marker lat="40.455698212121163" lng="-80.008810965955405" zone="Zone 1" incidentdate="2015-05-21" incidenttime="01:00:00" incidentnumber="15090072" address="Arch St &amp; Eloise St" type="ARREST" age="21" gender="F" description="*********************************************** &lt;br/&gt;1543, Driving While Operating Privilege is Suspended or Revoked.&lt;br/&gt;13(a)(16), Possession of Controlled Substance&lt;br/&gt;13(a)(30), Possession w/ Intent to Del. Controlled Substance&lt;br/&gt;7512, Criminal Use of Communication&lt;br/&gt;1501, Drivers Required to be Licensed.&lt;br/&gt;13(a)(30)*, Delivery of Controlled Substance&lt;br/&gt;5506, Loitering and Prowling at Night&lt;br/&gt;13(a)(31), Marijuana: Possession Small Amount&lt;br/&gt;"/><marker lat="40.409907809469559" lng="-79.944055701424162" zone="Zone 4" incidentdate="2015-05-21" incidenttime="04:50:00" incidentnumber="15087665" address="4900 block 2nd Ave" type="ARREST" age="31" gender="F" description="*********************************************** &lt;br/&gt;2701(a)(1), Simple Assault - Intent., Know., Reckless.Cause Bod. Injury&lt;br/&gt;"/><marker lat="40.402445430402565" lng="-80.01596895279458" zone="Zone 6" incidentdate="2015-05-21" incidenttime="22:21:00" incidentnumber="15090633" address="Dunster St &amp; Pioneer Ave" type="ARREST" age="27" gender="M" description="*********************************************** &lt;br/&gt;7613(a), Computer Theft&lt;br/&gt;3334, Turning Movements and Required Signals.&lt;br/&gt;13(a)(32), Paraphernalia - Use or Possession&lt;br/&gt;"/><marker lat="40.436929435103927" lng="-79.954991220056257" zone="Zone 4" incidentdate="2015-05-21" incidenttime="15:30:00" incidentnumber="15067579" address="400 block Semple St" type="ARREST" age="23" gender="M" description="*********************************************** &lt;br/&gt;3502, Burglary.&lt;br/&gt;"/><marker lat="40.488887256606667" lng="-79.924901618513928" zone="Zone 5" incidentdate="2015-05-21" incidenttime="21:27:00" incidentnumber="15090597" address="6900 block Butler St" type="ARREST" age="58" gender="F" description="*********************************************** &lt;br/&gt;3745, Accidents Involving Damage to Unattended Veh.or Prop.&lt;br/&gt;3802(a)(1), DUI - General Impairment&lt;br/&gt;3802(c), DUI - Highest Rate of Alcohol - BAC &gt;= .16%&lt;br/&gt;"/><marker lat="40.428670110505003" lng="-79.979135233578759" zone="Zone 3" incidentdate="2015-05-21" incidenttime="00:15:00" incidentnumber="15090048" address="S 19th St &amp; E Carson St" type="ARREST" age="28" gender="M" description="*********************************************** &lt;br/&gt;3925, Receiving Stolen Property.&lt;br/&gt;"/><marker lat="40.429764885213586" lng="-79.981951688302857" zone="Zone 3" incidentdate="2015-05-21" incidenttime="13:15:00" incidentnumber="15089951" address="S 17th St &amp; Sidney St" type="ARREST" age="48" gender="M" description="*********************************************** &lt;br/&gt;2701(a)(3), Simple Assault - Attempts by Physical Menace&lt;br/&gt;4952, Intimidation of Witnesses or Victims&lt;br/&gt;2902, Unlawful Restraint.&lt;br/&gt;2706, Terroristic Threats.&lt;br/&gt;"/><marker lat="40.429530203881427" lng="-80.007331466693074" zone="Zone 3" incidentdate="2015-05-21" incidenttime="02:00:00" incidentnumber="15090081" address="100 block Virginia Ave" type="ARREST" age="32" gender="F" description="*********************************************** &lt;br/&gt;5503(a)(4), DISORDERLY CONDUCT - HAZARDOUS/PHYS. OFF&lt;br/&gt;5507(a), Obstructing highway, railroad or public passage&lt;br/&gt;5505, Public Drunkenness&lt;br/&gt;"/><marker lat="40.428726365881886" lng="-79.987518246307118" zone="Zone 3" incidentdate="2015-05-21" incidenttime="22:24:00" incidentnumber="15090625" address="E Carson St &amp; S 11th St" type="ARREST" age="25" gender="F" description="*********************************************** &lt;br/&gt;13(a)(31), Marijuana: Possession Small Amount&lt;br/&gt;1301, Registration and Certificate of Title Required.&lt;br/&gt;13(a)(32), Paraphernalia - Use or Possession&lt;br/&gt;"/><marker lat="40.467811518850382" lng="-79.927724035809661" zone="Zone 4" incidentdate="2015-05-21" incidenttime="11:15:00" incidentnumber="15067286" address="500 block S Negley Ave" type="ARREST" age="25" gender="M" description="*********************************************** &lt;br/&gt;2701, Simple Assault.&lt;br/&gt;2701(a)(1), Simple Assault - Intent., Know., Reckless.Cause Bod. Injury&lt;br/&gt;"/><marker lat="40.461399486874818" lng="-79.889848816086044" zone="Zone 5" incidentdate="2015-05-21" incidenttime="16:30:00" incidentnumber="15088403" address="7400 block Stranahan St" type="ARREST" age="32" gender="M" description="*********************************************** &lt;br/&gt;1543, Driving While Operating Privilege is Suspended or Revoked.&lt;br/&gt;3928, Unauthorized Use of Automobile and Other Vehicles.&lt;br/&gt;1501, Drivers Required to be Licensed.&lt;br/&gt;3745, Accidents Involving Damage to Unattended Veh.or Prop.&lt;br/&gt;"/><marker lat="40.441228428031053" lng="-80.002073791411135" zone="Zone 2" incidentdate="2015-05-21" incidenttime="11:30:00" incidentnumber="15081343" address="200 block 5th Ave" type="ARREST" age="25" gender="M" description="*********************************************** &lt;br/&gt;4101, Forgery.&lt;br/&gt;3922, Theft by Deception.&lt;br/&gt;"/><marker lat="40.430020824945359" lng="-79.976813326700821" zone="Zone 3" incidentdate="2015-05-21" incidenttime="20:05:00" incidentnumber="15090544" address="2000 block Wharton St" type="ARREST" age="52" gender="F" description="*********************************************** &lt;br/&gt;3503.B1I, DEF. TRESPASS ACTUAL COMMUNICATION&lt;br/&gt;3929, Retail Theft.&lt;br/&gt;13(a)(32), Paraphernalia - Use or Possession&lt;br/&gt;"/><marker lat="40.441919441965581" lng="-79.982892744621594" zone="Zone 2" incidentdate="2015-05-21" incidenttime="13:32:00" incidentnumber="15090328" address="1800 block Centre Ave" type="ARREST" age="38" gender="M" description="*********************************************** &lt;br/&gt;5104, Resisting Arrest or Other Law Enforcement.&lt;br/&gt;3929, Retail Theft.&lt;br/&gt;9501, Bench Warrant&lt;br/&gt;4914, False Identification to Law Enforcement Authorities&lt;br/&gt;5126, Flight to Avoid Apprehension, Trial or Punishment.&lt;br/&gt;"/><marker lat="40.419607469652064" lng="-79.927151382845352" zone="Zone 4" incidentdate="2015-05-21" incidenttime="16:26:00" incidentnumber="15090399" address="Beechwood Blvd &amp; Hazelwood Ave" type="ARREST" age="33" gender="M" description="*********************************************** &lt;br/&gt;9501, Bench Warrant&lt;br/&gt;"/><marker lat="40.415673444263682" lng="-79.968816666496636" zone="Zone 3" incidentdate="2015-05-21" incidenttime="22:55:00" incidentnumber="15090643" address="Spring St &amp; Rinne St" type="ARREST" age="18" gender="M" description="*********************************************** &lt;br/&gt;13(a)(16), Possession of Controlled Substance&lt;br/&gt;3334, Turning Movements and Required Signals.&lt;br/&gt;1501, Drivers Required to be Licensed.&lt;br/&gt;"/><marker lat="40.430020824945359" lng="-79.976813326700821" zone="Zone 3" incidentdate="2015-05-21" incidenttime="20:05:00" incidentnumber="15090544" address="2000 block Wharton St" type="ARREST" age="44" gender="M" description="*********************************************** &lt;br/&gt;3503.B1I, DEF. TRESPASS ACTUAL COMMUNICATION&lt;br/&gt;3929, Retail Theft.&lt;br/&gt;13(a)(32), Paraphernalia - Use or Possession&lt;br/&gt;"/><marker lat="40.455698212121163" lng="-80.008810965955405" zone="Zone 1" incidentdate="2015-05-21" incidenttime="01:00:00" incidentnumber="15090072" address="Arch St &amp; Eloise St" type="ARREST" age="33" gender="M" description="*********************************************** &lt;br/&gt;1543, Driving While Operating Privilege is Suspended or Revoked.&lt;br/&gt;13(a)(16), Possession of Controlled Substance&lt;br/&gt;13(a)(30), Possession w/ Intent to Del. Controlled Substance&lt;br/&gt;7512, Criminal Use of Communication&lt;br/&gt;1501, Drivers Required to be Licensed.&lt;br/&gt;13(a)(30)*, Delivery of Controlled Substance&lt;br/&gt;5506, Loitering and Prowling at Night&lt;br/&gt;13(a)(31), Marijuana: Possession Small Amount&lt;br/&gt;"/></markers>
