<?xml version="1.0"?>
<markers><marker lat="40.4406482" lng="-79.8742035" zone="Zone 5" incidentdate="2015-08-27" incidenttime="00:20:00" incidentnumber="15161400" address="300 block N Beatty St" type="OFFENSE" age="" gender="" description="*********************************************** &lt;br/&gt;2701, Simple Assault.&lt;br/&gt;"/><marker lat="40.42695519606621" lng="-80.005599666575392" zone="Zone 3" incidentdate="2015-08-27" incidenttime="21:59:00" incidentnumber="15162033" address="Bailey Ave" type="OFFENSE" age="" gender="" description="*********************************************** &lt;br/&gt;3802(a)(1), DUI - General Impairment&lt;br/&gt;3802(c), DUI - Highest Rate of Alcohol - BAC &gt;= .16%&lt;br/&gt;"/><marker lat="40.402205868785494" lng="-79.988418115860782" zone="Zone 3" incidentdate="2015-08-27" incidenttime="12:00:00" incidentnumber="15161597" address="100 block Birmingham Ave" type="OFFENSE" age="" gender="" description="*********************************************** &lt;br/&gt;9016, Check on Elderly Person&lt;br/&gt;"/><marker lat="40.419350328866692" lng="-79.935939333733572" zone="Zone 4" incidentdate="2015-08-27" incidenttime="08:16:00" incidentnumber="15161530" address="Bigelow St" type="OFFENSE" age="" gender="" description="*********************************************** &lt;br/&gt;2701(a)(3), Simple Assault - Attempts by Physical Menace&lt;br/&gt;2709(a)(1), Harassment by Physical Contact, or Attempts or Threats&lt;br/&gt;2701, Simple Assault.&lt;br/&gt;2701(a)(1), Simple Assault - Intent., Know., Reckless.Cause Bod. Injury&lt;br/&gt;3503(b.1), Criminal Trespass - Simple Trespasser&lt;br/&gt;"/><marker lat="40.424181146054593" lng="-79.970408745712874" zone="Zone 3" incidentdate="2015-08-27" incidenttime="09:00:00" incidentnumber="15161642" address="Josephine St &amp; Kosciusko Way" type="OFFENSE" age="" gender="" description="*********************************************** &lt;br/&gt;3921, Theft by Unlawful Taking or Disposition.&lt;br/&gt;"/><marker lat="40.4550203" lng="-80.0558082" zone="Zone 6" incidentdate="2015-08-27" incidenttime="10:00:00" incidentnumber="15161602" address="700 block Sherwood Ave" type="OFFENSE" age="" gender="" description="*********************************************** &lt;br/&gt;9999, 9999 - (Misc. Incident):&lt;br/&gt;"/><marker lat="40.460881270818213" lng="-79.99665269374276" zone="Zone 1" incidentdate="2015-08-27" incidenttime="14:00:00" incidentnumber="15162028" address="900 block Yetta Ave" type="OFFENSE" age="" gender="" description="*********************************************** &lt;br/&gt;2709, Harassment (Non-Specific)&lt;br/&gt;2706, Terroristic Threats.&lt;br/&gt;"/><marker lat="40.45310196972688" lng="-80.019429448405077" zone="Zone 1" incidentdate="2015-08-27" incidenttime="19:30:00" incidentnumber="15161940" address="W North Ave &amp; Allegheny Ave" type="OFFENSE" age="" gender="" description="*********************************************** &lt;br/&gt;4910, Tampering with or Fabricating Physical Evidence.&lt;br/&gt;903, Criminal Conspiracy.&lt;br/&gt;3736, Reckless Driving&lt;br/&gt;3925, Receiving Stolen Property.&lt;br/&gt;5104, Resisting Arrest or Other Law Enforcement.&lt;br/&gt;3502, Burglary.&lt;br/&gt;1786, Required Financial Responsibility.&lt;br/&gt;3733, Fleeing or Attempting to Elude Police Officer&lt;br/&gt;5121, Escape.&lt;br/&gt;3921(a), Theft by Unlawful Taking or Disposition - Movable item&lt;br/&gt;1501, Drivers Required to be Licensed.&lt;br/&gt;3304, Criminal Mischief.&lt;br/&gt;"/><marker lat="40.466877756870879" lng="-79.994177935104844" zone="Zone 1" incidentdate="2015-08-27" incidenttime="19:00:00" incidentnumber="15161915" address="100 block Rhine Pl" type="OFFENSE" age="" gender="" description="*********************************************** &lt;br/&gt;2701, Simple Assault.&lt;br/&gt;2706, Terroristic Threats.&lt;br/&gt;13(a)(32), Paraphernalia - Use or Possession&lt;br/&gt;"/><marker lat="40.486296149478711" lng="-80.00481288885905" zone="Zone 1" incidentdate="2015-08-27" incidenttime="21:31:00" incidentnumber="15162022" address="3500 block Colby St" type="OFFENSE" age="" gender="" description="*********************************************** &lt;br/&gt;3304, Criminal Mischief.&lt;br/&gt;"/><marker lat="40.465216215750473" lng="-79.911111265006767" zone="Zone 5" incidentdate="2015-08-27" incidenttime="13:00:00" incidentnumber="15161694" address="600 block Thompson St" type="OFFENSE" age="" gender="" description="*********************************************** &lt;br/&gt;3502, Burglary.&lt;br/&gt;"/><marker lat="40.421338168885619" lng="-80.023626034158909" zone="Zone 6" incidentdate="2015-08-27" incidenttime="19:03:00" incidentnumber="15161911" address="900 block Gladys Ave" type="OFFENSE" age="" gender="" description="*********************************************** &lt;br/&gt;9999, 9999 - (Misc. Incident):&lt;br/&gt;"/><marker lat="40.392151813335147" lng="-80.013062703700243" zone="Zone 6" incidentdate="2015-08-27" incidenttime="08:15:00" incidentnumber="15161536" address="1200 block Bellaire Pl" type="OFFENSE" age="" gender="" description="*********************************************** &lt;br/&gt;3934, Theft from Vehicle&lt;br/&gt;"/><marker lat="40.462479277317655" lng="-80.008566791082885" zone="Zone 1" incidentdate="2015-08-27" incidenttime="17:47:00" incidentnumber="15161860" address="1900 block Federal Ext N" type="OFFENSE" age="" gender="" description="*********************************************** &lt;br/&gt;2701, Simple Assault.&lt;br/&gt;5503(a)(1), DISORDERLY CONDUCT - ENGAGE IN FIGHTING&lt;br/&gt;"/><marker lat="40.458124412082178" lng="-79.893503500341438" zone="Zone 5" incidentdate="2015-08-27" incidenttime="15:53:00" incidentnumber="15161776" address="7300 block Race St" type="OFFENSE" age="" gender="" description="*********************************************** &lt;br/&gt;6106, Firearms not to be Carried without a License.&lt;br/&gt;4910, Tampering with or Fabricating Physical Evidence.&lt;br/&gt;6105(a)(1), Persons not to possess, use, manufacture, control, sell or transfer firearms: Former convict enumerated in subsection (b)&lt;br/&gt;"/><marker lat="40.401274152011062" lng="-79.998029200201742" zone="Zone 3" incidentdate="2015-08-27" incidenttime="14:30:00" incidentnumber="15161816" address="Nobles Ln" type="OFFENSE" age="" gender="" description="*********************************************** &lt;br/&gt;4120, Identity Theft&lt;br/&gt;"/><marker lat="40.459811206906437" lng="-79.886886299411756" zone="Zone 5" incidentdate="2015-08-27" incidenttime="08:00:00" incidentnumber="15161546" address="1200 block Mohler St" type="OFFENSE" age="" gender="" description="*********************************************** &lt;br/&gt;2709, Harassment (Non-Specific)&lt;br/&gt;3921, Theft by Unlawful Taking or Disposition.&lt;br/&gt;"/><marker lat="40.449530388454392" lng="-79.929020082763714" zone="Zone 4" incidentdate="2015-08-27" incidenttime="09:07:00" incidentnumber="15161556" address="5700 block 5th Ave" type="OFFENSE" age="" gender="" description="*********************************************** &lt;br/&gt;3743, Accidents Involving Damage to Attended Veh. or Property&lt;br/&gt;"/><marker lat="40.485652866587373" lng="-79.939746355283376" zone="Zone 5" incidentdate="2015-08-27" incidenttime="17:59:00" incidentnumber="15161868" address="1000 block Oglethorpe Ave" type="OFFENSE" age="" gender="" description="*********************************************** &lt;br/&gt;9496, Dead on Arrival (DOA)&lt;br/&gt;"/><marker lat="40.46755429268579" lng="-79.919308675599808" zone="Zone 5" incidentdate="2015-08-27" incidenttime="09:37:00" incidentnumber="15161572" address="700 block Sheridan Ave" type="OFFENSE" age="" gender="" description="*********************************************** &lt;br/&gt;4914, False Identification to Law Enforcement Authorities&lt;br/&gt;2701, Simple Assault.&lt;br/&gt;"/><marker lat="40.480128496950904" lng="-79.953947602545981" zone="Zone 2" incidentdate="2015-08-27" incidenttime="07:00:00" incidentnumber="15161531" address="5200 block Dresden Way" type="OFFENSE" age="" gender="" description="*********************************************** &lt;br/&gt;3934, Theft from Vehicle&lt;br/&gt;"/><marker lat="40.41818337907057" lng="-80.02570438622422" zone="Zone 6" incidentdate="2015-08-27" incidenttime="15:15:00" incidentnumber="15161880" address="800 block Crane Ave" type="OFFENSE" age="" gender="" description="*********************************************** &lt;br/&gt;2701, Simple Assault.&lt;br/&gt;"/><marker lat="40.451300883007008" lng="-79.883511892551297" zone="Zone OSC" incidentdate="2015-08-27" incidenttime="18:04:00" incidentnumber="15161932" address="Singer Ave" type="OFFENSE" age="" gender="" description="*********************************************** &lt;br/&gt;13(a)(16), Possession of Controlled Substance&lt;br/&gt;13(a)(30), Possession w/ Intent to Del. Controlled Substance&lt;br/&gt;13(a)(32), Paraphernalia - Use or Possession&lt;br/&gt;"/><marker lat="40.454038272737556" lng="-79.867341042290406" zone="Zone 5" incidentdate="2015-08-27" incidenttime="01:30:00" incidentnumber="15161416" address="2200 block Wilner Dr" type="OFFENSE" age="" gender="" description="*********************************************** &lt;br/&gt;5105, Hindering Apprehension or Prosecution.&lt;br/&gt;"/><marker lat="40.1914522" lng="-79.5976800" zone="Zone OSC" incidentdate="2015-08-27" incidenttime="00:30:00" incidentnumber="15161428" address="Unknown" type="OFFENSE" age="" gender="" description="*********************************************** &lt;br/&gt;9129, Miscellaneous Investigation&lt;br/&gt;"/><marker lat="40.410114939314859" lng="-79.9951081951465" zone="Zone 3" incidentdate="2015-08-27" incidenttime="20:00:00" incidentnumber="15161963" address="400 block Alice St" type="OFFENSE" age="" gender="" description="*********************************************** &lt;br/&gt;2709, Harassment (Non-Specific)&lt;br/&gt;"/><marker lat="40.427048463852685" lng="-79.985455849849913" zone="Zone 3" incidentdate="2015-08-27" incidenttime="08:00:00" incidentnumber="15161673" address="100 block S 13th St" type="OFFENSE" age="" gender="" description="*********************************************** &lt;br/&gt;3934, Theft from Vehicle&lt;br/&gt;"/><marker lat="40.438835055288095" lng="-79.98398395634625" zone="Zone 2" incidentdate="2015-08-27" incidenttime="17:45:00" incidentnumber="15161813" address="Our Way &amp; Vine St" type="OFFENSE" age="" gender="" description="*********************************************** &lt;br/&gt;13(a)(32), Paraphernalia - Use or Possession&lt;br/&gt;"/><marker lat="40.4026333" lng="-80.0308698" zone="Zone 6" incidentdate="2015-08-27" incidenttime="20:08:00" incidentnumber="15161961" address="2300 block Broadway Ave" type="OFFENSE" age="" gender="" description="*********************************************** &lt;br/&gt;13(a)(32), Paraphernalia - Use or Possession&lt;br/&gt;"/><marker lat="40.483907786852718" lng="-80.037040797133628" zone="Zone 1" incidentdate="2015-08-27" incidenttime="08:00:00" incidentnumber="15161957" address="1400 block Cooper Ave" type="OFFENSE" age="" gender="" description="*********************************************** &lt;br/&gt;3934, Theft from Vehicle&lt;br/&gt;"/><marker lat="40.396048012963675" lng="-79.987882455206076" zone="Zone 3" incidentdate="2015-08-27" incidenttime="19:30:00" incidentnumber="15161943" address="Dellrose St &amp; Copperfield Ave" type="OFFENSE" age="" gender="" description="*********************************************** &lt;br/&gt;9489, Found Property&lt;br/&gt;"/><marker lat="40.488209834026463" lng="-80.015158575586483" zone="Zone 1" incidentdate="2015-08-27" incidenttime="21:00:00" incidentnumber="15161997" address="3800 block East St" type="OFFENSE" age="" gender="" description="*********************************************** &lt;br/&gt;9488, False  Burglar Alarm&lt;br/&gt;"/><marker lat="40.420731122796447" lng="-80.000074748049201" zone="Zone 3" incidentdate="2015-08-27" incidenttime="02:07:00" incidentnumber="15161438" address="400 block E Warrington Ave" type="OFFENSE" age="" gender="" description="*********************************************** &lt;br/&gt;2701, Simple Assault.&lt;br/&gt;5104, Resisting Arrest or Other Law Enforcement.&lt;br/&gt;"/><marker lat="40.479829245655225" lng="-80.001901444196207" zone="Zone 1" incidentdate="2015-08-27" incidenttime="21:20:00" incidentnumber="15162005" address="400 block Mt Pleasant Rd" type="OFFENSE" age="" gender="" description="*********************************************** &lt;br/&gt;13(a)(31), Marijuana: Possession Small Amount&lt;br/&gt;9501, Bench Warrant&lt;br/&gt;5505, Public Drunkenness&lt;br/&gt;"/><marker lat="40.372163020331072" lng="-79.917059296221495" zone="Zone 4" incidentdate="2015-08-27" incidenttime="10:30:00" incidentnumber="15161617" address="Glenhurst Rd &amp; Mifflin Rd" type="OFFENSE" age="" gender="" description="*********************************************** &lt;br/&gt;3304, Criminal Mischief.&lt;br/&gt;"/><marker lat="40.424277209227093" lng="-80.009186444274562" zone="Zone 3" incidentdate="2015-08-27" incidenttime="11:45:00" incidentnumber="15161651" address="400 block Boggs Ave" type="OFFENSE" age="" gender="" description="*********************************************** &lt;br/&gt;3934, Theft from Vehicle&lt;br/&gt;"/><marker lat="40.437850264562179" lng="-80.004567110517371" zone="Zone 2" incidentdate="2015-08-27" incidenttime="02:44:00" incidentnumber="15161458" address="Market St" type="OFFENSE" age="" gender="" description="*********************************************** &lt;br/&gt;9501, Bench Warrant&lt;br/&gt;"/><marker lat="40.435826843955446" lng="-79.895974600322745" zone="Zone 4" incidentdate="2015-08-27" incidenttime="02:30:00" incidentnumber="15161462" address="Henrietta St &amp; S Braddock Ave" type="OFFENSE" age="" gender="" description="*********************************************** &lt;br/&gt;3921(a), Theft by Unlawful Taking or Disposition - Movable item&lt;br/&gt;3921, Theft by Unlawful Taking or Disposition.&lt;br/&gt;1501, Drivers Required to be Licensed.&lt;br/&gt;3733, Fleeing or Attempting to Elude Police Officer&lt;br/&gt;3736, Reckless Driving&lt;br/&gt;3925, Receiving Stolen Property.&lt;br/&gt;"/><marker lat="40.457396684455787" lng="-79.896297857079958" zone="Zone 5" incidentdate="2015-08-27" incidenttime="22:12:00" incidentnumber="15162047" address="Frankstown Ave &amp; N Homewood Ave" type="OFFENSE" age="" gender="" description="*********************************************** &lt;br/&gt;2702, Aggravated Assault.&lt;br/&gt;3701, Robbery.&lt;br/&gt;"/><marker lat="40.425224543663802" lng="-79.938815770483529" zone="Zone 4" incidentdate="2015-08-27" incidenttime="09:10:00" incidentnumber="15161624" address="600 block Minnesota St" type="OFFENSE" age="" gender="" description="*********************************************** &lt;br/&gt;2709, Harassment (Non-Specific)&lt;br/&gt;"/><marker lat="40.4620994" lng="-79.9883381" zone="Zone 1" incidentdate="2015-08-27" incidenttime="16:06:00" incidentnumber="15161774" address="200 block Homer St" type="OFFENSE" age="" gender="" description="*********************************************** &lt;br/&gt;2701, Simple Assault.&lt;br/&gt;"/><marker lat="40.481367810037824" lng="-80.041479932304256" zone="Zone 1" incidentdate="2015-08-27" incidenttime="14:30:00" incidentnumber="15161877" address="Verner Ave &amp; California Ave" type="OFFENSE" age="" gender="" description="*********************************************** &lt;br/&gt;9489, Found Property&lt;br/&gt;"/><marker lat="40.450086838602907" lng="-79.90035141354079" zone="Zone 4" incidentdate="2015-08-27" incidenttime="08:30:00" incidentnumber="15161604" address="200 block N Homewood Ave" type="OFFENSE" age="" gender="" description="*********************************************** &lt;br/&gt;3304, Criminal Mischief.&lt;br/&gt;"/><marker lat="40.474259937428243" lng="-80.010532705998429" zone="Zone 1" incidentdate="2015-08-27" incidenttime="09:00:00" incidentnumber="15161578" address="200 block Kennedy Ave" type="OFFENSE" age="" gender="" description="*********************************************** &lt;br/&gt;029, Missing Juvenile&lt;br/&gt;"/><marker lat="40.397353293917568" lng="-79.986790082191661" zone="Zone 3" incidentdate="2015-08-27" incidenttime="13:50:00" incidentnumber="15161707" address="1800 block Concordia St" type="OFFENSE" age="" gender="" description="*********************************************** &lt;br/&gt;2702, Aggravated Assault.&lt;br/&gt;"/><marker lat="40.456728972118043" lng="-80.000010800799288" zone="Zone 1" incidentdate="2015-08-27" incidenttime="02:21:00" incidentnumber="15161444" address="1100 block Middle St" type="OFFENSE" age="" gender="" description="*********************************************** &lt;br/&gt;9488, False  Burglar Alarm&lt;br/&gt;"/><marker lat="40.455827122003001" lng="-79.873802880338005" zone="Zone 5" incidentdate="2015-08-27" incidenttime="01:15:00" incidentnumber="15161421" address="2400 block Park Hill Dr" type="OFFENSE" age="" gender="" description="*********************************************** &lt;br/&gt;3304, Criminal Mischief.&lt;br/&gt;"/><marker lat="40.474259937428243" lng="-80.010532705998429" zone="Zone 1" incidentdate="2015-08-27" incidenttime="09:00:00" incidentnumber="15161542" address="200 block Kennedy Ave" type="OFFENSE" age="" gender="" description="*********************************************** &lt;br/&gt;029, Missing Juvenile&lt;br/&gt;"/><marker lat="40.3963220" lng="-79.9981889" zone="Zone 3" incidentdate="2015-08-27" incidenttime="11:00:00" incidentnumber="15016134" address="Saw Mill Run Blvd &amp; Whited St" type="OFFENSE" age="" gender="" description="*********************************************** &lt;br/&gt;2709(a), Harassment.&lt;br/&gt;"/><marker lat="40.452210852851195" lng="-79.998676352919205" zone="Zone 1" incidentdate="2015-08-27" incidenttime="14:45:00" incidentnumber="15161757" address="600 block Pressley St" type="OFFENSE" age="" gender="" description="*********************************************** &lt;br/&gt;2709, Harassment (Non-Specific)&lt;br/&gt;"/><marker lat="40.486296149478711" lng="-80.00481288885905" zone="Zone 1" incidentdate="2015-08-27" incidenttime="21:37:00" incidentnumber="15162041" address="3500 block Colby St" type="OFFENSE" age="" gender="" description="*********************************************** &lt;br/&gt;9999, 9999 - (Misc. Incident):&lt;br/&gt;"/><marker lat="40.450246363953489" lng="-80.077148762001826" zone="Zone 6" incidentdate="2015-08-27" incidenttime="05:30:00" incidentnumber="15161656" address="700 block Village Rd" type="OFFENSE" age="" gender="" description="*********************************************** &lt;br/&gt;3934, Theft from Vehicle&lt;br/&gt;"/><marker lat="40.477502035238381" lng="-79.957480612674573" zone="Zone 2" incidentdate="2015-08-27" incidenttime="12:30:00" incidentnumber="15161678" address="4900 block Hatfield St" type="OFFENSE" age="" gender="" description="*********************************************** &lt;br/&gt;3934, Theft from Vehicle&lt;br/&gt;"/><marker lat="40.452042212663898" lng="-80.008738896002342" zone="Zone 1" incidentdate="2015-08-27" incidenttime="23:10:00" incidentnumber="15162081" address="200 block Ridge Ave" type="OFFENSE" age="" gender="" description="*********************************************** &lt;br/&gt;9490, Missing Persons (18 and Over)&lt;br/&gt;"/><marker lat="40.403865499750253" lng="-79.94121154762648" zone="Zone 4" incidentdate="2015-08-27" incidenttime="05:35:00" incidentnumber="15161524" address="200 block Mansion St" type="OFFENSE" age="" gender="" description="*********************************************** &lt;br/&gt;3934, Theft from Vehicle&lt;br/&gt;"/><marker lat="40.450892721440539" lng="-80.000843891836467" zone="Zone 1" incidentdate="2015-08-27" incidenttime="17:00:00" incidentnumber="15161832" address="300 block Cedar Ave" type="OFFENSE" age="" gender="" description="*********************************************** &lt;br/&gt;3929, Retail Theft.&lt;br/&gt;13(a)(32), Paraphernalia - Use or Possession&lt;br/&gt;"/><marker lat="40.472251886400727" lng="-79.928338201140335" zone="Zone 5" incidentdate="2015-08-27" incidenttime="03:12:00" incidentnumber="15161460" address="5500 block Stanton Ave" type="OFFENSE" age="" gender="" description="*********************************************** &lt;br/&gt;3302, Causing or Risking Catastrophe.&lt;br/&gt;3301, Arson&lt;br/&gt;"/><marker lat="40.421070873703954" lng="-79.985247044125302" zone="Zone 3" incidentdate="2015-08-27" incidenttime="12:00:00" incidentnumber="15161679" address="Quarry Way &amp; S 18th St" type="OFFENSE" age="" gender="" description="*********************************************** &lt;br/&gt;9999, 9999 - (Misc. Incident):&lt;br/&gt;"/><marker lat="40.454038272737556" lng="-79.867341042290406" zone="Zone 5" incidentdate="2015-08-27" incidenttime="02:35:00" incidentnumber="15161450" address="2200 block Wilner Dr" type="OFFENSE" age="" gender="" description="*********************************************** &lt;br/&gt;4952, Intimidation of Witnesses or Victims&lt;br/&gt;2701(a)(3), Simple Assault - Attempts by Physical Menace&lt;br/&gt;2706, Terroristic Threats.&lt;br/&gt;"/><marker lat="40.434696587775576" lng="-79.996300985228572" zone="Zone 2" incidentdate="2015-08-27" incidenttime="08:30:00" incidentnumber="15121125" address="600 block 1st Ave" type="OFFENSE" age="" gender="" description="*********************************************** &lt;br/&gt;2701, Simple Assault.&lt;br/&gt;4304(a)(1), Endangering Welfare of Children - Course of Conduct Enhanced&lt;br/&gt;"/><marker lat="40.475107898420873" lng="-79.960694545362998" zone="Zone 2" incidentdate="2015-08-27" incidenttime="16:20:00" incidentnumber="15161806" address="100 block Home St" type="OFFENSE" age="" gender="" description="*********************************************** &lt;br/&gt;9496, Dead on Arrival (DOA)&lt;br/&gt;"/><marker lat="40.441772984812665" lng="-80.001620450643472" zone="Zone 2" incidentdate="2015-08-27" incidenttime="18:00:00" incidentnumber="15161977" address="600 block Liberty Ave" type="OFFENSE" age="" gender="" description="*********************************************** &lt;br/&gt;4106, Access Device Fraud&lt;br/&gt;3921, Theft by Unlawful Taking or Disposition.&lt;br/&gt;"/><marker lat="40.455643298111653" lng="-79.938604138327051" zone="Zone 4" incidentdate="2015-08-27" incidenttime="19:00:00" incidentnumber="15161970" address="500 block S Aiken Ave" type="OFFENSE" age="" gender="" description="*********************************************** &lt;br/&gt;3745, Accidents Involving Damage to Unattended Veh.or Prop.&lt;br/&gt;"/><marker lat="40.456622978759356" lng="-80.007014022053596" zone="Zone 1" incidentdate="2015-08-27" incidenttime="15:48:00" incidentnumber="15161772" address="Federal St &amp; Parkhurst St" type="OFFENSE" age="" gender="" description="*********************************************** &lt;br/&gt;2702, Aggravated Assault.&lt;br/&gt;"/><marker lat="40.467421304218206" lng="-80.005873869063521" zone="Zone 1" incidentdate="2015-08-27" incidenttime="05:28:00" incidentnumber="15161483" address="400 block Suffolk St" type="OFFENSE" age="" gender="" description="*********************************************** &lt;br/&gt;2701, Simple Assault.&lt;br/&gt;"/><marker lat="40.452928716169211" lng="-79.941430676133777" zone="Zone 4" incidentdate="2015-08-27" incidenttime="21:45:00" incidentnumber="15162109" address="400 block Amberson Ave" type="OFFENSE" age="" gender="" description="*********************************************** &lt;br/&gt;3934, Theft from Vehicle&lt;br/&gt;"/><marker lat="40.436449810983582" lng="-79.968293421126532" zone="Zone 4" incidentdate="2015-08-27" incidenttime="11:45:00" incidentnumber="15161650" address="Brenham St &amp; 5th Ave" type="OFFENSE" age="" gender="" description="*********************************************** &lt;br/&gt;3304, Criminal Mischief.&lt;br/&gt;"/><marker lat="40.438497706160028" lng="-79.988829892274566" zone="Zone 2" incidentdate="2015-08-27" incidenttime="02:14:00" incidentnumber="15161442" address="1200 block 5th Ave" type="OFFENSE" age="" gender="" description="*********************************************** &lt;br/&gt;9999, 9999 - (Misc. Incident):&lt;br/&gt;"/><marker lat="40.403865499750253" lng="-79.94121154762648" zone="Zone 4" incidentdate="2015-08-27" incidenttime="05:40:00" incidentnumber="15161533" address="200 block Mansion St" type="OFFENSE" age="" gender="" description="*********************************************** &lt;br/&gt;3934, Theft from Vehicle&lt;br/&gt;3304, Criminal Mischief.&lt;br/&gt;"/><marker lat="40.454038272737556" lng="-79.867341042290406" zone="Zone 5" incidentdate="2015-08-27" incidenttime="07:50:00" incidentnumber="15161586" address="2200 block Wilner Dr" type="OFFENSE" age="" gender="" description="*********************************************** &lt;br/&gt;2709, Harassment (Non-Specific)&lt;br/&gt;"/><marker lat="40.427034475719758" lng="-79.974703231321115" zone="Zone 3" incidentdate="2015-08-27" incidenttime="06:30:00" incidentnumber="15161853" address="S 22nd St" type="OFFENSE" age="" gender="" description="*********************************************** &lt;br/&gt;3921(a), Theft by Unlawful Taking or Disposition - Movable item&lt;br/&gt;"/><marker lat="40.418386917969073" lng="-80.005778642166916" zone="Zone 3" incidentdate="2015-08-27" incidenttime="14:30:00" incidentnumber="15161738" address="100 block Freeland St" type="OFFENSE" age="" gender="" description="*********************************************** &lt;br/&gt;2706, Terroristic Threats.&lt;br/&gt;"/><marker lat="40.426326713614309" lng="-80.002572131184493" zone="Zone 3" incidentdate="2015-08-27" incidenttime="19:00:00" incidentnumber="15162003" address="300 block Kambach St" type="OFFENSE" age="" gender="" description="*********************************************** &lt;br/&gt;9999, 9999 - (Misc. Incident):&lt;br/&gt;"/><marker lat="40.435826843955446" lng="-79.895974600322745" zone="Zone 4" incidentdate="2015-08-27" incidenttime="16:54:00" incidentnumber="15161462" address="Henrietta St &amp; S Braddock Ave" type="OFFENSE" age="" gender="" description="*********************************************** &lt;br/&gt;3921(a), Theft by Unlawful Taking or Disposition - Movable item&lt;br/&gt;3921, Theft by Unlawful Taking or Disposition.&lt;br/&gt;1501, Drivers Required to be Licensed.&lt;br/&gt;3733, Fleeing or Attempting to Elude Police Officer&lt;br/&gt;3736, Reckless Driving&lt;br/&gt;3925, Receiving Stolen Property.&lt;br/&gt;"/><marker lat="40.426153406322079" lng="-79.967474461489388" zone="Zone 3" incidentdate="2015-08-27" incidenttime="05:45:00" incidentnumber="15161488" address="2700 block Sarah St" type="OFFENSE" age="" gender="" description="*********************************************** &lt;br/&gt;9999, 9999 - (Misc. Incident):&lt;br/&gt;"/><marker lat="40.452454267295195" lng="-80.014060622601633" zone="Zone 1" incidentdate="2015-08-27" incidenttime="08:00:00" incidentnumber="15161388" address="800 block Western Ave" type="OFFENSE" age="" gender="" description="*********************************************** &lt;br/&gt;9999, 9999 - (Misc. Incident):&lt;br/&gt;"/><marker lat="40.3944164" lng="-80.0218229" zone="Zone 6" incidentdate="2015-08-27" incidenttime="15:51:00" incidentnumber="15161789" address="900 block Trelona Way" type="OFFENSE" age="" gender="" description="*********************************************** &lt;br/&gt;13(a)(31), Marijuana: Possession Small Amount&lt;br/&gt;13(a)(16), Possession of Controlled Substance&lt;br/&gt;13(a)(32), Paraphernalia - Use or Possession&lt;br/&gt;5121, Escape.&lt;br/&gt;9501, Bench Warrant&lt;br/&gt;"/><marker lat="40.3998366" lng="-80.0278762" zone="Zone 6" incidentdate="2015-08-27" incidenttime="05:50:00" incidentnumber="15161492" address="300 block Ingomar St" type="OFFENSE" age="" gender="" description="*********************************************** &lt;br/&gt;2701, Simple Assault.&lt;br/&gt;2902, Unlawful Restraint.&lt;br/&gt;3701, Robbery.&lt;br/&gt;2903, False Imprisonment.&lt;br/&gt;903, Criminal Conspiracy.&lt;br/&gt;"/><marker lat="40.442888113190847" lng="-79.997936520552642" zone="Zone 2" incidentdate="2015-08-27" incidenttime="12:15:00" incidentnumber="15161670" address="900 block Liberty Ave" type="OFFENSE" age="" gender="" description="*********************************************** &lt;br/&gt;3502, Burglary.&lt;br/&gt;"/><marker lat="40.437694537589067" lng="-79.972643159209809" zone="Zone 2" incidentdate="2015-08-27" incidenttime="16:45:00" incidentnumber="15161863" address="Birmingham Brg &amp; 5th Ave" type="OFFENSE" age="" gender="" description="*********************************************** &lt;br/&gt;3304, Criminal Mischief.&lt;br/&gt;3934, Theft from Vehicle&lt;br/&gt;"/><marker lat="40.414365639085922" lng="-79.990515118133288" zone="Zone 3" incidentdate="2015-08-27" incidenttime="10:31:00" incidentnumber="15161601" address="Bausman St &amp; Knox Ave" type="OFFENSE" age="" gender="" description="*********************************************** &lt;br/&gt;4914, False Identification to Law Enforcement Authorities&lt;br/&gt;3714, Careless Driving&lt;br/&gt;1543, Driving While Operating Privilege is Suspended or Revoked.&lt;br/&gt;"/><marker lat="40.421930837424696" lng="-79.962761080771699" zone="Zone 3" incidentdate="2015-08-27" incidenttime="09:30:00" incidentnumber="15161589" address="2000 block Jane St" type="OFFENSE" age="" gender="" description="*********************************************** &lt;br/&gt;3934, Theft from Vehicle&lt;br/&gt;"/><marker lat="40.450892721440539" lng="-80.000843891836467" zone="Zone 1" incidentdate="2015-08-27" incidenttime="05:10:00" incidentnumber="15161551" address="300 block Cedar Ave" type="OFFENSE" age="" gender="" description="*********************************************** &lt;br/&gt;2701, Simple Assault.&lt;br/&gt;"/><marker lat="40.399798282486785" lng="-79.98914686757854" zone="Zone 3" incidentdate="2015-08-27" incidenttime="11:10:00" incidentnumber="15161625" address="600 block Brownsville Rd" type="OFFENSE" age="" gender="" description="*********************************************** &lt;br/&gt;9122, Miscellaneous Fire Vehicle Investigation to Continue&lt;br/&gt;"/><marker lat="40.473927946275474" lng="-80.028829566091972" zone="Zone 1" incidentdate="2015-08-27" incidenttime="16:30:00" incidentnumber="15161801" address="3100 block Brighton Rd" type="OFFENSE" age="" gender="" description="*********************************************** &lt;br/&gt;1543, Driving While Operating Privilege is Suspended or Revoked.&lt;br/&gt;3714, Careless Driving&lt;br/&gt;3802(d)(2), DUI - Drug - Impaired Ability&lt;br/&gt;"/><marker lat="40.435378364732685" lng="-79.930636640063838" zone="Zone 4" incidentdate="2015-08-27" incidenttime="17:00:00" incidentnumber="15161872" address="Murdoch Rd &amp; Bartlett St" type="OFFENSE" age="" gender="" description="*********************************************** &lt;br/&gt;9999, 9999 - (Misc. Incident):&lt;br/&gt;"/><marker lat="40.478038107418683" lng="-80.001803139555449" zone="Zone 1" incidentdate="2015-08-27" incidenttime="22:45:00" incidentnumber="15162055" address="1300 block Chicago St" type="OFFENSE" age="" gender="" description="*********************************************** &lt;br/&gt;2709(a)(1), Harassment by Physical Contact, or Attempts or Threats&lt;br/&gt;"/><marker lat="40.478640841435329" lng="-79.922854979757489" zone="Zone 5" incidentdate="2015-08-27" incidenttime="06:45:00" incidentnumber="15161518" address="5600 block Callowhill St" type="OFFENSE" age="" gender="" description="*********************************************** &lt;br/&gt;3934, Theft from Vehicle&lt;br/&gt;"/><marker lat="40.399798282486785" lng="-79.98914686757854" zone="Zone 3" incidentdate="2015-08-27" incidenttime="15:54:00" incidentnumber="15161779" address="1600 block Brownsville Rd" type="OFFENSE" age="" gender="" description="*********************************************** &lt;br/&gt;3743, Accidents Involving Damage to Attended Veh. or Property&lt;br/&gt;"/><marker lat="40.488081814906529" lng="-79.894317224387123" zone="Zone 5" incidentdate="2015-08-27" incidenttime="14:15:00" incidentnumber="15161723" address="900 block Freeport Rd" type="OFFENSE" age="" gender="" description="*********************************************** &lt;br/&gt;3503(b)(1)(ii), Defiant Trespass Notice Posted by Sign(s)&lt;br/&gt;5104, Resisting Arrest or Other Law Enforcement.&lt;br/&gt;3929, Retail Theft.&lt;br/&gt;"/><marker lat="40.430575816928183" lng="-80.000484988916114" zone="Zone 3" incidentdate="2015-08-27" incidenttime="00:30:00" incidentnumber="15161762" address="S 1st St &amp; E Carson St" type="OFFENSE" age="" gender="" description="*********************************************** &lt;br/&gt;3745, Accidents Involving Damage to Unattended Veh.or Prop.&lt;br/&gt;"/><marker lat="40.441351621082177" lng="-79.932325295746764" zone="Zone 4" incidentdate="2015-08-27" incidenttime="09:30:00" incidentnumber="15161718" address="1400 block Bennington Ave" type="OFFENSE" age="" gender="" description="*********************************************** &lt;br/&gt;3921, Theft by Unlawful Taking or Disposition.&lt;br/&gt;"/><marker lat="40.472817689974569" lng="-79.958807531817058" zone="Zone 2" incidentdate="2015-08-27" incidenttime="10:11:00" incidentnumber="15161596" address="Butler St &amp; 46th St" type="OFFENSE" age="" gender="" description="*********************************************** &lt;br/&gt;9489, Found Property&lt;br/&gt;"/><marker lat="40.480563781643504" lng="-80.044363663436272" zone="Zone 1" incidentdate="2015-08-27" incidenttime="17:50:00" incidentnumber="15161862" address="3500 block elmhurst Ave" type="OFFENSE" age="" gender="" description="*********************************************** &lt;br/&gt;2709(a)(5), Harassment Communicates Repeatedly in Anonymous Manner&lt;br/&gt;"/><marker lat="40.474259937428243" lng="-80.010532705998429" zone="Zone 1" incidentdate="2015-08-27" incidenttime="09:00:00" incidentnumber="15161577" address="200 block Kennedy Ave" type="OFFENSE" age="" gender="" description="*********************************************** &lt;br/&gt;029, Missing Juvenile&lt;br/&gt;"/><marker lat="40.474595026755523" lng="-79.961273101569773" zone="Zone 2" incidentdate="2015-08-27" incidenttime="10:00:00" incidentnumber="15161612" address="4600 block Hatfield St" type="OFFENSE" age="" gender="" description="*********************************************** &lt;br/&gt;3934, Theft from Vehicle&lt;br/&gt;"/><marker lat="40.5420360" lng="-79.8352670" zone="Zone 6" incidentdate="2015-08-27" incidenttime="20:07:00" incidentnumber="15161975" address="1200 block Gulf Way" type="OFFENSE" age="" gender="" description="*********************************************** &lt;br/&gt;3921, Theft by Unlawful Taking or Disposition.&lt;br/&gt;"/><marker lat="40.450771945757239" lng="-79.966538744776344" zone="Zone 2" incidentdate="2015-08-27" incidenttime="10:30:00" incidentnumber="15161609" address="600 block Wandless St" type="OFFENSE" age="" gender="" description="*********************************************** &lt;br/&gt;3304, Criminal Mischief.&lt;br/&gt;"/><marker lat="40.410544665927382" lng="-79.996947170934803" zone="Zone 3" incidentdate="2015-08-27" incidenttime="14:00:00" incidentnumber="15161885" address="100 block Tarragonna St" type="OFFENSE" age="" gender="" description="*********************************************** &lt;br/&gt;3921(a), Theft by Unlawful Taking or Disposition - Movable item&lt;br/&gt;"/><marker lat="40.461348855992995" lng="-79.948480268936891" zone="Zone 5" incidentdate="2015-08-27" incidenttime="17:23:00" incidentnumber="15161837" address="State Way &amp; Liberty Ave" type="OFFENSE" age="" gender="" description="*********************************************** &lt;br/&gt;3701, Robbery.&lt;br/&gt;"/><marker lat="40.410441886301861" lng="-80.024947612351937" zone="Zone 6" incidentdate="2015-08-27" incidenttime="15:51:00" incidentnumber="15107898" address="1600 block Broadway Ave" type="ARREST" age="35" gender="F" description="*********************************************** &lt;br/&gt;2702, Aggravated Assault.&lt;br/&gt;1543, Driving While Operating Privilege is Suspended or Revoked.&lt;br/&gt;3736, Reckless Driving&lt;br/&gt;2705, Recklessly Endangering Another Person.&lt;br/&gt;"/><marker lat="40.4620994" lng="-79.9883381" zone="Zone 1" incidentdate="2015-08-27" incidenttime="16:15:00" incidentnumber="15161774" address="200 block Homer St" type="ARREST" age="78" gender="M" description="*********************************************** &lt;br/&gt;2701, Simple Assault.&lt;br/&gt;"/><marker lat="40.438835055288095" lng="-79.98398395634625" zone="Zone 2" incidentdate="2015-08-27" incidenttime="17:30:00" incidentnumber="15161813" address="Our Way &amp; Vine St" type="ARREST" age="51" gender="M" description="*********************************************** &lt;br/&gt;13(a)(32), Paraphernalia - Use or Possession&lt;br/&gt;"/><marker lat="40.420731122796447" lng="-80.000074748049201" zone="Zone 3" incidentdate="2015-08-27" incidenttime="02:23:00" incidentnumber="15161438" address="400 block E Warrington Ave" type="ARREST" age="53" gender="M" description="*********************************************** &lt;br/&gt;2701, Simple Assault.&lt;br/&gt;5104, Resisting Arrest or Other Law Enforcement.&lt;br/&gt;"/><marker lat="40.425174595795802" lng="-80.004005135762398" zone="Zone 3" incidentdate="2015-08-27" incidenttime="18:15:00" incidentnumber="15082087" address="Harwood St" type="ARREST" age="21" gender="F" description="*********************************************** &lt;br/&gt;9015, Failure To Appear/Arrest on Attachment Order&lt;br/&gt;3921(a), Theft by Unlawful Taking or Disposition - Movable item&lt;br/&gt;3925, Receiving Stolen Property.&lt;br/&gt;3921, Theft by Unlawful Taking or Disposition.&lt;br/&gt;1501, Drivers Required to be Licensed.&lt;br/&gt;3928, Unauthorized Use of Automobile and Other Vehicles.&lt;br/&gt;"/><marker lat="40.488081814906529" lng="-79.894317224387123" zone="Zone 5" incidentdate="2015-08-27" incidenttime="14:15:00" incidentnumber="15161723" address="900 block Freeport Rd" type="ARREST" age="40" gender="M" description="*********************************************** &lt;br/&gt;3503(b)(1)(ii), Defiant Trespass Notice Posted by Sign(s)&lt;br/&gt;5104, Resisting Arrest or Other Law Enforcement.&lt;br/&gt;3929, Retail Theft.&lt;br/&gt;"/><marker lat="40.439706788937407" lng="-79.970489397436253" zone="Zone 2" incidentdate="2015-08-27" incidenttime="18:50:00" incidentnumber="14099712" address="Burrows St &amp; Bentley Dr" type="ARREST" age="27" gender="M" description="*********************************************** &lt;br/&gt;13(a)(31), Marijuana: Possession Small Amount&lt;br/&gt;4910, Tampering with or Fabricating Physical Evidence.&lt;br/&gt;"/><marker lat="40.454038272737556" lng="-79.867341042290406" zone="Zone 5" incidentdate="2015-08-27" incidenttime="01:30:00" incidentnumber="15161416" address="2200 block Wilner Dr" type="ARREST" age="38" gender="F" description="*********************************************** &lt;br/&gt;5105, Hindering Apprehension or Prosecution.&lt;br/&gt;"/><marker lat="40.42695519606621" lng="-80.005599666575392" zone="Zone 3" incidentdate="2015-08-27" incidenttime="21:59:00" incidentnumber="15162033" address="Bailey Ave" type="ARREST" age="31" gender="F" description="*********************************************** &lt;br/&gt;3802(a)(1), DUI - General Impairment&lt;br/&gt;3802(c), DUI - Highest Rate of Alcohol - BAC &gt;= .16%&lt;br/&gt;"/><marker lat="40.414365639085922" lng="-79.990515118133288" zone="Zone 3" incidentdate="2015-08-27" incidenttime="10:59:00" incidentnumber="15161601" address="Bausman St &amp; Knox Ave" type="ARREST" age="45" gender="F" description="*********************************************** &lt;br/&gt;4914, False Identification to Law Enforcement Authorities&lt;br/&gt;3714, Careless Driving&lt;br/&gt;1543, Driving While Operating Privilege is Suspended or Revoked.&lt;br/&gt;"/><marker lat="40.46755429268579" lng="-79.919308675599808" zone="Zone 5" incidentdate="2015-08-27" incidenttime="11:50:00" incidentnumber="15161572" address="700 block Sheridan Ave" type="ARREST" age="67" gender="M" description="*********************************************** &lt;br/&gt;4914, False Identification to Law Enforcement Authorities&lt;br/&gt;2701, Simple Assault.&lt;br/&gt;"/><marker lat="40.466877756870879" lng="-79.994177935104844" zone="Zone 1" incidentdate="2015-08-27" incidenttime="19:00:00" incidentnumber="15161915" address="100 block Rhine Pl" type="ARREST" age="24" gender="M" description="*********************************************** &lt;br/&gt;2701, Simple Assault.&lt;br/&gt;2706, Terroristic Threats.&lt;br/&gt;13(a)(32), Paraphernalia - Use or Possession&lt;br/&gt;"/><marker lat="40.456515048695316" lng="-80.016515559088219" zone="Zone 1" incidentdate="2015-08-27" incidenttime="01:42:00" incidentnumber="15151357" address="1500 block Brighton Rd" type="ARREST" age="33" gender="M" description="*********************************************** &lt;br/&gt;13(a)(32), Paraphernalia - Use or Possession&lt;br/&gt;13(a)(16), Possession of Controlled Substance&lt;br/&gt;13(a)(30), Possession w/ Intent to Del. Controlled Substance&lt;br/&gt;"/><marker lat="40.454038272737556" lng="-79.867341042290406" zone="Zone 5" incidentdate="2015-08-27" incidenttime="00:24:00" incidentnumber="15105546" address="2200 block Wilner Dr" type="ARREST" age="22" gender="M" description="*********************************************** &lt;br/&gt;2709(a)(1), Harassment by Physical Contact, or Attempts or Threats&lt;br/&gt;2706, Terroristic Threats.&lt;br/&gt;"/><marker lat="40.458124412082178" lng="-79.893503500341438" zone="Zone 5" incidentdate="2015-08-27" incidenttime="15:54:00" incidentnumber="15161776" address="7300 block Race St" type="ARREST" age="21" gender="M" description="*********************************************** &lt;br/&gt;6106, Firearms not to be Carried without a License.&lt;br/&gt;4910, Tampering with or Fabricating Physical Evidence.&lt;br/&gt;6105(a)(1), Persons not to possess, use, manufacture, control, sell or transfer firearms: Former convict enumerated in subsection (b)&lt;br/&gt;"/><marker lat="40.45310196972688" lng="-80.019429448405077" zone="Zone 1" incidentdate="2015-08-27" incidenttime="19:40:00" incidentnumber="15161940" address="W North Ave &amp; Allegheny Ave" type="ARREST" age="16" gender="F" description="*********************************************** &lt;br/&gt;4910, Tampering with or Fabricating Physical Evidence.&lt;br/&gt;903, Criminal Conspiracy.&lt;br/&gt;3736, Reckless Driving&lt;br/&gt;3925, Receiving Stolen Property.&lt;br/&gt;5104, Resisting Arrest or Other Law Enforcement.&lt;br/&gt;3502, Burglary.&lt;br/&gt;1786, Required Financial Responsibility.&lt;br/&gt;3733, Fleeing or Attempting to Elude Police Officer&lt;br/&gt;5121, Escape.&lt;br/&gt;3921(a), Theft by Unlawful Taking or Disposition - Movable item&lt;br/&gt;1501, Drivers Required to be Licensed.&lt;br/&gt;3304, Criminal Mischief.&lt;br/&gt;"/><marker lat="40.4026333" lng="-80.0308698" zone="Zone 6" incidentdate="2015-08-27" incidenttime="20:08:00" incidentnumber="15161961" address="2300 block Broadway Ave" type="ARREST" age="34" gender="F" description="*********************************************** &lt;br/&gt;13(a)(32), Paraphernalia - Use or Possession&lt;br/&gt;"/><marker lat="40.457396684455787" lng="-79.896297857079958" zone="Zone 5" incidentdate="2015-08-27" incidenttime="22:12:00" incidentnumber="15162047" address="Frankstown Ave &amp; N Homewood Ave" type="ARREST" age="37" gender="F" description="*********************************************** &lt;br/&gt;2702, Aggravated Assault.&lt;br/&gt;3701, Robbery.&lt;br/&gt;"/><marker lat="40.397353293917568" lng="-79.986790082191661" zone="Zone 3" incidentdate="2015-08-27" incidenttime="15:30:00" incidentnumber="15161707" address="1800 block Concordia St" type="ARREST" age="35" gender="M" description="*********************************************** &lt;br/&gt;2702, Aggravated Assault.&lt;br/&gt;"/><marker lat="40.447070656722659" lng="-79.895151948393476" zone="Zone 4" incidentdate="2015-08-27" incidenttime="15:15:00" incidentnumber="15056061" address="7600 block Penn Ave" type="ARREST" age="43" gender="F" description="*********************************************** &lt;br/&gt;3927, Theft by Failure to Make Required Disp. of Funds&lt;br/&gt;9015, Failure To Appear/Arrest on Attachment Order&lt;br/&gt;"/><marker lat="40.437078053893849" lng="-79.961539715931224" zone="Zone 4" incidentdate="2015-08-27" incidenttime="17:45:00" incidentnumber="15158494" address="300 block Halket St" type="ARREST" age="19" gender="M" description="*********************************************** &lt;br/&gt;2501, Criminal Homicide.&lt;br/&gt;4910, Tampering with or Fabricating Physical Evidence.&lt;br/&gt;2705, Recklessly Endangering Another Person.&lt;br/&gt;6106, Firearms not to be Carried without a License.&lt;br/&gt;"/><marker lat="40.3944164" lng="-80.0218229" zone="Zone 6" incidentdate="2015-08-27" incidenttime="15:51:00" incidentnumber="15161789" address="900 block Trelona Way" type="ARREST" age="35" gender="F" description="*********************************************** &lt;br/&gt;13(a)(31), Marijuana: Possession Small Amount&lt;br/&gt;13(a)(16), Possession of Controlled Substance&lt;br/&gt;13(a)(32), Paraphernalia - Use or Possession&lt;br/&gt;5121, Escape.&lt;br/&gt;9501, Bench Warrant&lt;br/&gt;"/><marker lat="40.435066879207852" lng="-79.945057166199646" zone="Zone 4" incidentdate="2015-08-27" incidenttime="08:34:00" incidentnumber="15148493" address="Blvd Of The Allies Ramp &amp; Panther Hollow Rd" type="ARREST" age="19" gender="M" description="*********************************************** &lt;br/&gt;2702, Aggravated Assault.&lt;br/&gt;2709(a), Harassment.&lt;br/&gt;5503, Disorderly Conduct.&lt;br/&gt;5505, Public Drunkenness&lt;br/&gt;601.10 (a), Spitting&lt;br/&gt;6308(a), Underage Purchase, Consume, Possessed or Transport Liquor&lt;br/&gt;5104, Resisting Arrest or Other Law Enforcement.&lt;br/&gt;2706, Terroristic Threats.&lt;br/&gt;"/><marker lat="40.419350328866692" lng="-79.935939333733572" zone="Zone 4" incidentdate="2015-08-27" incidenttime="08:58:00" incidentnumber="15161530" address="Bigelow St" type="ARREST" age="36" gender="F" description="*********************************************** &lt;br/&gt;2701(a)(3), Simple Assault - Attempts by Physical Menace&lt;br/&gt;2709(a)(1), Harassment by Physical Contact, or Attempts or Threats&lt;br/&gt;2701, Simple Assault.&lt;br/&gt;2701(a)(1), Simple Assault - Intent., Know., Reckless.Cause Bod. Injury&lt;br/&gt;3503(b.1), Criminal Trespass - Simple Trespasser&lt;br/&gt;"/><marker lat="40.435826843955446" lng="-79.895974600322745" zone="Zone 4" incidentdate="2015-08-27" incidenttime="17:00:00" incidentnumber="15161462" address="Henrietta St &amp; S Braddock Ave" type="ARREST" age="15" gender="M" description="*********************************************** &lt;br/&gt;3921(a), Theft by Unlawful Taking or Disposition - Movable item&lt;br/&gt;3921, Theft by Unlawful Taking or Disposition.&lt;br/&gt;1501, Drivers Required to be Licensed.&lt;br/&gt;3733, Fleeing or Attempting to Elude Police Officer&lt;br/&gt;3736, Reckless Driving&lt;br/&gt;3925, Receiving Stolen Property.&lt;br/&gt;"/><marker lat="40.45310196972688" lng="-80.019429448405077" zone="Zone 1" incidentdate="2015-08-27" incidenttime="19:40:00" incidentnumber="15161940" address="W North Ave &amp; Allegheny Ave" type="ARREST" age="17" gender="M" description="*********************************************** &lt;br/&gt;4910, Tampering with or Fabricating Physical Evidence.&lt;br/&gt;903, Criminal Conspiracy.&lt;br/&gt;3736, Reckless Driving&lt;br/&gt;3925, Receiving Stolen Property.&lt;br/&gt;5104, Resisting Arrest or Other Law Enforcement.&lt;br/&gt;3502, Burglary.&lt;br/&gt;1786, Required Financial Responsibility.&lt;br/&gt;3733, Fleeing or Attempting to Elude Police Officer&lt;br/&gt;5121, Escape.&lt;br/&gt;3921(a), Theft by Unlawful Taking or Disposition - Movable item&lt;br/&gt;1501, Drivers Required to be Licensed.&lt;br/&gt;3304, Criminal Mischief.&lt;br/&gt;"/><marker lat="40.420731122796447" lng="-80.000074748049201" zone="Zone 3" incidentdate="2015-08-27" incidenttime="02:23:00" incidentnumber="15161438" address="400 block E Warrington Ave" type="ARREST" age="46" gender="F" description="*********************************************** &lt;br/&gt;2701, Simple Assault.&lt;br/&gt;5104, Resisting Arrest or Other Law Enforcement.&lt;br/&gt;"/><marker lat="40.457396684455787" lng="-79.896297857079958" zone="Zone 5" incidentdate="2015-08-27" incidenttime="22:15:00" incidentnumber="15162047" address="Frankstown Ave &amp; N Homewood Ave" type="ARREST" age="35" gender="F" description="*********************************************** &lt;br/&gt;2702, Aggravated Assault.&lt;br/&gt;3701, Robbery.&lt;br/&gt;"/><marker lat="40.434696587775576" lng="-79.996300985228572" zone="Zone 2" incidentdate="2015-08-27" incidenttime="11:00:00" incidentnumber="15155905" address="600 block 1st Ave" type="ARREST" age="23" gender="M" description="*********************************************** &lt;br/&gt;2706, Terroristic Threats.&lt;br/&gt;2701(a)(3), Simple Assault - Attempts by Physical Menace&lt;br/&gt;"/><marker lat="40.473927946275474" lng="-80.028829566091972" zone="Zone 1" incidentdate="2015-08-27" incidenttime="17:05:00" incidentnumber="15161801" address="3100 block Brighton Rd" type="ARREST" age="54" gender="M" description="*********************************************** &lt;br/&gt;1543, Driving While Operating Privilege is Suspended or Revoked.&lt;br/&gt;3714, Careless Driving&lt;br/&gt;3802(d)(2), DUI - Drug - Impaired Ability&lt;br/&gt;"/><marker lat="40.458521090086435" lng="-80.015890258192599" zone="Zone 1" incidentdate="2015-08-27" incidenttime="19:15:00" incidentnumber="15139653" address="1700 block Brighton Rd" type="ARREST" age="46" gender="M" description="*********************************************** &lt;br/&gt;3925, Receiving Stolen Property.&lt;br/&gt;"/><marker lat="40.434696587775576" lng="-79.996300985228572" zone="Zone 2" incidentdate="2015-08-27" incidenttime="08:30:00" incidentnumber="15121125" address="600 block 1st Ave" type="ARREST" age="33" gender="F" description="*********************************************** &lt;br/&gt;2701, Simple Assault.&lt;br/&gt;4304(a)(1), Endangering Welfare of Children - Course of Conduct Enhanced&lt;br/&gt;"/><marker lat="40.397353293917568" lng="-79.986790082191661" zone="Zone 3" incidentdate="2015-08-27" incidenttime="15:30:00" incidentnumber="15161707" address="1800 block Concordia St" type="ARREST" age="33" gender="M" description="*********************************************** &lt;br/&gt;2702, Aggravated Assault.&lt;br/&gt;"/><marker lat="40.3998366" lng="-80.0278762" zone="Zone 6" incidentdate="2015-08-27" incidenttime="07:49:00" incidentnumber="15161492" address="300 block Ingomar St" type="ARREST" age="35" gender="M" description="*********************************************** &lt;br/&gt;2701, Simple Assault.&lt;br/&gt;2902, Unlawful Restraint.&lt;br/&gt;3701, Robbery.&lt;br/&gt;2903, False Imprisonment.&lt;br/&gt;903, Criminal Conspiracy.&lt;br/&gt;"/><marker lat="40.479829245655225" lng="-80.001901444196207" zone="Zone 1" incidentdate="2015-08-27" incidenttime="21:20:00" incidentnumber="15162005" address="400 block Mt Pleasant Rd" type="ARREST" age="54" gender="M" description="*********************************************** &lt;br/&gt;13(a)(31), Marijuana: Possession Small Amount&lt;br/&gt;9501, Bench Warrant&lt;br/&gt;5505, Public Drunkenness&lt;br/&gt;"/><marker lat="40.384450846823682" lng="-79.983157841130748" zone="Zone 3" incidentdate="2015-08-27" incidenttime="16:00:00" incidentnumber="15145689" address="200 block Maytide St" type="ARREST" age="24" gender="M" description="*********************************************** &lt;br/&gt;2701, Simple Assault.&lt;br/&gt;"/><marker lat="40.472251886400727" lng="-79.928338201140335" zone="Zone 5" incidentdate="2015-08-27" incidenttime="04:00:00" incidentnumber="15161460" address="5500 block Stanton Ave" type="ARREST" age="21" gender="M" description="*********************************************** &lt;br/&gt;3302, Causing or Risking Catastrophe.&lt;br/&gt;3301, Arson&lt;br/&gt;"/><marker lat="40.437850264562179" lng="-80.004567110517371" zone="Zone 2" incidentdate="2015-08-27" incidenttime="02:49:00" incidentnumber="15161458" address="Market St" type="ARREST" age="41" gender="F" description="*********************************************** &lt;br/&gt;9501, Bench Warrant&lt;br/&gt;"/><marker lat="40.395220820695485" lng="-80.022485571709225" zone="Zone 6" incidentdate="2015-08-27" incidenttime="15:51:00" incidentnumber="15140785" address="600 block Brookline Blvd" type="ARREST" age="35" gender="F" description="*********************************************** &lt;br/&gt;4106, Access Device Fraud&lt;br/&gt;3921, Theft by Unlawful Taking or Disposition.&lt;br/&gt;"/><marker lat="40.425174595795802" lng="-80.004005135762398" zone="Zone 3" incidentdate="2015-08-27" incidenttime="18:15:00" incidentnumber="15083707" address="Harwood St" type="ARREST" age="21" gender="F" description="*********************************************** &lt;br/&gt;2706, Terroristic Threats.&lt;br/&gt;2709, Harassment (Non-Specific)&lt;br/&gt;"/><marker lat="40.450892721440539" lng="-80.000843891836467" zone="Zone 1" incidentdate="2015-08-27" incidenttime="17:45:00" incidentnumber="15161832" address="300 block Cedar Ave" type="ARREST" age="46" gender="F" description="*********************************************** &lt;br/&gt;3929, Retail Theft.&lt;br/&gt;13(a)(32), Paraphernalia - Use or Possession&lt;br/&gt;"/><marker lat="40.462479277317655" lng="-80.008566791082885" zone="Zone 1" incidentdate="2015-08-27" incidenttime="18:00:00" incidentnumber="15161860" address="1900 block Federal Ext N" type="ARREST" age="45" gender="F" description="*********************************************** &lt;br/&gt;2701, Simple Assault.&lt;br/&gt;5503(a)(1), DISORDERLY CONDUCT - ENGAGE IN FIGHTING&lt;br/&gt;"/><marker lat="40.451300883007008" lng="-79.883511892551297" zone="Zone OSC" incidentdate="2015-08-27" incidenttime="18:04:00" incidentnumber="15161932" address="Singer Ave" type="ARREST" age="58" gender="M" description="*********************************************** &lt;br/&gt;13(a)(16), Possession of Controlled Substance&lt;br/&gt;13(a)(30), Possession w/ Intent to Del. Controlled Substance&lt;br/&gt;13(a)(32), Paraphernalia - Use or Possession&lt;br/&gt;"/></markers>
