<?xml version="1.0"?>
<markers><marker lat="40.469543952750037" lng="-80.035237322815448" zone="Zone 1" incidentdate="2016-02-25" incidenttime="05:35:00" incidentnumber="16034351" address="Boston St &amp; Holbrook St" type="OFFENSE" age="" gender="" description="*********************************************** &lt;br/&gt;3926(a)(1), Theft of Services; Cable, Gas, Taxi, Bill, Tab, etc.&lt;br/&gt;"/><marker lat="40.455504998738647" lng="-80.007850467221047" zone="Zone 5" incidentdate="2016-02-25" incidenttime="08:55:00" incidentnumber="16034398" address="100 block N. Evaline St" type="OFFENSE" age="" gender="" description="*********************************************** &lt;br/&gt;3921(a), Theft by Unlawful Taking or Disposition - Movable item&lt;br/&gt;"/><marker lat="40.451209746298005" lng="-80.021965140261187" zone="Zone 1" incidentdate="2016-02-25" incidenttime="09:30:00" incidentnumber="16034717" address="1200 block Western Ave" type="OFFENSE" age="" gender="" description="*********************************************** &lt;br/&gt;9126, Investigation&lt;br/&gt;"/><marker lat="40.456034149096979" lng="-79.899181661674433" zone="Zone 5" incidentdate="2016-02-25" incidenttime="01:58:00" incidentnumber="16034276" address="700 block N Lang Ave" type="OFFENSE" age="" gender="" description="*********************************************** &lt;br/&gt;3921, Theft by Unlawful Taking or Disposition.&lt;br/&gt;"/><marker lat="40.455921176209607" lng="-80.027004941714608" zone="Zone 1" incidentdate="2016-02-25" incidenttime="08:20:00" incidentnumber="16034382" address="1400 block N Franklin St" type="OFFENSE" age="" gender="" description="*********************************************** &lt;br/&gt;3304, Criminal Mischief.&lt;br/&gt;"/><marker lat="40.461853624774726" lng="-79.897416070395224" zone="Zone 5" incidentdate="2016-02-25" incidenttime="00:01:00" incidentnumber="16034634" address="7100 block Mt Vernon St" type="OFFENSE" age="" gender="" description="*********************************************** &lt;br/&gt;2709, Harassment (Non-Specific)&lt;br/&gt;"/><marker lat="40.409524221362041" lng="-79.975463394369115" zone="Zone 3" incidentdate="2016-02-25" incidenttime="16:00:00" incidentnumber="16034626" address="800 block Schuler St" type="OFFENSE" age="" gender="" description="*********************************************** &lt;br/&gt;3921, Theft by Unlawful Taking or Disposition.&lt;br/&gt;"/><marker lat="40.414297261383211" lng="-79.992977272296059" zone="Zone 3" incidentdate="2016-02-25" incidenttime="17:36:00" incidentnumber="16034661" address="Bausman St &amp; Grimes Ave" type="OFFENSE" age="" gender="" description="*********************************************** &lt;br/&gt;13(a)(16), Possession of Controlled Substance&lt;br/&gt;1543, Driving While Operating Privilege is Suspended or Revoked.&lt;br/&gt;1373, Suspension of Registration.&lt;br/&gt;"/><marker lat="40.452551254016129" lng="-79.949277413781033" zone="Zone 4" incidentdate="2016-02-25" incidenttime="13:00:00" incidentnumber="16034653" address="4700 block Centre Ave" type="OFFENSE" age="" gender="" description="*********************************************** &lt;br/&gt;3921, Theft by Unlawful Taking or Disposition.&lt;br/&gt;4106, Access Device Fraud&lt;br/&gt;"/><marker lat="40.405386615975104" lng="-79.93834574175888" zone="Zone 4" incidentdate="2016-02-25" incidenttime="18:00:00" incidentnumber="16034673" address="Winston St &amp; Trowbridge Way" type="OFFENSE" age="" gender="" description="*********************************************** &lt;br/&gt;13(a)(16), Possession of Controlled Substance&lt;br/&gt;13(a)(32), Paraphernalia - Use or Possession&lt;br/&gt;"/><marker lat="40.415724062159953" lng="-79.99311329972528" zone="Zone 3" incidentdate="2016-02-25" incidenttime="22:35:00" incidentnumber="16034814" address="300 block Zara St" type="OFFENSE" age="" gender="" description="*********************************************** &lt;br/&gt;9093, Indirect Criminal Contempt&lt;br/&gt;"/><marker lat="40.457496250609658" lng="-79.893780813635146" zone="Zone 5" incidentdate="2016-02-25" incidenttime="11:20:00" incidentnumber="16034454" address="7300 block Idlewild St" type="OFFENSE" age="" gender="" description="*********************************************** &lt;br/&gt;029, Missing Juvenile&lt;br/&gt;"/><marker lat="40.458546551514743" lng="-80.012726223345538" zone="Zone 1" incidentdate="2016-02-25" incidenttime="08:33:00" incidentnumber="16034387" address="500 block Armandale St" type="OFFENSE" age="" gender="" description="*********************************************** &lt;br/&gt;2709(a)(1), Harassment by Physical Contact, or Attempts or Threats&lt;br/&gt;"/><marker lat="40.4283603" lng="-79.9656380" zone="Zone 3" incidentdate="2016-02-25" incidenttime="05:45:00" incidentnumber="16034337" address="400 block S 27th St" type="OFFENSE" age="" gender="" description="*********************************************** &lt;br/&gt;9488, False  Burglar Alarm&lt;br/&gt;"/><marker lat="40.460690348237023" lng="-79.929027978876746" zone="Zone 5" incidentdate="2016-02-25" incidenttime="10:47:00" incidentnumber="16034438" address="200 block S Euclid Ave" type="OFFENSE" age="" gender="" description="*********************************************** &lt;br/&gt;9999, 9999 - (Misc. Incident):&lt;br/&gt;"/><marker lat="40.45413941041307" lng="-79.983034069268967" zone="Zone 2" incidentdate="2016-02-25" incidenttime="08:00:00" incidentnumber="16034384" address="2300 block Railroad St" type="OFFENSE" age="" gender="" description="*********************************************** &lt;br/&gt;3745, Accidents Involving Damage to Unattended Veh.or Prop.&lt;br/&gt;"/><marker lat="40.4712372" lng="-80.0079106" zone="Zone 1" incidentdate="2016-02-25" incidenttime="21:20:00" incidentnumber="16034778" address="2600 block Maple Ave" type="OFFENSE" age="" gender="" description="*********************************************** &lt;br/&gt;3502, Burglary.&lt;br/&gt;3921(a), Theft by Unlawful Taking or Disposition - Movable item&lt;br/&gt;"/><marker lat="40.453083606013678" lng="-80.009016805191777" zone="Zone 1" incidentdate="2016-02-25" incidenttime="04:27:00" incidentnumber="16034320" address="800 block Arch St" type="OFFENSE" age="" gender="" description="*********************************************** &lt;br/&gt;9488, False  Burglar Alarm&lt;br/&gt;"/><marker lat="40.450524087396616" lng="-79.972783406843163" zone="Zone 2" incidentdate="2016-02-25" incidenttime="14:00:00" incidentnumber="16034541" address="2500 block Bedford Ave" type="OFFENSE" age="" gender="" description="*********************************************** &lt;br/&gt;2709(a), Harassment.&lt;br/&gt;"/><marker lat="40.487551319845878" lng="-80.016020890107271" zone="Zone 1" incidentdate="2016-02-25" incidenttime="18:39:00" incidentnumber="16034697" address="3800 block Perrysville Ave" type="OFFENSE" age="" gender="" description="*********************************************** &lt;br/&gt;3921, Theft by Unlawful Taking or Disposition.&lt;br/&gt;"/><marker lat="40.451703570837729" lng="-79.967029511379309" zone="Zone 2" incidentdate="2016-02-25" incidenttime="12:33:00" incidentnumber="16034522" address="2900 block Webster Ave" type="OFFENSE" age="" gender="" description="*********************************************** &lt;br/&gt;13(a)(16), Possession of Controlled Substance&lt;br/&gt;13(a)(30), Possession w/ Intent to Del. Controlled Substance&lt;br/&gt;13(a)(32), Paraphernalia - Use or Possession&lt;br/&gt;13(a)(31)(i), Marijuana - Possess Small Amt for Personal Use&lt;br/&gt;"/><marker lat="40.433485379914181" lng="-79.91840195992782" zone="Zone 4" incidentdate="2016-02-25" incidenttime="11:00:00" incidentnumber="16034480" address="6300 block Douglas St" type="OFFENSE" age="" gender="" description="*********************************************** &lt;br/&gt;3502, Burglary.&lt;br/&gt;"/><marker lat="40.459748300051139" lng="-79.900494824700246" zone="Zone 5" incidentdate="2016-02-25" incidenttime="12:30:00" incidentnumber="16034491" address="7000 block Fielding Way" type="OFFENSE" age="" gender="" description="*********************************************** &lt;br/&gt;029, Missing Juvenile&lt;br/&gt;"/><marker lat="40.449945984416168" lng="-79.950663260585088" zone="Zone 4" incidentdate="2016-02-25" incidenttime="15:40:00" incidentnumber="16034578" address="200 block N Craig St" type="OFFENSE" age="" gender="" description="*********************************************** &lt;br/&gt;3502, Burglary.&lt;br/&gt;"/><marker lat="40.428990235576741" lng="-79.99836059977649" zone="Zone 3" incidentdate="2016-02-25" incidenttime="19:12:00" incidentnumber="16034729" address="Arlington Ave &amp; P J Mc Ardle Rdwy" type="OFFENSE" age="" gender="" description="*********************************************** &lt;br/&gt;5104, Resisting Arrest or Other Law Enforcement.&lt;br/&gt;903, Criminal Conspiracy.&lt;br/&gt;5121, Escape.&lt;br/&gt;907, Possessing Instruments of Crime.&lt;br/&gt;908, Prohibited Offensive Weapons.&lt;br/&gt;3503(b)(1)(iii), Defiant Trespass - Fencing or Other Enclosure&lt;br/&gt;"/><marker lat="40.454922126027498" lng="-80.06517260735535" zone="Zone 6" incidentdate="2016-02-25" incidenttime="22:10:00" incidentnumber="16034810" address="Tweed St &amp; Allendorf St" type="OFFENSE" age="" gender="" description="*********************************************** &lt;br/&gt;13(a)(16), Possession of Controlled Substance&lt;br/&gt;13(a)(32), Paraphernalia - Use or Possession&lt;br/&gt;9501, Bench Warrant&lt;br/&gt;4914, False Identification to Law Enforcement Authorities&lt;br/&gt;3323, Stop Signs and Yield Signs.&lt;br/&gt;"/><marker lat="40.486868894969639" lng="-79.887147317282711" zone="Zone 5" incidentdate="2016-02-25" incidenttime="13:00:00" incidentnumber="16034494" address="1000 block Freeport Rd" type="OFFENSE" age="" gender="" description="*********************************************** &lt;br/&gt;4120, Identity Theft&lt;br/&gt;"/><marker lat="40.476377925537506" lng="-80.039721353393048" zone="Zone 1" incidentdate="2016-02-25" incidenttime="11:43:00" incidentnumber="16034462" address="3400 block California Ave" type="OFFENSE" age="" gender="" description="*********************************************** &lt;br/&gt;13(a)(16), Possession of Controlled Substance&lt;br/&gt;13(a)(30), Possession w/ Intent to Del. Controlled Substance&lt;br/&gt;13(a)(32), Paraphernalia - Use or Possession&lt;br/&gt;6105(a)(1), Persons not to possess, use, manufacture, control, sell or transfer firearms: Former convict enumerated in subsection (b)&lt;br/&gt;"/><marker lat="40.484704625399004" lng="-80.042479689252673" zone="Zone 1" incidentdate="2016-02-25" incidenttime="08:30:00" incidentnumber="16034402" address="3900 block Oswald St" type="OFFENSE" age="" gender="" description="*********************************************** &lt;br/&gt;9492, Dog Bite&lt;br/&gt;"/><marker lat="40.456219220028117" lng="-80.002621271585497" zone="Zone 1" incidentdate="2016-02-25" incidenttime="00:21:00" incidentnumber="16034236" address="Cedar Ave &amp; E North Ave" type="OFFENSE" age="" gender="" description="*********************************************** &lt;br/&gt;9497, Aided Case&lt;br/&gt;"/><marker lat="40.465544170932596" lng="-79.998701084779867" zone="Zone 1" incidentdate="2016-02-25" incidenttime="16:23:00" incidentnumber="16034604" address="Brahm St" type="OFFENSE" age="" gender="" description="*********************************************** &lt;br/&gt;2701, Simple Assault.&lt;br/&gt;"/><marker lat="40.458546551514743" lng="-80.012726223345538" zone="Zone 1" incidentdate="2016-02-25" incidenttime="08:35:00" incidentnumber="16034392" address="500 block Armandale St" type="OFFENSE" age="" gender="" description="*********************************************** &lt;br/&gt;3745, Accidents Involving Damage to Unattended Veh.or Prop.&lt;br/&gt;"/><marker lat="40.440562231859715" lng="-80.006256728848371" zone="Zone 2" incidentdate="2016-02-25" incidenttime="17:15:00" incidentnumber="16034736" address="300 block Liberty Ave" type="OFFENSE" age="" gender="" description="*********************************************** &lt;br/&gt;9999, 9999 - (Misc. Incident):&lt;br/&gt;"/><marker lat="40.434753788795426" lng="-79.922832989716056" zone="Zone 4" incidentdate="2016-02-25" incidenttime="20:30:00" incidentnumber="16034758" address="Beacon St &amp; Murray Ave" type="OFFENSE" age="" gender="" description="*********************************************** &lt;br/&gt;3701, Robbery.&lt;br/&gt;"/><marker lat="40.404939361855945" lng="-79.990899233620965" zone="Zone 3" incidentdate="2016-02-25" incidenttime="13:45:00" incidentnumber="16034524" address="1100 block Brownsville Rd" type="OFFENSE" age="" gender="" description="*********************************************** &lt;br/&gt;5505, Public Drunkenness&lt;br/&gt;"/><marker lat="40.399798282486785" lng="-79.98914686757854" zone="Zone 3" incidentdate="2016-02-25" incidenttime="20:45:00" incidentnumber="16034753" address="600 block Brownsville Rd" type="OFFENSE" age="" gender="" description="*********************************************** &lt;br/&gt;13(a)(31), Marijuana: Possession Small Amount&lt;br/&gt;3334, Turning Movements and Required Signals.&lt;br/&gt;"/><marker lat="40.4374824" lng="-80.0036951" zone="Zone 2" incidentdate="2016-02-25" incidenttime="18:30:00" incidentnumber="16034704" address="Fort Pitt Blvd" type="OFFENSE" age="" gender="" description="*********************************************** &lt;br/&gt;3745, Accidents Involving Damage to Unattended Veh.or Prop.&lt;br/&gt;"/><marker lat="40.463281568869867" lng="-79.991190599907867" zone="Zone 1" incidentdate="2016-02-25" incidenttime="19:39:00" incidentnumber="16034734" address="1600 block Walz St" type="OFFENSE" age="" gender="" description="*********************************************** &lt;br/&gt;9497, Aided Case&lt;br/&gt;"/><marker lat="40.46909733410061" lng="-79.933753005864801" zone="Zone 5" incidentdate="2016-02-25" incidenttime="17:32:00" incidentnumber="16034638" address="N Aiken Ave &amp; Cornwall St" type="OFFENSE" age="" gender="" description="*********************************************** &lt;br/&gt;13(a)(16), Possession of Controlled Substance&lt;br/&gt;1501, Drivers Required to be Licensed.&lt;br/&gt;1543, Driving While Operating Privilege is Suspended or Revoked.&lt;br/&gt;4303, General Lighting Requirements.&lt;br/&gt;"/><marker lat="40.382818116302388" lng="-79.930086876449835" zone="Zone 4" incidentdate="2016-02-25" incidenttime="15:30:00" incidentnumber="16034605" address="600 block Mifflin Rd" type="OFFENSE" age="" gender="" description="*********************************************** &lt;br/&gt;3745, Accidents Involving Damage to Unattended Veh.or Prop.&lt;br/&gt;"/><marker lat="40.450966080336222" lng="-79.93359390037547" zone="Zone 4" incidentdate="2016-02-25" incidenttime="17:25:00" incidentnumber="16034660" address="5500 block Walnut St" type="OFFENSE" age="" gender="" description="*********************************************** &lt;br/&gt;3929, Retail Theft.&lt;br/&gt;"/><marker lat="40.401274152011062" lng="-79.998029200201742" zone="Zone 3" incidentdate="2016-02-25" incidenttime="14:10:00" incidentnumber="16034084" address="Nobles Ln" type="OFFENSE" age="" gender="" description="*********************************************** &lt;br/&gt;3921(a), Theft by Unlawful Taking or Disposition - Movable item&lt;br/&gt;2705, Recklessly Endangering Another Person.&lt;br/&gt;6106, Firearms not to be Carried without a License.&lt;br/&gt;2701(a)(3), Simple Assault - Attempts by Physical Menace&lt;br/&gt;"/><marker lat="40.393512865069425" lng="-80.015910794706144" zone="Zone 6" incidentdate="2016-02-25" incidenttime="05:10:00" incidentnumber="16034597" address="2400 block Starkamp St" type="OFFENSE" age="" gender="" description="*********************************************** &lt;br/&gt;3921, Theft by Unlawful Taking or Disposition.&lt;br/&gt;"/><marker lat="40.438392615435276" lng="-79.997549508675974" zone="Zone 2" incidentdate="2016-02-25" incidenttime="10:06:00" incidentnumber="16034455" address="400 block Grant St" type="OFFENSE" age="" gender="" description="*********************************************** &lt;br/&gt;2709(a)(3), Harassment No Legitimate Purpose&lt;br/&gt;"/><marker lat="40.464777832597413" lng="-79.927238406328769" zone="Zone 5" incidentdate="2016-02-25" incidenttime="16:10:00" incidentnumber="16034672" address="5700 block Rural St" type="OFFENSE" age="" gender="" description="*********************************************** &lt;br/&gt;3921, Theft by Unlawful Taking or Disposition.&lt;br/&gt;"/><marker lat="40.425515211118153" lng="-79.948927583314884" zone="Zone 4" incidentdate="2016-02-25" incidenttime="13:30:00" incidentnumber="16034552" address="300 block Greenfield Ave" type="OFFENSE" age="" gender="" description="*********************************************** &lt;br/&gt;3745, Accidents Involving Damage to Unattended Veh.or Prop.&lt;br/&gt;"/><marker lat="40.407448554705063" lng="-80.02376225838978" zone="Zone 6" incidentdate="2016-02-25" incidenttime="02:00:00" incidentnumber="16034585" address="1800 block Fallowfield Ave" type="OFFENSE" age="" gender="" description="*********************************************** &lt;br/&gt;3745, Accidents Involving Damage to Unattended Veh.or Prop.&lt;br/&gt;"/><marker lat="40.487931708692699" lng="-79.921344314148115" zone="Zone 5" incidentdate="2016-02-25" incidenttime="05:28:00" incidentnumber="16034331" address="7300 block Butler St" type="OFFENSE" age="" gender="" description="*********************************************** &lt;br/&gt;3701, Robbery.&lt;br/&gt;"/><marker lat="40.429325792231481" lng="-79.994610718042267" zone="Zone 3" incidentdate="2016-02-25" incidenttime="00:15:00" incidentnumber="16034224" address="500 block Bingham St" type="OFFENSE" age="" gender="" description="*********************************************** &lt;br/&gt;3304, Criminal Mischief.&lt;br/&gt;3934, Theft from Vehicle&lt;br/&gt;"/><marker lat="40.467215819631598" lng="-79.969886941774021" zone="Zone 2" incidentdate="2016-02-25" incidenttime="16:20:00" incidentnumber="16034620" address="36th St" type="OFFENSE" age="" gender="" description="*********************************************** &lt;br/&gt;3745, Accidents Involving Damage to Unattended Veh.or Prop.&lt;br/&gt;"/><marker lat="40.399749283018117" lng="-80.030427666580877" zone="Zone 6" incidentdate="2016-02-25" incidenttime="17:00:00" incidentnumber="16034780" address="Wenzell Pl" type="OFFENSE" age="" gender="" description="*********************************************** &lt;br/&gt;2709(a), Harassment.&lt;br/&gt;"/><marker lat="40.421798826380126" lng="-79.981722378187925" zone="Zone 3" incidentdate="2016-02-25" incidenttime="20:30:00" incidentnumber="15215956" address="1800 block Saint Paul St" type="ARREST" age="68" gender="F" description="*********************************************** &lt;br/&gt;3922, Theft by Deception.&lt;br/&gt;3921, Theft by Unlawful Taking or Disposition.&lt;br/&gt;903, Criminal Conspiracy.&lt;br/&gt;4101, Forgery.&lt;br/&gt;4105(a)(1), Bad Checks&lt;br/&gt;"/><marker lat="40.421798826380126" lng="-79.981722378187925" zone="Zone 3" incidentdate="2016-02-25" incidenttime="20:30:00" incidentnumber="15215956" address="1800 block Saint Paul St" type="ARREST" age="26" gender="F" description="*********************************************** &lt;br/&gt;3922, Theft by Deception.&lt;br/&gt;3921, Theft by Unlawful Taking or Disposition.&lt;br/&gt;903, Criminal Conspiracy.&lt;br/&gt;4101, Forgery.&lt;br/&gt;4105(a)(1), Bad Checks&lt;br/&gt;"/><marker lat="40.411998076177227" lng="-79.995149476193134" zone="Zone 3" incidentdate="2016-02-25" incidenttime="14:30:00" incidentnumber="15173155" address="400 block Moore Ave" type="ARREST" age="30" gender="F" description="*********************************************** &lt;br/&gt;3304, Criminal Mischief.&lt;br/&gt;2701, Simple Assault.&lt;br/&gt;5503(a)(1), DISORDERLY CONDUCT - ENGAGE IN FIGHTING&lt;br/&gt;"/><marker lat="40.414297261383211" lng="-79.992977272296059" zone="Zone 3" incidentdate="2016-02-25" incidenttime="17:47:00" incidentnumber="16034661" address="Bausman St &amp; Grimes Ave" type="ARREST" age="44" gender="M" description="*********************************************** &lt;br/&gt;13(a)(16), Possession of Controlled Substance&lt;br/&gt;1543, Driving While Operating Privilege is Suspended or Revoked.&lt;br/&gt;1373, Suspension of Registration.&lt;br/&gt;"/><marker lat="40.454922126027498" lng="-80.06517260735535" zone="Zone 6" incidentdate="2016-02-25" incidenttime="22:10:00" incidentnumber="16034810" address="Tweed St &amp; Allendorf St" type="ARREST" age="21" gender="M" description="*********************************************** &lt;br/&gt;13(a)(16), Possession of Controlled Substance&lt;br/&gt;13(a)(32), Paraphernalia - Use or Possession&lt;br/&gt;9501, Bench Warrant&lt;br/&gt;4914, False Identification to Law Enforcement Authorities&lt;br/&gt;3323, Stop Signs and Yield Signs.&lt;br/&gt;"/><marker lat="40.428478873788158" lng="-79.980265799395895" zone="Zone 3" incidentdate="2016-02-25" incidenttime="19:50:00" incidentnumber="15216281" address="1800 block E Carson St" type="ARREST" age="31" gender="M" description="*********************************************** &lt;br/&gt;3921, Theft by Unlawful Taking or Disposition.&lt;br/&gt;4101, Forgery.&lt;br/&gt;3927, Theft by Failure to Make Required Disp. of Funds&lt;br/&gt;"/><marker lat="40.405386615975104" lng="-79.93834574175888" zone="Zone 4" incidentdate="2016-02-25" incidenttime="18:05:00" incidentnumber="16034673" address="Winston St &amp; Trowbridge Way" type="ARREST" age="22" gender="M" description="*********************************************** &lt;br/&gt;13(a)(16), Possession of Controlled Substance&lt;br/&gt;13(a)(32), Paraphernalia - Use or Possession&lt;br/&gt;"/><marker lat="40.451703570837729" lng="-79.967029511379309" zone="Zone 2" incidentdate="2016-02-25" incidenttime="12:33:00" incidentnumber="16034522" address="2900 block Webster Ave" type="ARREST" age="22" gender="F" description="*********************************************** &lt;br/&gt;13(a)(16), Possession of Controlled Substance&lt;br/&gt;13(a)(30), Possession w/ Intent to Del. Controlled Substance&lt;br/&gt;13(a)(32), Paraphernalia - Use or Possession&lt;br/&gt;13(a)(31)(i), Marijuana - Possess Small Amt for Personal Use&lt;br/&gt;"/><marker lat="40.428990235576741" lng="-79.99836059977649" zone="Zone 3" incidentdate="2016-02-25" incidenttime="19:12:00" incidentnumber="16034729" address="Arlington Ave &amp; P J Mc Ardle Rdwy" type="ARREST" age="15" gender="M" description="*********************************************** &lt;br/&gt;5104, Resisting Arrest or Other Law Enforcement.&lt;br/&gt;903, Criminal Conspiracy.&lt;br/&gt;5121, Escape.&lt;br/&gt;907, Possessing Instruments of Crime.&lt;br/&gt;908, Prohibited Offensive Weapons.&lt;br/&gt;3503(b)(1)(iii), Defiant Trespass - Fencing or Other Enclosure&lt;br/&gt;"/><marker lat="40.401274152011062" lng="-79.998029200201742" zone="Zone 3" incidentdate="2016-02-25" incidenttime="14:10:00" incidentnumber="16034084" address="Nobles Ln" type="ARREST" age="21" gender="M" description="*********************************************** &lt;br/&gt;3921(a), Theft by Unlawful Taking or Disposition - Movable item&lt;br/&gt;2705, Recklessly Endangering Another Person.&lt;br/&gt;6106, Firearms not to be Carried without a License.&lt;br/&gt;2701(a)(3), Simple Assault - Attempts by Physical Menace&lt;br/&gt;"/><marker lat="40.399798282486785" lng="-79.98914686757854" zone="Zone 3" incidentdate="2016-02-25" incidenttime="20:31:00" incidentnumber="16034753" address="600 block Brownsville Rd" type="ARREST" age="21" gender="M" description="*********************************************** &lt;br/&gt;13(a)(31), Marijuana: Possession Small Amount&lt;br/&gt;3334, Turning Movements and Required Signals.&lt;br/&gt;"/><marker lat="40.415724062159953" lng="-79.99311329972528" zone="Zone 3" incidentdate="2016-02-25" incidenttime="22:51:00" incidentnumber="16034814" address="300 block Zara St" type="ARREST" age="31" gender="F" description="*********************************************** &lt;br/&gt;9093, Indirect Criminal Contempt&lt;br/&gt;"/><marker lat="40.479076386446295" lng="-79.999717737366538" zone="Zone 1" incidentdate="2016-02-25" incidenttime="19:50:00" incidentnumber="16029897" address="1400 block Chicago St" type="ARREST" age="15" gender="M" description="*********************************************** &lt;br/&gt;2702, Aggravated Assault.&lt;br/&gt;2701, Simple Assault.&lt;br/&gt;2709, Harassment (Non-Specific)&lt;br/&gt;2709(a), Harassment.&lt;br/&gt;903, Criminal Conspiracy.&lt;br/&gt;"/><marker lat="40.394583101227212" lng="-79.986363827932976" zone="Zone 3" incidentdate="2016-02-25" incidenttime="11:00:00" incidentnumber="16019101" address="Hornaday Rd" type="ARREST" age="29" gender="F" description="*********************************************** &lt;br/&gt;3701, Robbery.&lt;br/&gt;903, Criminal Conspiracy.&lt;br/&gt;2706, Terroristic Threats.&lt;br/&gt;2903, False Imprisonment.&lt;br/&gt;"/><marker lat="40.448791258790784" lng="-79.955695275017888" zone="Zone 4" incidentdate="2016-02-25" incidenttime="16:00:00" incidentnumber="15134698" address="4100 block Bigelow Blvd" type="ARREST" age="64" gender="M" description="*********************************************** &lt;br/&gt;2709(a)(4), Harassment Communicates Prohibited Acts&lt;br/&gt;"/><marker lat="40.428990235576741" lng="-79.99836059977649" zone="Zone 3" incidentdate="2016-02-25" incidenttime="19:12:00" incidentnumber="16034729" address="Arlington Ave &amp; P J Mc Ardle Rdwy" type="ARREST" age="18" gender="M" description="*********************************************** &lt;br/&gt;5104, Resisting Arrest or Other Law Enforcement.&lt;br/&gt;903, Criminal Conspiracy.&lt;br/&gt;5121, Escape.&lt;br/&gt;907, Possessing Instruments of Crime.&lt;br/&gt;908, Prohibited Offensive Weapons.&lt;br/&gt;3503(b)(1)(iii), Defiant Trespass - Fencing or Other Enclosure&lt;br/&gt;"/><marker lat="40.454591517408097" lng="-79.920130780447323" zone="Zone 4" incidentdate="2016-02-25" incidenttime="12:30:00" incidentnumber="16020864" address="400 block Denniston St" type="ARREST" age="27" gender="F" description="*********************************************** &lt;br/&gt;3921, Theft by Unlawful Taking or Disposition.&lt;br/&gt;"/><marker lat="40.454922126027498" lng="-80.06517260735535" zone="Zone 6" incidentdate="2016-02-25" incidenttime="22:10:00" incidentnumber="16034810" address="Tweed St &amp; Allendorf St" type="ARREST" age="30" gender="M" description="*********************************************** &lt;br/&gt;13(a)(16), Possession of Controlled Substance&lt;br/&gt;13(a)(32), Paraphernalia - Use or Possession&lt;br/&gt;9501, Bench Warrant&lt;br/&gt;4914, False Identification to Law Enforcement Authorities&lt;br/&gt;3323, Stop Signs and Yield Signs.&lt;br/&gt;"/><marker lat="40.428990235576741" lng="-79.99836059977649" zone="Zone 3" incidentdate="2016-02-25" incidenttime="19:12:00" incidentnumber="16034729" address="Arlington Ave &amp; P J Mc Ardle Rdwy" type="ARREST" age="17" gender="M" description="*********************************************** &lt;br/&gt;5104, Resisting Arrest or Other Law Enforcement.&lt;br/&gt;903, Criminal Conspiracy.&lt;br/&gt;5121, Escape.&lt;br/&gt;907, Possessing Instruments of Crime.&lt;br/&gt;908, Prohibited Offensive Weapons.&lt;br/&gt;3503(b)(1)(iii), Defiant Trespass - Fencing or Other Enclosure&lt;br/&gt;"/><marker lat="40.465544170932596" lng="-79.998701084779867" zone="Zone 1" incidentdate="2016-02-25" incidenttime="16:46:00" incidentnumber="16034604" address="Brahm St" type="ARREST" age="42" gender="F" description="*********************************************** &lt;br/&gt;2701, Simple Assault.&lt;br/&gt;"/><marker lat="40.46909733410061" lng="-79.933753005864801" zone="Zone 5" incidentdate="2016-02-25" incidenttime="17:22:00" incidentnumber="16034638" address="N Aiken Ave &amp; Cornwall St" type="ARREST" age="43" gender="M" description="*********************************************** &lt;br/&gt;13(a)(16), Possession of Controlled Substance&lt;br/&gt;1501, Drivers Required to be Licensed.&lt;br/&gt;1543, Driving While Operating Privilege is Suspended or Revoked.&lt;br/&gt;4303, General Lighting Requirements.&lt;br/&gt;"/><marker lat="40.478977929784321" lng="-79.95580013041419" zone="Zone 2" incidentdate="2016-02-25" incidenttime="18:25:00" incidentnumber="16003379" address="5100 block Berlin Way" type="ARREST" age="31" gender="M" description="*********************************************** &lt;br/&gt;13(a)(32), Paraphernalia - Use or Possession&lt;br/&gt;9015, Failure To Appear/Arrest on Attachment Order&lt;br/&gt;"/><marker lat="40.451703570837729" lng="-79.967029511379309" zone="Zone 2" incidentdate="2016-02-25" incidenttime="12:33:00" incidentnumber="16034522" address="2900 block Webster Ave" type="ARREST" age="22" gender="M" description="*********************************************** &lt;br/&gt;13(a)(16), Possession of Controlled Substance&lt;br/&gt;13(a)(30), Possession w/ Intent to Del. Controlled Substance&lt;br/&gt;13(a)(32), Paraphernalia - Use or Possession&lt;br/&gt;13(a)(31)(i), Marijuana - Possess Small Amt for Personal Use&lt;br/&gt;"/><marker lat="40.476377925537506" lng="-80.039721353393048" zone="Zone 1" incidentdate="2016-02-25" incidenttime="11:43:00" incidentnumber="16034462" address="3400 block California Ave" type="ARREST" age="23" gender="M" description="*********************************************** &lt;br/&gt;13(a)(16), Possession of Controlled Substance&lt;br/&gt;13(a)(30), Possession w/ Intent to Del. Controlled Substance&lt;br/&gt;13(a)(32), Paraphernalia - Use or Possession&lt;br/&gt;6105(a)(1), Persons not to possess, use, manufacture, control, sell or transfer firearms: Former convict enumerated in subsection (b)&lt;br/&gt;"/></markers>
