<?xml version="1.0"?>
<markers><marker lat="40.4714188" lng="-79.9329193" zone="Zone 5" incidentdate="2015-04-30" incidenttime="09:23:00" incidentnumber="15075415" address="5300 block N Aiken Ct" type="OFFENSE" age="" gender="" description="*********************************************** &lt;br/&gt;9496, Dead on Arrival (DOA)&lt;br/&gt;"/><marker lat="40.39893155872236" lng="-79.997122697571385" zone="Zone 3" incidentdate="2015-04-30" incidenttime="09:00:00" incidentnumber="15075427" address="1500 block Cloverdale St" type="OFFENSE" age="" gender="" description="*********************************************** &lt;br/&gt;3921, Theft by Unlawful Taking or Disposition.&lt;br/&gt;"/><marker lat="40.428670110505003" lng="-79.979135233578759" zone="Zone 3" incidentdate="2015-04-30" incidenttime="23:03:00" incidentnumber="15075850" address="S 19th St &amp; E Carson St" type="OFFENSE" age="" gender="" description="*********************************************** &lt;br/&gt;2701, Simple Assault.&lt;br/&gt;"/><marker lat="40.45411894889228" lng="-79.944034255308623" zone="Zone 4" incidentdate="2015-04-30" incidenttime="11:00:00" incidentnumber="15075640" address="5000 block Centre Ave" type="OFFENSE" age="" gender="" description="*********************************************** &lt;br/&gt;3745, Accidents Involving Damage to Unattended Veh.or Prop.&lt;br/&gt;"/><marker lat="40.483894404875628" lng="-80.040807045026227" zone="Zone 1" incidentdate="2015-04-30" incidenttime="12:00:00" incidentnumber="15075564" address="3800 block Bonaventure Way" type="OFFENSE" age="" gender="" description="*********************************************** &lt;br/&gt;3921, Theft by Unlawful Taking or Disposition.&lt;br/&gt;"/><marker lat="40.405564913954258" lng="-80.015276974021162" zone="Zone 6" incidentdate="2015-04-30" incidenttime="09:20:00" incidentnumber="15075416" address="1800 block Pioneer Ave" type="OFFENSE" age="" gender="" description="*********************************************** &lt;br/&gt;3503, Criminal Trespass&lt;br/&gt;2701, Simple Assault.&lt;br/&gt;"/><marker lat="40.471846093379909" lng="-80.027025287370407" zone="Zone 1" incidentdate="2015-04-30" incidenttime="03:53:00" incidentnumber="15075324" address="2900 block Brighton Rd" type="OFFENSE" age="" gender="" description="*********************************************** &lt;br/&gt;13(a)(31)(ii), Marijuana - Possess Small Amt Intent to Distribute&lt;br/&gt;1543, Driving While Operating Privilege is Suspended or Revoked.&lt;br/&gt;13(a)(32), Paraphernalia - Use or Possession&lt;br/&gt;"/><marker lat="40.450966080336222" lng="-79.93359390037547" zone="Zone 4" incidentdate="2015-04-30" incidenttime="00:30:00" incidentnumber="15076142" address="5500 block Walnut St" type="OFFENSE" age="" gender="" description="*********************************************** &lt;br/&gt;3921, Theft by Unlawful Taking or Disposition.&lt;br/&gt;"/><marker lat="40.438724717539678" lng="-79.999543937630378" zone="Zone 2" incidentdate="2015-04-30" incidenttime="20:15:00" incidentnumber="15075774" address="4th Ave &amp; Smithfield St" type="OFFENSE" age="" gender="" description="*********************************************** &lt;br/&gt;9093, Indirect Criminal Contempt&lt;br/&gt;"/><marker lat="40.439711648090977" lng="-80.023871358922051" zone="Zone 3" incidentdate="2015-04-30" incidenttime="08:20:00" incidentnumber="15076029" address="200 block Shaler St" type="OFFENSE" age="" gender="" description="*********************************************** &lt;br/&gt;3745, Accidents Involving Damage to Unattended Veh.or Prop.&lt;br/&gt;"/><marker lat="40.43783539739902" lng="-79.930734919039182" zone="Zone 4" incidentdate="2015-04-30" incidenttime="14:45:00" incidentnumber="15075660" address="Forbes Ave &amp; Murdoch Rd" type="OFFENSE" age="" gender="" description="*********************************************** &lt;br/&gt;3745, Accidents Involving Damage to Unattended Veh.or Prop.&lt;br/&gt;"/><marker lat="40.444801444864723" lng="-79.985140270834592" zone="Zone 2" incidentdate="2015-04-30" incidenttime="16:32:00" incidentnumber="15075631" address="Rowley St &amp; Roberts St" type="OFFENSE" age="" gender="" description="*********************************************** &lt;br/&gt;13(a)(16), Possession of Controlled Substance&lt;br/&gt;13(a)(30), Possession w/ Intent to Del. Controlled Substance&lt;br/&gt;907, Possessing Instruments of Crime.&lt;br/&gt;6117, Altering or Obliterating Marks of Identification.&lt;br/&gt;6106, Firearms not to be Carried without a License.&lt;br/&gt;4303, General Lighting Requirements.&lt;br/&gt;3334, Turning Movements and Required Signals.&lt;br/&gt;6105(a)(1), Persons not to possess, use, manufacture, control, sell or transfer firearms: Former convict enumerated in subsection (b)&lt;br/&gt;5121, Escape.&lt;br/&gt;"/><marker lat="40.455197723058141" lng="-79.97879162088222" zone="Zone 2" incidentdate="2015-04-30" incidenttime="18:00:00" incidentnumber="15075663" address="Mulberry Way &amp; 26th St" type="OFFENSE" age="" gender="" description="*********************************************** &lt;br/&gt;3745, Accidents Involving Damage to Unattended Veh.or Prop.&lt;br/&gt;"/><marker lat="40.456528290955589" lng="-79.936548852192516" zone="Zone 4" incidentdate="2015-04-30" incidenttime="08:45:00" incidentnumber="15075402" address="500 block S Graham St" type="OFFENSE" age="" gender="" description="*********************************************** &lt;br/&gt;3934, Theft from Vehicle&lt;br/&gt;"/><marker lat="40.434696587775576" lng="-79.996300985228572" zone="Zone 2" incidentdate="2015-04-30" incidenttime="11:00:00" incidentnumber="15047082" address="600 block 1st Ave" type="OFFENSE" age="" gender="" description="*********************************************** &lt;br/&gt;3922, Theft by Deception.&lt;br/&gt;4106, Access Device Fraud&lt;br/&gt;"/><marker lat="40.385442305756953" lng="-79.978801061800922" zone="Zone 3" incidentdate="2015-04-30" incidenttime="11:30:00" incidentnumber="15075486" address="2600 block Brownsville Rd" type="OFFENSE" age="" gender="" description="*********************************************** &lt;br/&gt;2709, Harassment (Non-Specific)&lt;br/&gt;"/><marker lat="40.4471655" lng="-80.0523331" zone="Zone 6" incidentdate="2015-04-30" incidenttime="21:45:00" incidentnumber="15075837" address="1500 block Crucible St" type="OFFENSE" age="" gender="" description="*********************************************** &lt;br/&gt;029, Missing Juvenile&lt;br/&gt;"/><marker lat="40.461689308854623" lng="-79.911736872111632" zone="Zone 5" incidentdate="2015-04-30" incidenttime="12:00:00" incidentnumber="15075507" address="400 block Lowell St" type="OFFENSE" age="" gender="" description="*********************************************** &lt;br/&gt;2701, Simple Assault.&lt;br/&gt;"/><marker lat="40.468800980530425" lng="-80.035358835606146" zone="Zone 1" incidentdate="2015-04-30" incidenttime="16:46:00" incidentnumber="15075643" address="2800 block California Ave" type="OFFENSE" age="" gender="" description="*********************************************** &lt;br/&gt;9999, 9999 - (Misc. Incident):&lt;br/&gt;"/><marker lat="40.436036005233959" lng="-79.985455385193148" zone="Zone 2" incidentdate="2015-04-30" incidenttime="23:40:00" incidentnumber="15075867" address="1400 block Locust St" type="OFFENSE" age="" gender="" description="*********************************************** &lt;br/&gt;9497, Aided Case&lt;br/&gt;"/><marker lat="40.442624673349904" lng="-79.999150172277282" zone="Zone 2" incidentdate="2015-04-30" incidenttime="15:27:00" incidentnumber="15075586" address="Wood St &amp; Liberty Ave" type="OFFENSE" age="" gender="" description="*********************************************** &lt;br/&gt;5126, Flight to Avoid Apprehension, Trial or Punishment.&lt;br/&gt;3701, Robbery.&lt;br/&gt;"/><marker lat="40.427908148048772" lng="-79.970792974138448" zone="Zone 3" incidentdate="2015-04-30" incidenttime="16:35:00" incidentnumber="15075612" address="2400 block E Carson St" type="OFFENSE" age="" gender="" description="*********************************************** &lt;br/&gt;9999, 9999 - (Misc. Incident):&lt;br/&gt;"/><marker lat="40.409094490094994" lng="-79.993966253633914" zone="Zone 3" incidentdate="2015-04-30" incidenttime="17:49:00" incidentnumber="15074368" address="300 block Mckinley Ave" type="OFFENSE" age="" gender="" description="*********************************************** &lt;br/&gt;2702, Aggravated Assault.&lt;br/&gt;2701(a)(1), Simple Assault - Intent., Know., Reckless.Cause Bod. Injury&lt;br/&gt;"/><marker lat="40.4179327" lng="-79.9630282" zone="Zone 3" incidentdate="2015-04-30" incidenttime="10:45:00" incidentnumber="15075451" address="3000 block Cordell Pl" type="OFFENSE" age="" gender="" description="*********************************************** &lt;br/&gt;2709(a), Harassment.&lt;br/&gt;"/><marker lat="40.446346164512178" lng="-79.994318011299683" zone="Zone 2" incidentdate="2015-04-30" incidenttime="00:20:00" incidentnumber="15075224" address="11th St" type="OFFENSE" age="" gender="" description="*********************************************** &lt;br/&gt;9497, Aided Case&lt;br/&gt;"/><marker lat="40.468650269118584" lng="-80.02668669158534" zone="Zone 1" incidentdate="2015-04-30" incidenttime="19:15:00" incidentnumber="15075748" address="2600 block Stayton St" type="OFFENSE" age="" gender="" description="*********************************************** &lt;br/&gt;9488, False  Burglar Alarm&lt;br/&gt;"/><marker lat="40.47063294595285" lng="-79.960338626348303" zone="Zone 2" incidentdate="2015-04-30" incidenttime="14:40:00" incidentnumber="15075581" address="Butler St &amp; 43rd St" type="OFFENSE" age="" gender="" description="*********************************************** &lt;br/&gt;3745, Accidents Involving Damage to Unattended Veh.or Prop.&lt;br/&gt;"/><marker lat="40.417286338485056" lng="-79.965653302450889" zone="Zone 3" incidentdate="2015-04-30" incidenttime="09:50:00" incidentnumber="15075474" address="3000 block Arlington Ave" type="OFFENSE" age="" gender="" description="*********************************************** &lt;br/&gt;2709(a), Harassment.&lt;br/&gt;"/><marker lat="40.4770805" lng="-80.0409165" zone="Zone 1" incidentdate="2015-04-30" incidenttime="20:44:00" incidentnumber="15075792" address="3400 block Mexico St" type="OFFENSE" age="" gender="" description="*********************************************** &lt;br/&gt;2709, Harassment (Non-Specific)&lt;br/&gt;"/><marker lat="40.434939594601595" lng="-79.963274278131152" zone="Zone 4" incidentdate="2015-04-30" incidenttime="01:20:00" incidentnumber="15075263" address="300 block Ophelia St" type="OFFENSE" age="" gender="" description="*********************************************** &lt;br/&gt;2702, Aggravated Assault.&lt;br/&gt;6308(a), Underage Purchase, Consume, Possessed or Transport Liquor&lt;br/&gt;5104, Resisting Arrest or Other Law Enforcement.&lt;br/&gt;5503, Disorderly Conduct.&lt;br/&gt;"/><marker lat="40.387433423602523" lng="-80.011658237843406" zone="Zone 6" incidentdate="2015-04-30" incidenttime="18:30:00" incidentnumber="15075728" address="1500 block Chelton Ave" type="OFFENSE" age="" gender="" description="*********************************************** &lt;br/&gt;2709(a), Harassment.&lt;br/&gt;"/><marker lat="40.479440999454219" lng="-80.032699916180007" zone="Zone 1" incidentdate="2015-04-30" incidenttime="10:40:00" incidentnumber="15075485" address="1200 block Etola St" type="OFFENSE" age="" gender="" description="*********************************************** &lt;br/&gt;9999, 9999 - (Misc. Incident):&lt;br/&gt;"/><marker lat="40.397392731580247" lng="-79.986554645293381" zone="Zone 3" incidentdate="2015-04-30" incidenttime="16:48:00" incidentnumber="15075644" address="100 block Meredith St" type="OFFENSE" age="" gender="" description="*********************************************** &lt;br/&gt;2709, Harassment (Non-Specific)&lt;br/&gt;"/><marker lat="40.392871479647226" lng="-80.019186485910737" zone="Zone 6" incidentdate="2015-04-30" incidenttime="18:45:00" incidentnumber="15075731" address="900 block Brookline Blvd" type="OFFENSE" age="" gender="" description="*********************************************** &lt;br/&gt;9496, Dead on Arrival (DOA)&lt;br/&gt;"/><marker lat="40.428585203983602" lng="-79.981869007680203" zone="Zone 3" incidentdate="2015-04-30" incidenttime="02:14:00" incidentnumber="15075287" address="1700 block E Carson St" type="OFFENSE" age="" gender="" description="*********************************************** &lt;br/&gt;601.16(b)(1)(a), Any Person who urinates or defecates in, on, or about any public place&lt;br/&gt;"/><marker lat="40.487801005676396" lng="-80.019268202166529" zone="Zone 1" incidentdate="2015-04-30" incidenttime="17:00:00" incidentnumber="15075672" address="Semicir St" type="OFFENSE" age="" gender="" description="*********************************************** &lt;br/&gt;3925, Receiving Stolen Property.&lt;br/&gt;"/><marker lat="40.445821415453004" lng="-80.043480610744254" zone="Zone 6" incidentdate="2015-04-30" incidenttime="17:06:00" incidentnumber="15075659" address="1200 block Chartiers Ave" type="OFFENSE" age="" gender="" description="*********************************************** &lt;br/&gt;1543, Driving While Operating Privilege is Suspended or Revoked.&lt;br/&gt;13(a)(16), Possession of Controlled Substance&lt;br/&gt;13(a)(32), Paraphernalia - Use or Possession&lt;br/&gt;"/><marker lat="40.456899829514427" lng="-79.894145048070996" zone="Zone 5" incidentdate="2015-04-30" incidenttime="02:25:00" incidentnumber="15075288" address="Frankstown Ave &amp; Sterrett St" type="OFFENSE" age="" gender="" description="*********************************************** &lt;br/&gt;13(a)(16), Possession of Controlled Substance&lt;br/&gt;13(a)(30), Possession w/ Intent to Del. Controlled Substance&lt;br/&gt;13(a)(32), Paraphernalia - Use or Possession&lt;br/&gt;"/><marker lat="40.451820149581188" lng="-80.059446491038642" zone="Zone 6" incidentdate="2015-04-30" incidenttime="12:30:00" incidentnumber="15075582" address="1100 block Hillsboro St" type="OFFENSE" age="" gender="" description="*********************************************** &lt;br/&gt;3934, Theft from Vehicle&lt;br/&gt;"/><marker lat="40.39291145394813" lng="-79.996497822725019" zone="Zone 3" incidentdate="2015-04-30" incidenttime="09:40:00" incidentnumber="15075622" address="2000 block Dartmore St" type="OFFENSE" age="" gender="" description="*********************************************** &lt;br/&gt;9999, 9999 - (Misc. Incident):&lt;br/&gt;"/><marker lat="40.392051513813783" lng="-80.005047501630898" zone="Zone 6" incidentdate="2015-04-30" incidenttime="08:30:00" incidentnumber="15075470" address="1500 block Brookline Blvd" type="OFFENSE" age="" gender="" description="*********************************************** &lt;br/&gt;2709, Harassment (Non-Specific)&lt;br/&gt;"/><marker lat="40.453379966245343" lng="-79.979182668609965" zone="Zone 2" incidentdate="2015-04-30" incidenttime="23:32:00" incidentnumber="15075863" address="25th St &amp; Liberty Ave" type="OFFENSE" age="" gender="" description="*********************************************** &lt;br/&gt;3802(a)(1), DUI - General Impairment&lt;br/&gt;"/><marker lat="40.452061568535129" lng="-79.907441368966943" zone="Zone 4" incidentdate="2015-04-30" incidenttime="08:30:00" incidentnumber="15075429" address="6900 block Meade St" type="OFFENSE" age="" gender="" description="*********************************************** &lt;br/&gt;3934, Theft from Vehicle&lt;br/&gt;"/><marker lat="40.4111044" lng="-80.0060107" zone="Zone 3" incidentdate="2015-04-30" incidenttime="18:00:00" incidentnumber="15076067" address="Saw Mill Run Blvd &amp; Bausman St" type="OFFENSE" age="" gender="" description="*********************************************** &lt;br/&gt;3745, Accidents Involving Damage to Unattended Veh.or Prop.&lt;br/&gt;"/><marker lat="40.400239062824255" lng="-79.966189329634872" zone="Zone 3" incidentdate="2015-04-30" incidenttime="16:37:00" incidentnumber="15075635" address="900 block Agnew Rd" type="OFFENSE" age="" gender="" description="*********************************************** &lt;br/&gt;2709(a), Harassment.&lt;br/&gt;"/><marker lat="40.403184288221588" lng="-79.994048977261443" zone="Zone 3" incidentdate="2015-04-30" incidenttime="10:00:00" incidentnumber="15075456" address="Minooka St" type="OFFENSE" age="" gender="" description="*********************************************** &lt;br/&gt;3921, Theft by Unlawful Taking or Disposition.&lt;br/&gt;4103, Fraud. Destruct., Remov. or Conceal.of Record. Instr.&lt;br/&gt;"/><marker lat="40.4471655" lng="-80.0523331" zone="Zone 6" incidentdate="2015-04-30" incidenttime="21:45:00" incidentnumber="15075847" address="1500 block Crucible St" type="OFFENSE" age="" gender="" description="*********************************************** &lt;br/&gt;029, Missing Juvenile&lt;br/&gt;"/><marker lat="40.478253493338741" lng="-80.040270139012904" zone="Zone 1" incidentdate="2015-04-30" incidenttime="12:30:00" incidentnumber="15075500" address="3500 block California Ave" type="OFFENSE" age="" gender="" description="*********************************************** &lt;br/&gt;3502, Burglary.&lt;br/&gt;"/><marker lat="40.454077845380546" lng="-79.906315183819032" zone="Zone 4" incidentdate="2015-04-30" incidenttime="07:30:00" incidentnumber="15075377" address="6900 block McPherson Blvd" type="OFFENSE" age="" gender="" description="*********************************************** &lt;br/&gt;3934, Theft from Vehicle&lt;br/&gt;3304, Criminal Mischief.&lt;br/&gt;"/><marker lat="40.449646657025653" lng="-79.892798110797884" zone="Zone 4" incidentdate="2015-04-30" incidenttime="10:29:00" incidentnumber="15075463" address="300 block N Braddock Ave" type="OFFENSE" age="" gender="" description="*********************************************** &lt;br/&gt;9498, 302 (Mental)&lt;br/&gt;"/><marker lat="40.45003511141789" lng="-79.903694021372729" zone="Zone 5" incidentdate="2015-04-30" incidenttime="04:45:00" incidentnumber="15075337" address="100 block Penn Cir W" type="OFFENSE" age="" gender="" description="*********************************************** &lt;br/&gt;3502, Burglary.&lt;br/&gt;"/><marker lat="40.460378497799489" lng="-80.021848946412661" zone="Zone 1" incidentdate="2015-04-30" incidenttime="08:44:00" incidentnumber="15075388" address="1000 block Morrison St" type="OFFENSE" age="" gender="" description="*********************************************** &lt;br/&gt;9488, False  Burglar Alarm&lt;br/&gt;"/><marker lat="40.469771195528878" lng="-80.030299486392565" zone="Zone 1" incidentdate="2015-04-30" incidenttime="20:00:00" incidentnumber="15075782" address="Shadeland Ave &amp; Dickson St" type="OFFENSE" age="" gender="" description="*********************************************** &lt;br/&gt;2702, Aggravated Assault.&lt;br/&gt;"/><marker lat="40.466616756829907" lng="-79.993676874083434" zone="Zone 1" incidentdate="2015-04-30" incidenttime="16:14:00" incidentnumber="15075617" address="2100 block Rhine St" type="OFFENSE" age="" gender="" description="*********************************************** &lt;br/&gt;3304, Criminal Mischief.&lt;br/&gt;2709(a), Harassment.&lt;br/&gt;"/><marker lat="40.473885381367339" lng="-79.904428581179701" zone="Zone 5" incidentdate="2015-04-30" incidenttime="14:30:00" incidentnumber="15075584" address="6900 block Lemington Ave" type="OFFENSE" age="" gender="" description="*********************************************** &lt;br/&gt;3502, Burglary.&lt;br/&gt;"/><marker lat="40.459719036534921" lng="-79.901550758828222" zone="Zone 5" incidentdate="2015-04-30" incidenttime="17:00:00" incidentnumber="15075692" address="1000 block Gerritt St" type="OFFENSE" age="" gender="" description="*********************************************** &lt;br/&gt;3502, Burglary.&lt;br/&gt;"/><marker lat="40.455446716079855" lng="-80.015132045255754" zone="Zone 1" incidentdate="2015-04-30" incidenttime="01:00:00" incidentnumber="15075247" address="800 block Riversea Rd" type="OFFENSE" age="" gender="" description="*********************************************** &lt;br/&gt;9488, False  Burglar Alarm&lt;br/&gt;"/><marker lat="40.428814179717264" lng="-80.024291780088404" zone="Zone 3" incidentdate="2015-04-30" incidenttime="14:50:00" incidentnumber="15075589" address="800 block Saw Mill Run Blvd" type="OFFENSE" age="" gender="" description="*********************************************** &lt;br/&gt;3743, Accidents Involving Damage to Attended Veh. or Property&lt;br/&gt;"/><marker lat="40.462757960390562" lng="-79.897548766257913" zone="Zone 5" incidentdate="2015-04-30" incidenttime="17:21:00" incidentnumber="15075668" address="Upland St &amp; N Lang Ave" type="OFFENSE" age="" gender="" description="*********************************************** &lt;br/&gt;3714, Careless Driving&lt;br/&gt;4703, Operation of Vehicle without Official Certif. of Inspection&lt;br/&gt;6106, Firearms not to be Carried without a License.&lt;br/&gt;4303, General Lighting Requirements.&lt;br/&gt;4706, Prohib. on Expend. for Emission Insp Prog..&lt;br/&gt;3112, Traffic-Control Signals.&lt;br/&gt;"/><marker lat="40.435973329692494" lng="-79.922760908266312" zone="Zone 4" incidentdate="2015-04-30" incidenttime="10:00:00" incidentnumber="15075434" address="5800 block Bartlett St" type="OFFENSE" age="" gender="" description="*********************************************** &lt;br/&gt;9490, Missing Persons (18 and Over)&lt;br/&gt;"/><marker lat="40.454016520179565" lng="-79.895644292400064" zone="Zone 5" incidentdate="2015-04-30" incidenttime="16:15:00" incidentnumber="15075673" address="7300 block Hamilton Ave" type="OFFENSE" age="" gender="" description="*********************************************** &lt;br/&gt;3934, Theft from Vehicle&lt;br/&gt;"/><marker lat="40.44511004552583" lng="-80.039246537687731" zone="Zone 6" incidentdate="2015-04-30" incidenttime="09:38:00" incidentnumber="15075423" address="700 block Lorenz Ave" type="OFFENSE" age="" gender="" description="*********************************************** &lt;br/&gt;2709, Harassment (Non-Specific)&lt;br/&gt;"/><marker lat="40.428211233151075" lng="-79.97116747592402" zone="Zone 3" incidentdate="2015-04-30" incidenttime="01:15:00" incidentnumber="15075255" address="S 24th St &amp; E Carson St" type="OFFENSE" age="" gender="" description="*********************************************** &lt;br/&gt;4303, General Lighting Requirements.&lt;br/&gt;13(a)(31), Marijuana: Possession Small Amount&lt;br/&gt;1543, Driving While Operating Privilege is Suspended or Revoked.&lt;br/&gt;"/><marker lat="40.468144733978242" lng="-80.015379520229985" zone="Zone 1" incidentdate="2015-04-30" incidenttime="12:09:00" incidentnumber="15075502" address="2600 block N Charles St" type="OFFENSE" age="" gender="" description="*********************************************** &lt;br/&gt;3502, Burglary.&lt;br/&gt;"/><marker lat="40.4111044" lng="-80.0060107" zone="Zone 3" incidentdate="2015-04-30" incidenttime="17:40:00" incidentnumber="15075704" address="Saw Mill Run Blvd &amp; Bausman St" type="OFFENSE" age="" gender="" description="*********************************************** &lt;br/&gt;3743, Accidents Involving Damage to Attended Veh. or Property&lt;br/&gt;"/><marker lat="40.446314652723053" lng="-80.016316228653437" zone="Zone 1" incidentdate="2015-04-30" incidenttime="03:57:00" incidentnumber="15075327" address="100 block Art Rooney Ave" type="OFFENSE" age="" gender="" description="*********************************************** &lt;br/&gt;3743, Accidents Involving Damage to Attended Veh. or Property&lt;br/&gt;"/><marker lat="40.421531877189601" lng="-79.993577564166102" zone="Zone 3" incidentdate="2015-04-30" incidenttime="07:00:00" incidentnumber="15070836" address="800 block E warrington Ave" type="OFFENSE" age="" gender="" description="*********************************************** &lt;br/&gt;9124, Drug Investigation&lt;br/&gt;"/><marker lat="40.457788117409535" lng="-79.878225068212814" zone="Zone 5" incidentdate="2015-04-30" incidenttime="02:50:00" incidentnumber="15075871" address="8400 block Dersam St" type="OFFENSE" age="" gender="" description="*********************************************** &lt;br/&gt;3304, Criminal Mischief.&lt;br/&gt;"/><marker lat="40.45191861487573" lng="-79.999548153724348" zone="Zone 1" incidentdate="2015-04-30" incidenttime="18:20:00" incidentnumber="15075769" address="Pressley St &amp; Kilday Way" type="OFFENSE" age="" gender="" description="*********************************************** &lt;br/&gt;3934, Theft from Vehicle&lt;br/&gt;"/><marker lat="40.390486341358283" lng="-80.012775159642075" zone="Zone 6" incidentdate="2015-04-30" incidenttime="08:30:00" incidentnumber="15075391" address="1300 block Wareman Ave" type="OFFENSE" age="" gender="" description="*********************************************** &lt;br/&gt;9093, Indirect Criminal Contempt&lt;br/&gt;"/><marker lat="40.4196090" lng="-79.9271423" zone="Zone 4" incidentdate="2015-04-30" incidenttime="14:00:00" incidentnumber="15075557" address="4400 block Browns Hill Rd" type="OFFENSE" age="" gender="" description="*********************************************** &lt;br/&gt;3921, Theft by Unlawful Taking or Disposition.&lt;br/&gt;4101, Forgery.&lt;br/&gt;"/><marker lat="40.464774823811233" lng="-79.942733938845166" zone="Zone 5" incidentdate="2015-04-30" incidenttime="18:16:00" incidentnumber="15075708" address="5100 block Penn Ave" type="OFFENSE" age="" gender="" description="*********************************************** &lt;br/&gt;9999, 9999 - (Misc. Incident):&lt;br/&gt;"/><marker lat="40.392365478702068" lng="-80.007850102574906" zone="Zone 6" incidentdate="2015-04-30" incidenttime="15:30:00" incidentnumber="15075614" address="1400 block Brookline Blvd" type="OFFENSE" age="" gender="" description="*********************************************** &lt;br/&gt;2709(a), Harassment.&lt;br/&gt;"/><marker lat="40.39874686016617" lng="-79.987202493736362" zone="Zone 3" incidentdate="2015-04-30" incidenttime="12:56:00" incidentnumber="15075518" address="1700 block Concordia St" type="OFFENSE" age="" gender="" description="*********************************************** &lt;br/&gt;2709(a), Harassment.&lt;br/&gt;2701, Simple Assault.&lt;br/&gt;"/><marker lat="40.460410839084737" lng="-79.900141730333971" zone="Zone 5" incidentdate="2015-04-30" incidenttime="15:37:00" incidentnumber="15075591" address="1100 block N Murtland St" type="OFFENSE" age="" gender="" description="*********************************************** &lt;br/&gt;9999, 9999 - (Misc. Incident):&lt;br/&gt;"/><marker lat="40.442888113190847" lng="-79.997936520552642" zone="Zone 2" incidentdate="2015-04-30" incidenttime="18:00:00" incidentnumber="15075720" address="900 block Liberty Ave" type="OFFENSE" age="" gender="" description="*********************************************** &lt;br/&gt;3921(a), Theft by Unlawful Taking or Disposition - Movable item&lt;br/&gt;"/><marker lat="40.460623402161843" lng="-79.932766652756285" zone="Zone 5" incidentdate="2015-04-30" incidenttime="00:51:00" incidentnumber="15075250" address="300 block S Negley Ave" type="OFFENSE" age="" gender="" description="*********************************************** &lt;br/&gt;9490, Missing Persons (18 and Over)&lt;br/&gt;"/><marker lat="40.445590651116305" lng="-79.949387243364313" zone="Zone 4" incidentdate="2015-04-30" incidenttime="12:00:00" incidentnumber="15075530" address="300 block N Craig St" type="OFFENSE" age="" gender="" description="*********************************************** &lt;br/&gt;3502, Burglary.&lt;br/&gt;"/><marker lat="40.47111856823183" lng="-80.035833217943633" zone="Zone 1" incidentdate="2015-04-30" incidenttime="20:41:00" incidentnumber="15075791" address="3000 block Holbrook St" type="OFFENSE" age="" gender="" description="*********************************************** &lt;br/&gt;9999, 9999 - (Misc. Incident):&lt;br/&gt;"/><marker lat="40.462103841699992" lng="-79.897485623949748" zone="Zone 5" incidentdate="2015-04-30" incidenttime="09:30:00" incidentnumber="15075536" address="1400 block N Lang Ave" type="OFFENSE" age="" gender="" description="*********************************************** &lt;br/&gt;3304, Criminal Mischief.&lt;br/&gt;"/><marker lat="40.419505206194074" lng="-79.993673235982314" zone="Zone 3" incidentdate="2015-04-30" incidenttime="08:00:00" incidentnumber="15075418" address="800 block Loyal Way" type="OFFENSE" age="" gender="" description="*********************************************** &lt;br/&gt;3304, Criminal Mischief.&lt;br/&gt;"/><marker lat="40.397123531939101" lng="-79.9881756213681" zone="Zone 3" incidentdate="2015-04-30" incidenttime="15:52:00" incidentnumber="15075647" address="1800 block Brownsville Rd" type="OFFENSE" age="" gender="" description="*********************************************** &lt;br/&gt;9501, Bench Warrant&lt;br/&gt;"/><marker lat="40.40437530613108" lng="-79.975892172719824" zone="Zone 3" incidentdate="2015-04-30" incidenttime="16:20:00" incidentnumber="15075689" address="Becks Run Rd &amp; Wagner St" type="OFFENSE" age="" gender="" description="*********************************************** &lt;br/&gt;2709, Harassment (Non-Specific)&lt;br/&gt;"/><marker lat="40.458829569468811" lng="-79.893249839715324" zone="Zone 5" incidentdate="2015-04-30" incidenttime="18:30:00" incidentnumber="15075714" address="7300 block Monticello St" type="OFFENSE" age="" gender="" description="*********************************************** &lt;br/&gt;6106, Firearms not to be Carried without a License.&lt;br/&gt;1543, Driving While Operating Privilege is Suspended or Revoked.&lt;br/&gt;3334, Turning Movements and Required Signals.&lt;br/&gt;"/><marker lat="40.427916509575653" lng="-79.916114686100585" zone="Zone 4" incidentdate="2015-04-30" incidenttime="22:05:00" incidentnumber="15075829" address="Forward Ave &amp; Beechwood Blvd" type="OFFENSE" age="" gender="" description="*********************************************** &lt;br/&gt;3743, Accidents Involving Damage to Attended Veh. or Property&lt;br/&gt;"/><marker lat="40.397246623518512" lng="-80.023129646415725" zone="Zone 6" incidentdate="2015-04-30" incidenttime="13:18:00" incidentnumber="15075526" address="2500 block Pioneer Ave" type="OFFENSE" age="" gender="" description="*********************************************** &lt;br/&gt;13(a)(16), Possession of Controlled Substance&lt;br/&gt;3503, Criminal Trespass&lt;br/&gt;3925, Receiving Stolen Property.&lt;br/&gt;3921, Theft by Unlawful Taking or Disposition.&lt;br/&gt;"/><marker lat="40.460410839084737" lng="-79.900141730333971" zone="Zone 5" incidentdate="2015-04-30" incidenttime="13:00:00" incidentnumber="15075628" address="1100 block N Murtland St" type="OFFENSE" age="" gender="" description="*********************************************** &lt;br/&gt;3921, Theft by Unlawful Taking or Disposition.&lt;br/&gt;"/><marker lat="40.477837495837427" lng="-79.954649839944693" zone="Zone 2" incidentdate="2015-04-30" incidenttime="00:01:00" incidentnumber="15075607" address="5100 block Carnegie St" type="OFFENSE" age="" gender="" description="*********************************************** &lt;br/&gt;2709, Harassment (Non-Specific)&lt;br/&gt;"/><marker lat="40.456713754097855" lng="-80.01317087359827" zone="Zone 1" incidentdate="2015-04-30" incidenttime="08:00:00" incidentnumber="15075439" address="1400 block Monterey St" type="OFFENSE" age="" gender="" description="*********************************************** &lt;br/&gt;3304, Criminal Mischief.&lt;br/&gt;"/><marker lat="40.45614291324403" lng="-80.015399745388805" zone="Zone 1" incidentdate="2015-04-30" incidenttime="23:25:00" incidentnumber="15075853" address="800 block Pennsylvania Ave" type="OFFENSE" age="" gender="" description="*********************************************** &lt;br/&gt;9488, False  Burglar Alarm&lt;br/&gt;"/><marker lat="40.45584959643125" lng="-79.930434547158555" zone="Zone 4" incidentdate="2015-04-30" incidenttime="09:00:00" incidentnumber="15075405" address="5800 block Ellsworth Ave" type="OFFENSE" age="" gender="" description="*********************************************** &lt;br/&gt;3304, Criminal Mischief.&lt;br/&gt;"/><marker lat="40.402934588727433" lng="-80.014381245786595" zone="Zone 6" incidentdate="2015-04-30" incidenttime="14:15:00" incidentnumber="15075551" address="600 block Crysler St" type="OFFENSE" age="" gender="" description="*********************************************** &lt;br/&gt;3745, Accidents Involving Damage to Unattended Veh.or Prop.&lt;br/&gt;"/><marker lat="40.428758587531433" lng="-79.980561963586084" zone="Zone 3" incidentdate="2015-04-30" incidenttime="00:15:00" incidentnumber="15075244" address="E Carson St &amp; S 18th St" type="OFFENSE" age="" gender="" description="*********************************************** &lt;br/&gt;2702, Aggravated Assault.&lt;br/&gt;"/><marker lat="40.428211233151075" lng="-79.97116747592402" zone="Zone 3" incidentdate="2015-04-30" incidenttime="01:30:00" incidentnumber="15075255" address="S 24th St &amp; E Carson St" type="ARREST" age="" gender="M" description="*********************************************** &lt;br/&gt;4303, General Lighting Requirements.&lt;br/&gt;13(a)(31), Marijuana: Possession Small Amount&lt;br/&gt;1543, Driving While Operating Privilege is Suspended or Revoked.&lt;br/&gt;"/><marker lat="40.445821415453004" lng="-80.043480610744254" zone="Zone 6" incidentdate="2015-04-30" incidenttime="17:15:00" incidentnumber="15075659" address="1200 block Chartiers Ave" type="ARREST" age="35" gender="M" description="*********************************************** &lt;br/&gt;1543, Driving While Operating Privilege is Suspended or Revoked.&lt;br/&gt;13(a)(16), Possession of Controlled Substance&lt;br/&gt;13(a)(32), Paraphernalia - Use or Possession&lt;br/&gt;"/><marker lat="40.435095503606554" lng="-79.993077686753679" zone="Zone 2" incidentdate="2015-04-30" incidenttime="05:00:00" incidentnumber="15042492" address="900 block 2ND Ave" type="ARREST" age="28" gender="M" description="*********************************************** &lt;br/&gt;3502, Burglary.&lt;br/&gt;3925, Receiving Stolen Property.&lt;br/&gt;"/><marker lat="40.434696587775576" lng="-79.996300985228572" zone="Zone 2" incidentdate="2015-04-30" incidenttime="09:00:00" incidentnumber="15027169" address="600 block 1st Ave" type="ARREST" age="15" gender="M" description="*********************************************** &lt;br/&gt;4106, Access Device Fraud&lt;br/&gt;"/><marker lat="40.397246623518512" lng="-80.023129646415725" zone="Zone 6" incidentdate="2015-04-30" incidenttime="13:29:00" incidentnumber="15075526" address="2500 block Pioneer Ave" type="ARREST" age="30" gender="F" description="*********************************************** &lt;br/&gt;13(a)(16), Possession of Controlled Substance&lt;br/&gt;3503, Criminal Trespass&lt;br/&gt;3925, Receiving Stolen Property.&lt;br/&gt;3921, Theft by Unlawful Taking or Disposition.&lt;br/&gt;"/><marker lat="40.434696587775576" lng="-79.996300985228572" zone="Zone 2" incidentdate="2015-04-30" incidenttime="12:40:00" incidentnumber="15063843" address="600 block 1st Ave" type="ARREST" age="31" gender="M" description="*********************************************** &lt;br/&gt;13(a)(31), Marijuana: Possession Small Amount&lt;br/&gt;13(a)(16), Possession of Controlled Substance&lt;br/&gt;13(a)(30), Possession w/ Intent to Del. Controlled Substance&lt;br/&gt;6105(a)(1), Persons not to possess, use, manufacture, control, sell or transfer firearms: Former convict enumerated in subsection (b)&lt;br/&gt;6110.2, Possesion of Firearm with Altered Mfg. Number&lt;br/&gt;6106, Firearms not to be Carried without a License.&lt;br/&gt;"/><marker lat="40.397123531939101" lng="-79.9881756213681" zone="Zone 3" incidentdate="2015-04-30" incidenttime="15:52:00" incidentnumber="15075647" address="1800 block Brownsville Rd" type="ARREST" age="64" gender="M" description="*********************************************** &lt;br/&gt;9501, Bench Warrant&lt;br/&gt;"/><marker lat="40.409094490094994" lng="-79.993966253633914" zone="Zone 3" incidentdate="2015-04-30" incidenttime="18:11:00" incidentnumber="15074368" address="300 block Mckinley Ave" type="ARREST" age="42" gender="M" description="*********************************************** &lt;br/&gt;2702, Aggravated Assault.&lt;br/&gt;2701(a)(1), Simple Assault - Intent., Know., Reckless.Cause Bod. Injury&lt;br/&gt;"/><marker lat="40.442624673349904" lng="-79.999150172277282" zone="Zone 2" incidentdate="2015-04-30" incidenttime="16:09:00" incidentnumber="15075586" address="Wood St &amp; Liberty Ave" type="ARREST" age="17" gender="M" description="*********************************************** &lt;br/&gt;5126, Flight to Avoid Apprehension, Trial or Punishment.&lt;br/&gt;3701, Robbery.&lt;br/&gt;"/><marker lat="40.458829569468811" lng="-79.893249839715324" zone="Zone 5" incidentdate="2015-04-30" incidenttime="18:20:00" incidentnumber="15075714" address="7300 block Monticello St" type="ARREST" age="22" gender="M" description="*********************************************** &lt;br/&gt;6106, Firearms not to be Carried without a License.&lt;br/&gt;1543, Driving While Operating Privilege is Suspended or Revoked.&lt;br/&gt;3334, Turning Movements and Required Signals.&lt;br/&gt;"/><marker lat="40.444801444864723" lng="-79.985140270834592" zone="Zone 2" incidentdate="2015-04-30" incidenttime="16:32:00" incidentnumber="15075631" address="Rowley St &amp; Roberts St" type="ARREST" age="42" gender="M" description="*********************************************** &lt;br/&gt;13(a)(16), Possession of Controlled Substance&lt;br/&gt;13(a)(30), Possession w/ Intent to Del. Controlled Substance&lt;br/&gt;907, Possessing Instruments of Crime.&lt;br/&gt;6117, Altering or Obliterating Marks of Identification.&lt;br/&gt;6106, Firearms not to be Carried without a License.&lt;br/&gt;4303, General Lighting Requirements.&lt;br/&gt;3334, Turning Movements and Required Signals.&lt;br/&gt;6105(a)(1), Persons not to possess, use, manufacture, control, sell or transfer firearms: Former convict enumerated in subsection (b)&lt;br/&gt;5121, Escape.&lt;br/&gt;"/><marker lat="40.428670110505003" lng="-79.979135233578759" zone="Zone 3" incidentdate="2015-04-30" incidenttime="23:10:00" incidentnumber="15075850" address="S 19th St &amp; E Carson St" type="ARREST" age="30" gender="M" description="*********************************************** &lt;br/&gt;2701, Simple Assault.&lt;br/&gt;"/><marker lat="40.446867779409757" lng="-80.020757813868244" zone="Zone 1" incidentdate="2015-04-30" incidenttime="18:30:00" incidentnumber="15037874" address="700 block Casino Dr" type="ARREST" age="28" gender="M" description="*********************************************** &lt;br/&gt;4101, Forgery.&lt;br/&gt;3934, Theft from Vehicle&lt;br/&gt;4105(a)(1), Bad Checks&lt;br/&gt;3925, Receiving Stolen Property.&lt;br/&gt;7611, Unlawful Use of Computer&lt;br/&gt;"/><marker lat="40.455273086676286" lng="-80.008870414965187" zone="Zone 1" incidentdate="2015-04-30" incidenttime="15:00:00" incidentnumber="14239893" address="200 block North Shore Dr" type="ARREST" age="18" gender="M" description="*********************************************** &lt;br/&gt;13(a)(31), Marijuana: Possession Small Amount&lt;br/&gt;"/><marker lat="40.434939594601595" lng="-79.963274278131152" zone="Zone 4" incidentdate="2015-04-30" incidenttime="01:34:00" incidentnumber="15075263" address="300 block Ophelia St" type="ARREST" age="20" gender="M" description="*********************************************** &lt;br/&gt;2702, Aggravated Assault.&lt;br/&gt;6308(a), Underage Purchase, Consume, Possessed or Transport Liquor&lt;br/&gt;5104, Resisting Arrest or Other Law Enforcement.&lt;br/&gt;5503, Disorderly Conduct.&lt;br/&gt;"/><marker lat="40.462757960390562" lng="-79.897548766257913" zone="Zone 5" incidentdate="2015-04-30" incidenttime="17:29:00" incidentnumber="15075668" address="Upland St &amp; N Lang Ave" type="ARREST" age="50" gender="M" description="*********************************************** &lt;br/&gt;3714, Careless Driving&lt;br/&gt;4703, Operation of Vehicle without Official Certif. of Inspection&lt;br/&gt;6106, Firearms not to be Carried without a License.&lt;br/&gt;4303, General Lighting Requirements.&lt;br/&gt;4706, Prohib. on Expend. for Emission Insp Prog..&lt;br/&gt;3112, Traffic-Control Signals.&lt;br/&gt;"/><marker lat="40.434696587775576" lng="-79.996300985228572" zone="Zone 2" incidentdate="2015-04-30" incidenttime="09:30:00" incidentnumber="15064897" address="600 block First Ave" type="ARREST" age="21" gender="F" description="*********************************************** &lt;br/&gt;2702, Aggravated Assault.&lt;br/&gt;3304, Criminal Mischief.&lt;br/&gt;"/><marker lat="40.434696587775576" lng="-79.996300985228572" zone="Zone 2" incidentdate="2015-04-30" incidenttime="11:00:00" incidentnumber="15047082" address="600 block 1st Ave" type="ARREST" age="46" gender="M" description="*********************************************** &lt;br/&gt;3922, Theft by Deception.&lt;br/&gt;4106, Access Device Fraud&lt;br/&gt;"/><marker lat="40.445821415453004" lng="-80.043480610744254" zone="Zone 6" incidentdate="2015-04-30" incidenttime="17:15:00" incidentnumber="15075659" address="1200 block Chartiers Ave" type="ARREST" age="34" gender="M" description="*********************************************** &lt;br/&gt;1543, Driving While Operating Privilege is Suspended or Revoked.&lt;br/&gt;13(a)(16), Possession of Controlled Substance&lt;br/&gt;13(a)(32), Paraphernalia - Use or Possession&lt;br/&gt;"/><marker lat="40.444146541456135" lng="-80.038303586518126" zone="Zone 6" incidentdate="2015-04-30" incidenttime="05:50:00" incidentnumber="15074328" address="300 block Marlow St" type="ARREST" age="36" gender="M" description="*********************************************** &lt;br/&gt;3502, Burglary.&lt;br/&gt;3925, Receiving Stolen Property.&lt;br/&gt;"/><marker lat="40.471846093379909" lng="-80.027025287370407" zone="Zone 1" incidentdate="2015-04-30" incidenttime="03:37:00" incidentnumber="15075324" address="2900 block Brighton Rd" type="ARREST" age="30" gender="M" description="*********************************************** &lt;br/&gt;13(a)(31)(ii), Marijuana - Possess Small Amt Intent to Distribute&lt;br/&gt;1543, Driving While Operating Privilege is Suspended or Revoked.&lt;br/&gt;13(a)(32), Paraphernalia - Use or Possession&lt;br/&gt;"/><marker lat="40.390486341358283" lng="-80.012775159642075" zone="Zone 6" incidentdate="2015-04-30" incidenttime="09:00:00" incidentnumber="15075391" address="1300 block Wareman Ave" type="ARREST" age="42" gender="M" description="*********************************************** &lt;br/&gt;9093, Indirect Criminal Contempt&lt;br/&gt;"/><marker lat="40.4573819024328" lng="-80.00189172917851" zone="Zone 1" incidentdate="2015-04-30" incidenttime="15:00:00" incidentnumber="15075012" address="James St &amp; Knoll St" type="ARREST" age="18" gender="M" description="*********************************************** &lt;br/&gt;2702, Aggravated Assault.&lt;br/&gt;2707.1, Discharge of a Firearm into Occupied Structure&lt;br/&gt;607.03, Discharging Firearm or Airgun&lt;br/&gt;2707, Propulsion of Missiles&lt;br/&gt;901, Criminal Attempt&lt;br/&gt;9501, Bench Warrant&lt;br/&gt;3304, Criminal Mischief.&lt;br/&gt;2705, Recklessly Endangering Another Person.&lt;br/&gt;6105(a)(1), Persons not to possess, use, manufacture, control, sell or transfer firearms: Former convict enumerated in subsection (b)&lt;br/&gt;"/><marker lat="40.453379966245343" lng="-79.979182668609965" zone="Zone 2" incidentdate="2015-04-30" incidenttime="23:56:00" incidentnumber="15075863" address="25th St &amp; Liberty Ave" type="ARREST" age="79" gender="M" description="*********************************************** &lt;br/&gt;3802(a)(1), DUI - General Impairment&lt;br/&gt;"/><marker lat="40.456899829514427" lng="-79.894145048070996" zone="Zone 5" incidentdate="2015-04-30" incidenttime="02:25:00" incidentnumber="15075288" address="Frankstown Ave &amp; Sterrett St" type="ARREST" age="40" gender="M" description="*********************************************** &lt;br/&gt;13(a)(16), Possession of Controlled Substance&lt;br/&gt;13(a)(30), Possession w/ Intent to Del. Controlled Substance&lt;br/&gt;13(a)(32), Paraphernalia - Use or Possession&lt;br/&gt;"/></markers>
