<?xml version="1.0"?>
<markers><marker lat="40.458049787448729" lng="-80.050385793897505" zone="Zone 6" incidentdate="2014-11-13" incidenttime="06:00:00" incidentnumber="14226008" address="3000 block Sacramento Ave" type="OFFENSE" age="" gender="" description="*********************************************** &lt;br/&gt;3304, Criminal Mischief.&lt;br/&gt;"/><marker lat="40.47597732572121" lng="-79.921138032804592" zone="Zone 5" incidentdate="2014-11-13" incidenttime="19:50:00" incidentnumber="14226083" address="5700 block Bryant St" type="OFFENSE" age="" gender="" description="*********************************************** &lt;br/&gt;9498, 302 (Mental)&lt;br/&gt;"/><marker lat="40.453539170738004" lng="-80.000575279128412" zone="Zone 1" incidentdate="2014-11-13" incidenttime="00:36:00" incidentnumber="14225586" address="500 block East Ohio St" type="OFFENSE" age="" gender="" description="*********************************************** &lt;br/&gt;2701(a)(1), Simple Assault - Intent., Know., Reckless.Cause Bod. Injury&lt;br/&gt;"/><marker lat="40.450892721440539" lng="-80.000843891836467" zone="Zone 1" incidentdate="2014-11-13" incidenttime="12:33:00" incidentnumber="14225884" address="300 block Cedar Ave" type="OFFENSE" age="" gender="" description="*********************************************** &lt;br/&gt;9488, False  Burglar Alarm&lt;br/&gt;"/><marker lat="40.458683229054266" lng="-79.998341257254594" zone="Zone 1" incidentdate="2014-11-13" incidenttime="02:15:00" incidentnumber="14225636" address="Madison Ave &amp; East St" type="OFFENSE" age="" gender="" description="*********************************************** &lt;br/&gt;3736, Reckless Driving&lt;br/&gt;3802(a)(1), DUI - General Impairment&lt;br/&gt;3802(c), DUI - Highest Rate of Alcohol - BAC &gt;= .16%&lt;br/&gt;3308, One-Way Roadways and Rotary Traffic Islands.&lt;br/&gt;"/><marker lat="40.466877756870879" lng="-79.994177935104844" zone="Zone 1" incidentdate="2014-11-13" incidenttime="07:15:00" incidentnumber="14225748" address="100 block Rhine Pl" type="OFFENSE" age="" gender="" description="*********************************************** &lt;br/&gt;3304, Criminal Mischief.&lt;br/&gt;"/><marker lat="40.455036812870759" lng="-80.001981652122481" zone="Zone 1" incidentdate="2014-11-13" incidenttime="17:03:00" incidentnumber="14225992" address="900 block Cedar Ave" type="OFFENSE" age="" gender="" description="*********************************************** &lt;br/&gt;9490, Missing Persons (18 and Over)&lt;br/&gt;"/><marker lat="40.424909761781095" lng="-79.979733194998332" zone="Zone 3" incidentdate="2014-11-13" incidenttime="02:20:00" incidentnumber="14225639" address="S 18th St &amp; Josephine St" type="OFFENSE" age="" gender="" description="*********************************************** &lt;br/&gt;1543, Driving While Operating Privilege is Suspended or Revoked.&lt;br/&gt;3111, Obedience to Traffic-Control Devices.&lt;br/&gt;3733, Fleeing or Attempting to Elude Police Officer&lt;br/&gt;3802(a)(1), DUI - General Impairment&lt;br/&gt;"/><marker lat="40.440531608918334" lng="-80.080543784429423" zone="Zone 6" incidentdate="2014-11-13" incidenttime="01:43:00" incidentnumber="14225837" address="Rutgers Way" type="OFFENSE" age="" gender="" description="*********************************************** &lt;br/&gt;3921, Theft by Unlawful Taking or Disposition.&lt;br/&gt;"/><marker lat="40.391808979644708" lng="-80.016709964153662" zone="Zone 6" incidentdate="2014-11-13" incidenttime="11:10:00" incidentnumber="14225841" address="Brookline Blvd &amp; Queensboro Ave" type="OFFENSE" age="" gender="" description="*********************************************** &lt;br/&gt;2709(a), Harassment.&lt;br/&gt;"/><marker lat="40.454806568300299" lng="-79.894826159537004" zone="Zone 5" incidentdate="2014-11-13" incidenttime="17:07:00" incidentnumber="14225995" address="7300 block Kelly St" type="OFFENSE" age="" gender="" description="*********************************************** &lt;br/&gt;2701(a)(1), Simple Assault - Intent., Know., Reckless.Cause Bod. Injury&lt;br/&gt;"/><marker lat="40.394596001389878" lng="-80.028527556856631" zone="Zone 6" incidentdate="2014-11-13" incidenttime="16:45:00" incidentnumber="14225937" address="3000 block Pioneer Ave" type="OFFENSE" age="" gender="" description="*********************************************** &lt;br/&gt;9497, Aided Case&lt;br/&gt;"/><marker lat="40.434247237323419" lng="-79.933100217654697" zone="Zone 4" incidentdate="2014-11-13" incidenttime="18:00:00" incidentnumber="14226029" address="5400 block Bartlett St" type="OFFENSE" age="" gender="" description="*********************************************** &lt;br/&gt;3502, Burglary.&lt;br/&gt;"/><marker lat="40.475743982324708" lng="-79.999473074803177" zone="Zone 1" incidentdate="2014-11-13" incidenttime="11:38:00" incidentnumber="14225854" address="800 block Mt Pleasant Rd" type="OFFENSE" age="" gender="" description="*********************************************** &lt;br/&gt;5505, Public Drunkenness&lt;br/&gt;"/><marker lat="40.486307209227547" lng="-80.043447242593288" zone="Zone 1" incidentdate="2014-11-13" incidenttime="18:11:00" incidentnumber="14226028" address="4000 block California Ave" type="OFFENSE" age="" gender="" description="*********************************************** &lt;br/&gt;9488, False  Burglar Alarm&lt;br/&gt;"/><marker lat="40.456369305783525" lng="-80.053424121419937" zone="Zone 6" incidentdate="2014-11-13" incidenttime="20:39:00" incidentnumber="14226116" address="3000 block Zephyr Ave" type="OFFENSE" age="" gender="" description="*********************************************** &lt;br/&gt;029, Missing Juvenile&lt;br/&gt;"/><marker lat="40.456885755361007" lng="-80.054867253123305" zone="Zone 6" incidentdate="2014-11-13" incidenttime="01:54:00" incidentnumber="14225627" address="3100 block Bergman St" type="OFFENSE" age="" gender="" description="*********************************************** &lt;br/&gt;9999, 9999 - (Misc. Incident):&lt;br/&gt;"/><marker lat="40.379315079593958" lng="-79.991541972980926" zone="Zone 3" incidentdate="2014-11-13" incidenttime="09:30:00" incidentnumber="14225780" address="Mullooly St" type="OFFENSE" age="" gender="" description="*********************************************** &lt;br/&gt;3502, Burglary.&lt;br/&gt;"/><marker lat="40.465572965846853" lng="-79.954878738691846" zone="Zone 5" incidentdate="2014-11-13" incidenttime="18:10:00" incidentnumber="14225936" address="4100 block Penn Ave" type="OFFENSE" age="" gender="" description="*********************************************** &lt;br/&gt;2709(a), Harassment.&lt;br/&gt;"/><marker lat="40.449558530122637" lng="-80.0555783091135" zone="Zone 6" incidentdate="2014-11-13" incidenttime="08:36:00" incidentnumber="14225745" address="1200 block Justine St" type="OFFENSE" age="" gender="" description="*********************************************** &lt;br/&gt;9488, False  Burglar Alarm&lt;br/&gt;"/><marker lat="40.445590651116305" lng="-79.949387243364313" zone="Zone 4" incidentdate="2014-11-13" incidenttime="09:30:00" incidentnumber="14225794" address="300 block N Craig St" type="OFFENSE" age="" gender="" description="*********************************************** &lt;br/&gt;2706, Terroristic Threats.&lt;br/&gt;2701, Simple Assault.&lt;br/&gt;"/><marker lat="40.450496053299034" lng="-80.065400619016998" zone="Zone 6" incidentdate="2014-11-13" incidenttime="09:00:00" incidentnumber="14225775" address="3100 block Middletown Rd" type="OFFENSE" age="" gender="" description="*********************************************** &lt;br/&gt;3745, Accidents Involving Damage to Unattended Veh.or Prop.&lt;br/&gt;"/><marker lat="40.432768273348586" lng="-79.954930006853985" zone="Zone 4" incidentdate="2014-11-13" incidenttime="11:15:00" incidentnumber="14225840" address="3200 block Ward St" type="OFFENSE" age="" gender="" description="*********************************************** &lt;br/&gt;9999, 9999 - (Misc. Incident):&lt;br/&gt;"/><marker lat="40.460331677207698" lng="-79.915726071857947" zone="Zone 5" incidentdate="2014-11-13" incidenttime="20:00:00" incidentnumber="14226101" address="5800 block East Liberty Blvd" type="OFFENSE" age="" gender="" description="*********************************************** &lt;br/&gt;3502, Burglary.&lt;br/&gt;"/><marker lat="40.381775663195995" lng="-79.97908793358603" zone="Zone 3" incidentdate="2014-11-13" incidenttime="12:25:00" incidentnumber="14225857" address="100 block Owendale Ave" type="OFFENSE" age="" gender="" description="*********************************************** &lt;br/&gt;3502, Burglary.&lt;br/&gt;"/><marker lat="40.41516891099009" lng="-79.963907665244008" zone="Zone 3" incidentdate="2014-11-13" incidenttime="15:57:00" incidentnumber="14225961" address="2900 block Spring St" type="OFFENSE" age="" gender="" description="*********************************************** &lt;br/&gt;3304, Criminal Mischief.&lt;br/&gt;3502, Burglary.&lt;br/&gt;"/><marker lat="40.436787820656143" lng="-79.963246150058893" zone="Zone 4" incidentdate="2014-11-13" incidenttime="16:15:00" incidentnumber="14226074" address="200 block Craft Ave" type="OFFENSE" age="" gender="" description="*********************************************** &lt;br/&gt;9496, Dead on Arrival (DOA)&lt;br/&gt;"/><marker lat="40.4541123956474" lng="-79.925390519874014" zone="Zone 4" incidentdate="2014-11-13" incidenttime="05:45:00" incidentnumber="14225694" address="300 block S Highland Ave" type="OFFENSE" age="" gender="" description="*********************************************** &lt;br/&gt;13(a)(16), Possession of Controlled Substance&lt;br/&gt;5503, Disorderly Conduct.&lt;br/&gt;13(a)(32), Paraphernalia - Use or Possession&lt;br/&gt;"/><marker lat="40.428478873788158" lng="-79.980265799395895" zone="Zone 3" incidentdate="2014-11-13" incidenttime="10:00:00" incidentnumber="14225795" address="1800 block E Carson St" type="OFFENSE" age="" gender="" description="*********************************************** &lt;br/&gt;9999, 9999 - (Misc. Incident):&lt;br/&gt;"/><marker lat="40.447286327639276" lng="-79.896573500012451" zone="Zone 4" incidentdate="2014-11-13" incidenttime="10:26:00" incidentnumber="14225825" address="7500 block Penn Ave" type="OFFENSE" age="" gender="" description="*********************************************** &lt;br/&gt;3921(a), Theft by Unlawful Taking or Disposition - Movable item&lt;br/&gt;"/><marker lat="40.442888113190847" lng="-79.997936520552642" zone="Zone 2" incidentdate="2014-11-13" incidenttime="02:26:00" incidentnumber="14225641" address="900 block Liberty Ave" type="OFFENSE" age="" gender="" description="*********************************************** &lt;br/&gt;3503.B1I, DEF. TRESPASS ACTUAL COMMUNICATION&lt;br/&gt;5505, Public Drunkenness&lt;br/&gt;"/><marker lat="40.406406082175565" lng="-80.028867740852505" zone="Zone 6" incidentdate="2014-11-13" incidenttime="13:40:00" incidentnumber="14225912" address="2000 block Broadway Ave" type="OFFENSE" age="" gender="" description="*********************************************** &lt;br/&gt;9490, Missing Persons (18 and Over)&lt;br/&gt;"/><marker lat="40.436685838477466" lng="-80.056407361823346" zone="Zone 6" incidentdate="2014-11-13" incidenttime="08:13:00" incidentnumber="14225743" address="1400 block Barr Ave" type="OFFENSE" age="" gender="" description="*********************************************** &lt;br/&gt;3304(a)(5), CRIMINAL MISCHIEF - Intentionally Damages Real Or Personal Property Of Another&lt;br/&gt;"/><marker lat="40.443610698976059" lng="-79.998043561602501" zone="Zone 2" incidentdate="2014-11-13" incidenttime="08:00:00" incidentnumber="14225938" address="900 block Penn Ave" type="OFFENSE" age="" gender="" description="*********************************************** &lt;br/&gt;3924, Theft of Property Lost, Mislaid or Delivered by Mistake.&lt;br/&gt;"/><marker lat="40.443919803552113" lng="-79.976677867110723" zone="Zone 2" incidentdate="2014-11-13" incidenttime="17:00:00" incidentnumber="14225976" address="2100 block Rose St" type="OFFENSE" age="" gender="" description="*********************************************** &lt;br/&gt;9501, Bench Warrant&lt;br/&gt;3925, Receiving Stolen Property.&lt;br/&gt;1501, Drivers Required to be Licensed.&lt;br/&gt;"/><marker lat="40.417400710446842" lng="-80.000476689810228" zone="Zone 3" incidentdate="2014-11-13" incidenttime="08:00:00" incidentnumber="14225963" address="600 block Estella St" type="OFFENSE" age="" gender="" description="*********************************************** &lt;br/&gt;3503, Criminal Trespass&lt;br/&gt;"/><marker lat="40.458419043971773" lng="-79.901059589332277" zone="Zone 5" incidentdate="2014-11-13" incidenttime="19:58:00" incidentnumber="14226088" address="7000 block Frankstown Ave" type="OFFENSE" age="" gender="" description="*********************************************** &lt;br/&gt;3304, Criminal Mischief.&lt;br/&gt;"/><marker lat="40.474216187473878" lng="-79.90827518828867" zone="Zone 5" incidentdate="2014-11-13" incidenttime="19:40:00" incidentnumber="14226082" address="Washington Blvd &amp; Highland Dr" type="OFFENSE" age="" gender="" description="*********************************************** &lt;br/&gt;029, Missing Juvenile&lt;br/&gt;"/><marker lat="40.400002608625705" lng="-79.989850080723912" zone="Zone 3" incidentdate="2014-11-13" incidenttime="18:54:00" incidentnumber="14226059" address="1600 block Dellrose St" type="OFFENSE" age="" gender="" description="*********************************************** &lt;br/&gt;2701, Simple Assault.&lt;br/&gt;"/><marker lat="40.465737420007294" lng="-79.991823556102986" zone="Zone 1" incidentdate="2014-11-13" incidenttime="06:11:00" incidentnumber="14225699" address="1300 block Damas St" type="OFFENSE" age="" gender="" description="*********************************************** &lt;br/&gt;9488, False  Burglar Alarm&lt;br/&gt;"/><marker lat="40.464441156580989" lng="-79.936415907960978" zone="Zone 5" incidentdate="2014-11-13" incidenttime="02:41:00" incidentnumber="14225645" address="5400 block Penn Ave" type="OFFENSE" age="" gender="" description="*********************************************** &lt;br/&gt;9488, False  Burglar Alarm&lt;br/&gt;"/><marker lat="40.429228381173026" lng="-79.980513714480466" zone="Zone 3" incidentdate="2014-11-13" incidenttime="09:30:00" incidentnumber="14225889" address="S 18TH St &amp; Wrights Way" type="OFFENSE" age="" gender="" description="*********************************************** &lt;br/&gt;3921, Theft by Unlawful Taking or Disposition.&lt;br/&gt;"/><marker lat="40.43940334638495" lng="-79.99688411397743" zone="Zone 2" incidentdate="2014-11-13" incidenttime="07:55:00" incidentnumber="14225729" address="200 block Grant St" type="OFFENSE" age="" gender="" description="*********************************************** &lt;br/&gt;3304, Criminal Mischief.&lt;br/&gt;2709(a), Harassment.&lt;br/&gt;3503, Criminal Trespass&lt;br/&gt;2706, Terroristic Threats.&lt;br/&gt;"/><marker lat="40.472674190828158" lng="-80.009114668623639" zone="Zone 1" incidentdate="2014-11-13" incidenttime="18:40:00" incidentnumber="14226051" address="2700 block Veteran St" type="OFFENSE" age="" gender="" description="*********************************************** &lt;br/&gt;2701, Simple Assault.&lt;br/&gt;"/><marker lat="40.461258371792546" lng="-79.934460274545486" zone="Zone 5" incidentdate="2014-11-13" incidenttime="11:48:00" incidentnumber="14225859" address="300 block S Fairmount St" type="OFFENSE" age="" gender="" description="*********************************************** &lt;br/&gt;2702, Aggravated Assault.&lt;br/&gt;907, Possessing Instruments of Crime.&lt;br/&gt;2705, Recklessly Endangering Another Person.&lt;br/&gt;3302, Causing or Risking Catastrophe.&lt;br/&gt;3503, Criminal Trespass&lt;br/&gt;2706, Terroristic Threats.&lt;br/&gt;"/><marker lat="40.453087824966865" lng="-80.000287901381768" zone="Zone 1" incidentdate="2014-11-13" incidenttime="13:38:00" incidentnumber="14225911" address="500 block Avery St" type="OFFENSE" age="" gender="" description="*********************************************** &lt;br/&gt;13(a)(31), Marijuana: Possession Small Amount&lt;br/&gt;13(a)(16), Possession of Controlled Substance&lt;br/&gt;1543, Driving While Operating Privilege is Suspended or Revoked.&lt;br/&gt;13(a)(30), Possession w/ Intent to Del. Controlled Substance&lt;br/&gt;7512, Criminal Use of Communication&lt;br/&gt;903, Criminal Conspiracy.&lt;br/&gt;"/><marker lat="40.435095503606554" lng="-79.993077686753679" zone="Zone 2" incidentdate="2014-11-13" incidenttime="13:50:00" incidentnumber="14222920" address="900 block sECOND Ave" type="ARREST" age="35" gender="M" description="*********************************************** &lt;br/&gt;4910, Tampering with or Fabricating Physical Evidence.&lt;br/&gt;1501(A), Valid Drivers License Required&lt;br/&gt;1515, Notice of Change of Name or Address.&lt;br/&gt;3301, Arson&lt;br/&gt;5104, Resisting Arrest or Other Law Enforcement.&lt;br/&gt;3802(a)(1), DUI - General Impairment&lt;br/&gt;5121, Escape.&lt;br/&gt;13(a)(31), Marijuana: Possession Small Amount&lt;br/&gt;5506, Loitering and Prowling at Night&lt;br/&gt;"/><marker lat="40.421103596071127" lng="-79.985317176382438" zone="Zone 3" incidentdate="2014-11-13" incidenttime="14:00:00" incidentnumber="14223507" address="2600 block S 18th St" type="ARREST" age="55" gender="M" description="*********************************************** &lt;br/&gt;9093, Indirect Criminal Contempt&lt;br/&gt;3701, Robbery.&lt;br/&gt;2701(a)(1), Simple Assault - Intent., Know., Reckless.Cause Bod. Injury&lt;br/&gt;"/><marker lat="40.435095503606554" lng="-79.993077686753679" zone="Zone 2" incidentdate="2014-11-13" incidenttime="14:15:00" incidentnumber="14192564" address="900 block 2nd Ave" type="ARREST" age="55" gender="M" description="*********************************************** &lt;br/&gt;4915, Failure to Comply with Megans Law&lt;br/&gt;"/><marker lat="40.463283143352811" lng="-79.964035391253063" zone="Zone 2" incidentdate="2014-11-13" incidenttime="13:38:00" incidentnumber="14224674" address="3600 block Denny St" type="ARREST" age="21" gender="M" description="*********************************************** &lt;br/&gt;13(a)(16), Possession of Controlled Substance&lt;br/&gt;2701, Simple Assault.&lt;br/&gt;13(a)(32), Paraphernalia - Use or Possession&lt;br/&gt;2705, Recklessly Endangering Another Person.&lt;br/&gt;3928, Unauthorized Use of Automobile and Other Vehicles.&lt;br/&gt;"/><marker lat="40.454806568300299" lng="-79.894826159537004" zone="Zone 5" incidentdate="2014-11-13" incidenttime="17:15:00" incidentnumber="14225995" address="7300 block Kelly St" type="ARREST" age="44" gender="F" description="*********************************************** &lt;br/&gt;2701(a)(1), Simple Assault - Intent., Know., Reckless.Cause Bod. Injury&lt;br/&gt;"/><marker lat="40.400002608625705" lng="-79.989850080723912" zone="Zone 3" incidentdate="2014-11-13" incidenttime="19:14:00" incidentnumber="14226059" address="1600 block Dellrose St" type="ARREST" age="26" gender="F" description="*********************************************** &lt;br/&gt;2701, Simple Assault.&lt;br/&gt;"/><marker lat="40.4541123956474" lng="-79.925390519874014" zone="Zone 4" incidentdate="2014-11-13" incidenttime="06:00:00" incidentnumber="14225694" address="300 block S Highland Ave" type="ARREST" age="23" gender="M" description="*********************************************** &lt;br/&gt;13(a)(16), Possession of Controlled Substance&lt;br/&gt;5503, Disorderly Conduct.&lt;br/&gt;13(a)(32), Paraphernalia - Use or Possession&lt;br/&gt;"/><marker lat="40.409907809469559" lng="-79.944055701424162" zone="Zone 4" incidentdate="2014-11-13" incidenttime="12:00:00" incidentnumber="14199942" address="4900 block 2nd Ave" type="ARREST" age="72" gender="M" description="*********************************************** &lt;br/&gt;2705, Recklessly Endangering Another Person.&lt;br/&gt;3802(c), DUI - Highest Rate of Alcohol - BAC &gt;= .16%&lt;br/&gt;"/><marker lat="40.453087824966865" lng="-80.000287901381768" zone="Zone 1" incidentdate="2014-11-13" incidenttime="13:38:00" incidentnumber="14225911" address="500 block Avery St" type="ARREST" age="23" gender="M" description="*********************************************** &lt;br/&gt;13(a)(31), Marijuana: Possession Small Amount&lt;br/&gt;13(a)(16), Possession of Controlled Substance&lt;br/&gt;1543, Driving While Operating Privilege is Suspended or Revoked.&lt;br/&gt;13(a)(30), Possession w/ Intent to Del. Controlled Substance&lt;br/&gt;7512, Criminal Use of Communication&lt;br/&gt;903, Criminal Conspiracy.&lt;br/&gt;"/><marker lat="40.43940334638495" lng="-79.99688411397743" zone="Zone 2" incidentdate="2014-11-13" incidenttime="08:10:00" incidentnumber="14225729" address="200 block Grant St" type="ARREST" age="" gender="" description="*********************************************** &lt;br/&gt;3304, Criminal Mischief.&lt;br/&gt;2709(a), Harassment.&lt;br/&gt;3503, Criminal Trespass&lt;br/&gt;2706, Terroristic Threats.&lt;br/&gt;"/><marker lat="40.424909761781095" lng="-79.979733194998332" zone="Zone 3" incidentdate="2014-11-13" incidenttime="02:20:00" incidentnumber="14225639" address="S 18th St &amp; Josephine St" type="ARREST" age="32" gender="M" description="*********************************************** &lt;br/&gt;1543, Driving While Operating Privilege is Suspended or Revoked.&lt;br/&gt;3111, Obedience to Traffic-Control Devices.&lt;br/&gt;3733, Fleeing or Attempting to Elude Police Officer&lt;br/&gt;3802(a)(1), DUI - General Impairment&lt;br/&gt;"/><marker lat="40.453087824966865" lng="-80.000287901381768" zone="Zone 1" incidentdate="2014-11-13" incidenttime="13:38:00" incidentnumber="14225911" address="500 block Avery St" type="ARREST" age="27" gender="M" description="*********************************************** &lt;br/&gt;13(a)(31), Marijuana: Possession Small Amount&lt;br/&gt;13(a)(16), Possession of Controlled Substance&lt;br/&gt;1543, Driving While Operating Privilege is Suspended or Revoked.&lt;br/&gt;13(a)(30), Possession w/ Intent to Del. Controlled Substance&lt;br/&gt;7512, Criminal Use of Communication&lt;br/&gt;903, Criminal Conspiracy.&lt;br/&gt;"/><marker lat="40.453087824966865" lng="-80.000287901381768" zone="Zone 1" incidentdate="2014-11-13" incidenttime="13:38:00" incidentnumber="14225911" address="500 block Avery St" type="ARREST" age="21" gender="M" description="*********************************************** &lt;br/&gt;13(a)(31), Marijuana: Possession Small Amount&lt;br/&gt;13(a)(16), Possession of Controlled Substance&lt;br/&gt;1543, Driving While Operating Privilege is Suspended or Revoked.&lt;br/&gt;13(a)(30), Possession w/ Intent to Del. Controlled Substance&lt;br/&gt;7512, Criminal Use of Communication&lt;br/&gt;903, Criminal Conspiracy.&lt;br/&gt;"/><marker lat="40.461258371792546" lng="-79.934460274545486" zone="Zone 5" incidentdate="2014-11-13" incidenttime="17:26:00" incidentnumber="14225859" address="300 block S Fairmount St" type="ARREST" age="61" gender="M" description="*********************************************** &lt;br/&gt;2702, Aggravated Assault.&lt;br/&gt;907, Possessing Instruments of Crime.&lt;br/&gt;2705, Recklessly Endangering Another Person.&lt;br/&gt;3302, Causing or Risking Catastrophe.&lt;br/&gt;3503, Criminal Trespass&lt;br/&gt;2706, Terroristic Threats.&lt;br/&gt;"/><marker lat="40.458683229054266" lng="-79.998341257254594" zone="Zone 1" incidentdate="2014-11-13" incidenttime="02:20:00" incidentnumber="14225636" address="Madison Ave &amp; East St" type="ARREST" age="26" gender="M" description="*********************************************** &lt;br/&gt;3736, Reckless Driving&lt;br/&gt;3802(a)(1), DUI - General Impairment&lt;br/&gt;3802(c), DUI - Highest Rate of Alcohol - BAC &gt;= .16%&lt;br/&gt;3308, One-Way Roadways and Rotary Traffic Islands.&lt;br/&gt;"/><marker lat="40.443919803552113" lng="-79.976677867110723" zone="Zone 2" incidentdate="2014-11-13" incidenttime="16:22:00" incidentnumber="14225976" address="2100 block Rose St" type="ARREST" age="25" gender="M" description="*********************************************** &lt;br/&gt;9501, Bench Warrant&lt;br/&gt;3925, Receiving Stolen Property.&lt;br/&gt;1501, Drivers Required to be Licensed.&lt;br/&gt;"/></markers>
