<?xml version="1.0"?>
<markers><marker lat="40.435268181594665" lng="-79.994397681613918" zone="Zone 2" incidentdate="2016-03-24" incidenttime="00:20:00" incidentnumber="16052414" address="700 block 2nd Ave" type="OFFENSE" age="" gender="" description="*********************************************** &lt;br/&gt;9497, Aided Case&lt;br/&gt;"/><marker lat="40.47124237362948" lng="-79.919972029991357" zone="Zone 5" incidentdate="2016-03-24" incidenttime="19:00:00" incidentnumber="16052970" address="900 block N Highland Ave" type="OFFENSE" age="" gender="" description="*********************************************** &lt;br/&gt;3934, Theft from Vehicle&lt;br/&gt;"/><marker lat="40.422703998069622" lng="-79.995775354266669" zone="Zone 3" incidentdate="2016-03-24" incidenttime="03:30:00" incidentnumber="16052488" address="700 block Excelsior St" type="OFFENSE" age="" gender="" description="*********************************************** &lt;br/&gt;3502, Burglary.&lt;br/&gt;"/><marker lat="40.451945421387748" lng="-79.952009729366381" zone="Zone 4" incidentdate="2016-03-24" incidenttime="18:38:00" incidentnumber="16052969" address="4600 block Centre Ave" type="OFFENSE" age="" gender="" description="*********************************************** &lt;br/&gt;3929(a)(1), Retail Theft; takes possession of, carries away, or transfers displayed merchandise&lt;br/&gt;"/><marker lat="40.453087824966865" lng="-80.000287901381768" zone="Zone 1" incidentdate="2016-03-24" incidenttime="15:45:00" incidentnumber="16052885" address="500 block avery St" type="OFFENSE" age="" gender="" description="*********************************************** &lt;br/&gt;2709(a)(3), Harassment No Legitimate Purpose&lt;br/&gt;"/><marker lat="40.462490434210274" lng="-79.924344976494197" zone="Zone 5" incidentdate="2016-03-24" incidenttime="18:05:00" incidentnumber="16052196" address="Broad St &amp; N Highland Ave" type="OFFENSE" age="" gender="" description="*********************************************** &lt;br/&gt;13(a)(31), Marijuana: Possession Small Amount&lt;br/&gt;"/><marker lat="40.472866452963352" lng="-79.930425366944149" zone="Zone 5" incidentdate="2016-03-24" incidenttime="04:40:00" incidentnumber="16052505" address="5400 block Stanton Ave" type="OFFENSE" age="" gender="" description="*********************************************** &lt;br/&gt;9497, Aided Case&lt;br/&gt;"/><marker lat="40.404939361855945" lng="-79.990899233620965" zone="Zone 3" incidentdate="2016-03-24" incidenttime="17:18:00" incidentnumber="16052876" address="1100 block Brownsville Rd" type="OFFENSE" age="" gender="" description="*********************************************** &lt;br/&gt;13(a)(16), Possession of Controlled Substance&lt;br/&gt;13(a)(32), Paraphernalia - Use or Possession&lt;br/&gt;1543, Driving While Operating Privilege is Suspended or Revoked.&lt;br/&gt;4303, General Lighting Requirements.&lt;br/&gt;"/><marker lat="40.4539864" lng="-80.0524093" zone="Zone 6" incidentdate="2016-03-24" incidenttime="02:05:00" incidentnumber="16052462" address="600 block Hillsboro St" type="OFFENSE" age="" gender="" description="*********************************************** &lt;br/&gt;3304(a)(5), CRIMINAL MISCHIEF - Intentionally Damages Real Or Personal Property Of Another&lt;br/&gt;"/><marker lat="40.475068872094958" lng="-80.013705358576715" zone="Zone 1" incidentdate="2016-03-24" incidenttime="00:10:00" incidentnumber="16052402" address="200 block Marshall Ave" type="OFFENSE" age="" gender="" description="*********************************************** &lt;br/&gt;9488, False  Burglar Alarm&lt;br/&gt;"/><marker lat="40.443580942147605" lng="-79.979979097296493" zone="Zone 2" incidentdate="2016-03-24" incidenttime="00:00:00" incidentnumber="16053071" address="2000 block Centre Ave" type="OFFENSE" age="" gender="" description="*********************************************** &lt;br/&gt;9124, Drug Investigation&lt;br/&gt;"/><marker lat="40.460706790003542" lng="-79.923780776230444" zone="Zone 5" incidentdate="2016-03-24" incidenttime="18:29:00" incidentnumber="16052936" address="6100 block Penn Ave" type="OFFENSE" age="" gender="" description="*********************************************** &lt;br/&gt;13(a)(32), Paraphernalia - Use or Possession&lt;br/&gt;3929(a)(1), Retail Theft; takes possession of, carries away, or transfers displayed merchandise&lt;br/&gt;"/><marker lat="40.410114939314859" lng="-79.9951081951465" zone="Zone 3" incidentdate="2016-03-24" incidenttime="20:30:00" incidentnumber="16053043" address="400 block Alice St" type="OFFENSE" age="" gender="" description="*********************************************** &lt;br/&gt;3745, Accidents Involving Damage to Unattended Veh.or Prop.&lt;br/&gt;"/><marker lat="40.395473808932472" lng="-80.026022712465533" zone="Zone 6" incidentdate="2016-03-24" incidenttime="18:00:00" incidentnumber="16052964" address="2800 block Shawhan Ave" type="OFFENSE" age="" gender="" description="*********************************************** &lt;br/&gt;3304, Criminal Mischief.&lt;br/&gt;"/><marker lat="40.464774823811233" lng="-79.942733938845166" zone="Zone 5" incidentdate="2016-03-24" incidenttime="21:10:00" incidentnumber="16053059" address="5100 block Penn Ave" type="OFFENSE" age="" gender="" description="*********************************************** &lt;br/&gt;3745, Accidents Involving Damage to Unattended Veh.or Prop.&lt;br/&gt;"/><marker lat="40.41735986958448" lng="-79.997527623405105" zone="Zone 3" incidentdate="2016-03-24" incidenttime="18:11:00" incidentnumber="16052927" address="600 block Beltzhoover Ave" type="OFFENSE" age="" gender="" description="*********************************************** &lt;br/&gt;13(a)(31), Marijuana: Possession Small Amount&lt;br/&gt;"/><marker lat="40.441525254290028" lng="-79.997405508645585" zone="Zone 2" incidentdate="2016-03-24" incidenttime="17:45:00" incidentnumber="16052911" address="600 block Smithfield St" type="OFFENSE" age="" gender="" description="*********************************************** &lt;br/&gt;3921, Theft by Unlawful Taking or Disposition.&lt;br/&gt;"/><marker lat="40.4695686" lng="-79.9264328" zone="Zone 5" incidentdate="2016-03-24" incidenttime="09:45:00" incidentnumber="16052606" address="700 block Portland Way" type="OFFENSE" age="" gender="" description="*********************************************** &lt;br/&gt;9496, Dead on Arrival (DOA)&lt;br/&gt;"/><marker lat="40.443580942147605" lng="-79.979979097296493" zone="Zone 2" incidentdate="2016-03-24" incidenttime="02:47:00" incidentnumber="16052472" address="2000 block Centre Ave" type="OFFENSE" age="" gender="" description="*********************************************** &lt;br/&gt;9999, 9999 - (Misc. Incident):&lt;br/&gt;"/><marker lat="40.421531877189601" lng="-79.993577564166102" zone="Zone 3" incidentdate="2016-03-24" incidenttime="23:40:00" incidentnumber="16053118" address="800 block E Warrington Ave" type="OFFENSE" age="" gender="" description="*********************************************** &lt;br/&gt;13(a)(16), Possession of Controlled Substance&lt;br/&gt;13(a)(32), Paraphernalia - Use or Possession&lt;br/&gt;"/><marker lat="40.487551319845878" lng="-80.016020890107271" zone="Zone 1" incidentdate="2016-03-24" incidenttime="04:55:00" incidentnumber="16052509" address="3800 block Perrysville Ave" type="OFFENSE" age="" gender="" description="*********************************************** &lt;br/&gt;9488, False  Burglar Alarm&lt;br/&gt;"/><marker lat="40.4406248" lng="-79.9958864" zone="Zone 2" incidentdate="2016-03-24" incidenttime="15:42:00" incidentnumber="16052797" address="Liberty Brg &amp; Blvd of the Allies Ramp" type="OFFENSE" age="" gender="" description="*********************************************** &lt;br/&gt;3743, Accidents Involving Damage to Attended Veh. or Property&lt;br/&gt;"/><marker lat="40.460659662082321" lng="-79.902054306175017" zone="Zone 5" incidentdate="2016-03-24" incidenttime="08:00:00" incidentnumber="16052557" address="6900 block Monticello St" type="OFFENSE" age="" gender="" description="*********************************************** &lt;br/&gt;3304, Criminal Mischief.&lt;br/&gt;"/><marker lat="40.4964736" lng="-80.0090028" zone="Zone 1" incidentdate="2016-03-24" incidenttime="10:00:00" incidentnumber="16052782" address="4400 block Cherryland St" type="OFFENSE" age="" gender="" description="*********************************************** &lt;br/&gt;3921, Theft by Unlawful Taking or Disposition.&lt;br/&gt;"/><marker lat="40.417413545246902" lng="-80.000405302701367" zone="Zone 3" incidentdate="2016-03-24" incidenttime="18:11:00" incidentnumber="16022006" address="Sylvania Ave &amp; Estella Ave" type="OFFENSE" age="" gender="" description="*********************************************** &lt;br/&gt;9015, Failure To Appear/Arrest on Attachment Order&lt;br/&gt;1543, Driving While Operating Privilege is Suspended or Revoked.&lt;br/&gt;3925, Receiving Stolen Property.&lt;br/&gt;1372, Unauthorized Transfer or Use of Registration.&lt;br/&gt;13(a)(31)(i), Marijuana - Possess Small Amt for Personal Use&lt;br/&gt;"/><marker lat="40.472974253243102" lng="-79.888816248155337" zone="Zone 5" incidentdate="2016-03-24" incidenttime="19:45:00" incidentnumber="16053024" address="Lincoln Ave &amp; Verona Blvd" type="OFFENSE" age="" gender="" description="*********************************************** &lt;br/&gt;9501, Bench Warrant&lt;br/&gt;"/><marker lat="40.472045971673282" lng="-79.922930341828206" zone="Zone 5" incidentdate="2016-03-24" incidenttime="07:19:00" incidentnumber="16052901" address="900 block N St Clair St" type="OFFENSE" age="" gender="" description="*********************************************** &lt;br/&gt;4106, Access Device Fraud&lt;br/&gt;"/><marker lat="40.459011372372338" lng="-80.006373190229326" zone="Zone 1" incidentdate="2016-03-24" incidenttime="17:45:00" incidentnumber="16052915" address="Fountain St &amp; Loraine St" type="OFFENSE" age="" gender="" description="*********************************************** &lt;br/&gt;13(a)(16), Possession of Controlled Substance&lt;br/&gt;9501, Bench Warrant&lt;br/&gt;"/><marker lat="40.449422491543451" lng="-79.97568702815903" zone="Zone 2" incidentdate="2016-03-24" incidenttime="22:55:00" incidentnumber="16053111" address="2200 block Somers Dr" type="OFFENSE" age="" gender="" description="*********************************************** &lt;br/&gt;2701, Simple Assault.&lt;br/&gt;3304(a)(5), CRIMINAL MISCHIEF - Intentionally Damages Real Or Personal Property Of Another&lt;br/&gt;"/><marker lat="40.454365192078292" lng="-80.061718435263586" zone="Zone 6" incidentdate="2016-03-24" incidenttime="18:00:00" incidentnumber="16052904" address="1100 block Sutherland St" type="OFFENSE" age="" gender="" description="*********************************************** &lt;br/&gt;4952, Intimidation of Witnesses or Victims&lt;br/&gt;"/><marker lat="40.492966157143279" lng="-80.021620944344832" zone="Zone 1" incidentdate="2016-03-24" incidenttime="07:30:00" incidentnumber="16052855" address="4100 block Perrysville Ave" type="OFFENSE" age="" gender="" description="*********************************************** &lt;br/&gt;3934, Theft from Vehicle&lt;br/&gt;"/><marker lat="40.441741853914216" lng="-79.958400701561686" zone="Zone 4" incidentdate="2016-03-24" incidenttime="08:15:00" incidentnumber="16052567" address="3700 block 5th Ave" type="OFFENSE" age="" gender="" description="*********************************************** &lt;br/&gt;2709(a), Harassment.&lt;br/&gt;"/><marker lat="40.444456398176314" lng="-79.995609095349934" zone="Zone 2" incidentdate="2016-03-24" incidenttime="10:00:00" incidentnumber="16052584" address="10th St &amp; Penn Ave" type="OFFENSE" age="" gender="" description="*********************************************** &lt;br/&gt;8104, CLASS 1 - Suspicious Package or Device&lt;br/&gt;"/><marker lat="40.454614947288412" lng="-80.014854314791251" zone="Zone 1" incidentdate="2016-03-24" incidenttime="07:00:00" incidentnumber="16052538" address="1200 block Brighton Rd" type="OFFENSE" age="" gender="" description="*********************************************** &lt;br/&gt;3745, Accidents Involving Damage to Unattended Veh.or Prop.&lt;br/&gt;"/><marker lat="40.403265084499751" lng="-80.017530448582932" zone="Zone 6" incidentdate="2016-03-24" incidenttime="14:30:00" incidentnumber="16052907" address="2000 block Woodward Ave" type="OFFENSE" age="" gender="" description="*********************************************** &lt;br/&gt;3745, Accidents Involving Damage to Unattended Veh.or Prop.&lt;br/&gt;"/><marker lat="40.407448554705063" lng="-80.02376225838978" zone="Zone 6" incidentdate="2016-03-24" incidenttime="17:37:00" incidentnumber="16052908" address="1800 block Fallowfield Ave" type="OFFENSE" age="" gender="" description="*********************************************** &lt;br/&gt;3502, Burglary.&lt;br/&gt;"/><marker lat="40.45614291324403" lng="-80.015399745388805" zone="Zone 1" incidentdate="2016-03-24" incidenttime="14:20:00" incidentnumber="16052819" address="800 block Pennsylvania Ave" type="OFFENSE" age="" gender="" description="*********************************************** &lt;br/&gt;3929, Retail Theft.&lt;br/&gt;"/><marker lat="40.444834569584067" lng="-79.979230886517598" zone="Zone 2" incidentdate="2016-03-24" incidenttime="15:14:00" incidentnumber="16052786" address="2100 block Wylie Ave" type="OFFENSE" age="" gender="" description="*********************************************** &lt;br/&gt;9999, 9999 - (Misc. Incident):&lt;br/&gt;"/><marker lat="40.454202808202275" lng="-79.895659746413855" zone="Zone 5" incidentdate="2016-03-24" incidenttime="17:06:00" incidentnumber="16052870" address="Hamilton Ave &amp; Albion St" type="OFFENSE" age="" gender="" description="*********************************************** &lt;br/&gt;2702, Aggravated Assault.&lt;br/&gt;2701, Simple Assault.&lt;br/&gt;3925, Receiving Stolen Property.&lt;br/&gt;6106, Firearms not to be Carried without a License.&lt;br/&gt;2706, Terroristic Threats.&lt;br/&gt;6105(a)(1), Persons not to possess, use, manufacture, control, sell or transfer firearms: Former convict enumerated in subsection (b)&lt;br/&gt;"/><marker lat="40.459241184494772" lng="-80.005548013998464" zone="Zone 1" incidentdate="2016-03-24" incidenttime="06:10:00" incidentnumber="16052977" address="1600 block Sandusky Ct" type="OFFENSE" age="" gender="" description="*********************************************** &lt;br/&gt;3745, Accidents Involving Damage to Unattended Veh.or Prop.&lt;br/&gt;"/><marker lat="40.4591323" lng="-79.9232504" zone="Zone 4" incidentdate="2016-03-24" incidenttime="09:23:00" incidentnumber="16052629" address="200 block Emerson St" type="OFFENSE" age="" gender="" description="*********************************************** &lt;br/&gt;2709, Harassment (Non-Specific)&lt;br/&gt;"/><marker lat="40.460623402161843" lng="-79.932766652756285" zone="Zone 5" incidentdate="2016-03-24" incidenttime="00:22:00" incidentnumber="16052405" address="300 block S Negley (Ward Home) Ave" type="OFFENSE" age="" gender="" description="*********************************************** &lt;br/&gt;029, Missing Juvenile&lt;br/&gt;"/><marker lat="40.419150097228041" lng="-80.008720230797849" zone="Zone 3" incidentdate="2016-03-24" incidenttime="12:00:00" incidentnumber="16052981" address="Industry St" type="OFFENSE" age="" gender="" description="*********************************************** &lt;br/&gt;3304, Criminal Mischief.&lt;br/&gt;"/><marker lat="40.462548579580861" lng="-79.927761047517805" zone="Zone 5" incidentdate="2016-03-24" incidenttime="09:38:00" incidentnumber="16052597" address="5800 block Penn Ave" type="OFFENSE" age="" gender="" description="*********************************************** &lt;br/&gt;3928, Unauthorized Use of Automobile and Other Vehicles.&lt;br/&gt;"/><marker lat="40.476255316755903" lng="-79.961308802311763" zone="Zone 2" incidentdate="2016-03-24" incidenttime="19:30:00" incidentnumber="16052995" address="100 block 47th St" type="OFFENSE" age="" gender="" description="*********************************************** &lt;br/&gt;3304, Criminal Mischief.&lt;br/&gt;"/><marker lat="40.415033043282264" lng="-80.008450365667628" zone="Zone 3" incidentdate="2016-03-24" incidenttime="19:20:00" incidentnumber="16052976" address="Buffington Ave &amp; Frampton Ave" type="OFFENSE" age="" gender="" description="*********************************************** &lt;br/&gt;2501, Criminal Homicide.&lt;br/&gt;"/><marker lat="40.458833853713074" lng="-80.021325393398527" zone="Zone 1" incidentdate="2016-03-24" incidenttime="10:48:00" incidentnumber="16052638" address="California Ave &amp; Saint Marks Pl" type="OFFENSE" age="" gender="" description="*********************************************** &lt;br/&gt;2701, Simple Assault.&lt;br/&gt;"/><marker lat="40.4941417465459" lng="-80.009767606011025" zone="Zone 1" incidentdate="2016-03-24" incidenttime="12:40:00" incidentnumber="16052772" address="4100 block Evergreen Rd" type="OFFENSE" age="" gender="" description="*********************************************** &lt;br/&gt;2709, Harassment (Non-Specific)&lt;br/&gt;"/><marker lat="40.425607377091104" lng="-80.013256475065745" zone="Zone 3" incidentdate="2016-03-24" incidenttime="21:48:00" incidentnumber="16053072" address="200 block Dilworth St" type="OFFENSE" age="" gender="" description="*********************************************** &lt;br/&gt;5104, Resisting Arrest or Other Law Enforcement.&lt;br/&gt;5503, Disorderly Conduct.&lt;br/&gt;5505, Public Drunkenness&lt;br/&gt;"/><marker lat="40.470459852290823" lng="-80.0111378348073" zone="Zone 1" incidentdate="2016-03-24" incidenttime="13:05:00" incidentnumber="16052720" address="2900 block N Charles St" type="OFFENSE" age="" gender="" description="*********************************************** &lt;br/&gt;2702, Aggravated Assault.&lt;br/&gt;"/><marker lat="40.437811377822683" lng="-79.988355032042563" zone="Zone 2" incidentdate="2016-03-24" incidenttime="01:09:00" incidentnumber="16052429" address="Forbes Ave &amp; Magee St" type="OFFENSE" age="" gender="" description="*********************************************** &lt;br/&gt;3736, Reckless Driving&lt;br/&gt;3742, Accidents Involving Death or Personal Injury&lt;br/&gt;3743, Accidents Involving Damage to Attended Veh. or Property&lt;br/&gt;5121, Escape.&lt;br/&gt;"/><marker lat="40.444752255352768" lng="-79.899808811707061" zone="Zone 4" incidentdate="2016-03-24" incidenttime="10:00:00" incidentnumber="16052649" address="7400 block Ben Hur St" type="OFFENSE" age="" gender="" description="*********************************************** &lt;br/&gt;2709, Harassment (Non-Specific)&lt;br/&gt;"/><marker lat="40.420419003327964" lng="-79.933138591268104" zone="Zone 4" incidentdate="2016-03-24" incidenttime="19:00:00" incidentnumber="16052923" address="700 block Montclair St" type="OFFENSE" age="" gender="" description="*********************************************** &lt;br/&gt;3921(a), Theft by Unlawful Taking or Disposition - Movable item&lt;br/&gt;"/><marker lat="40.434634564057433" lng="-79.951831916662385" zone="Zone 4" incidentdate="2016-03-24" incidenttime="11:45:00" incidentnumber="16052771" address="3400 block Parkview Ave" type="OFFENSE" age="" gender="" description="*********************************************** &lt;br/&gt;3921, Theft by Unlawful Taking or Disposition.&lt;br/&gt;"/><marker lat="40.453906508972835" lng="-80.056384976774609" zone="Zone 6" incidentdate="2016-03-24" incidenttime="19:45:00" incidentnumber="16053013" address="2900 block Chartiers Ave" type="OFFENSE" age="" gender="" description="*********************************************** &lt;br/&gt;3502, Burglary.&lt;br/&gt;"/><marker lat="40.425607377091104" lng="-80.013256475065745" zone="Zone 3" incidentdate="2016-03-24" incidenttime="21:49:00" incidentnumber="16053072" address="200 block Dilworth St" type="ARREST" age="34" gender="F" description="*********************************************** &lt;br/&gt;5104, Resisting Arrest or Other Law Enforcement.&lt;br/&gt;5503, Disorderly Conduct.&lt;br/&gt;5505, Public Drunkenness&lt;br/&gt;"/><marker lat="40.417413545246902" lng="-80.000405302701367" zone="Zone 3" incidentdate="2016-03-24" incidenttime="18:14:00" incidentnumber="16022006" address="Sylvania Ave &amp; Estella Ave" type="ARREST" age="40" gender="M" description="*********************************************** &lt;br/&gt;9015, Failure To Appear/Arrest on Attachment Order&lt;br/&gt;1543, Driving While Operating Privilege is Suspended or Revoked.&lt;br/&gt;3925, Receiving Stolen Property.&lt;br/&gt;1372, Unauthorized Transfer or Use of Registration.&lt;br/&gt;13(a)(31)(i), Marijuana - Possess Small Amt for Personal Use&lt;br/&gt;"/><marker lat="40.472974253243102" lng="-79.888816248155337" zone="Zone 5" incidentdate="2016-03-24" incidenttime="20:00:00" incidentnumber="16053024" address="Lincoln Ave &amp; Verona Blvd" type="ARREST" age="56" gender="M" description="*********************************************** &lt;br/&gt;9501, Bench Warrant&lt;br/&gt;"/><marker lat="40.462490434210274" lng="-79.924344976494197" zone="Zone 5" incidentdate="2016-03-24" incidenttime="18:05:00" incidentnumber="16052196" address="Broad St &amp; N Highland Ave" type="ARREST" age="25" gender="M" description="*********************************************** &lt;br/&gt;13(a)(31), Marijuana: Possession Small Amount&lt;br/&gt;"/><marker lat="40.460706790003542" lng="-79.923780776230444" zone="Zone 5" incidentdate="2016-03-24" incidenttime="18:39:00" incidentnumber="16052936" address="6100 block Penn Ave" type="ARREST" age="46" gender="M" description="*********************************************** &lt;br/&gt;13(a)(32), Paraphernalia - Use or Possession&lt;br/&gt;3929(a)(1), Retail Theft; takes possession of, carries away, or transfers displayed merchandise&lt;br/&gt;"/><marker lat="40.437811377822683" lng="-79.988355032042563" zone="Zone 2" incidentdate="2016-03-24" incidenttime="01:09:00" incidentnumber="16052429" address="Forbes Ave &amp; Magee St" type="ARREST" age="30" gender="M" description="*********************************************** &lt;br/&gt;3736, Reckless Driving&lt;br/&gt;3742, Accidents Involving Death or Personal Injury&lt;br/&gt;3743, Accidents Involving Damage to Attended Veh. or Property&lt;br/&gt;5121, Escape.&lt;br/&gt;"/><marker lat="40.454365192078292" lng="-80.061718435263586" zone="Zone 6" incidentdate="2016-03-24" incidenttime="18:00:00" incidentnumber="16052904" address="1100 block Sutherland St" type="ARREST" age="45" gender="F" description="*********************************************** &lt;br/&gt;4952, Intimidation of Witnesses or Victims&lt;br/&gt;"/><marker lat="40.488081814906529" lng="-79.894317224387123" zone="Zone 5" incidentdate="2016-03-24" incidenttime="13:25:00" incidentnumber="16051366" address="900 block Freeport Rd" type="ARREST" age="44" gender="F" description="*********************************************** &lt;br/&gt;3921(a), Theft by Unlawful Taking or Disposition - Movable item&lt;br/&gt;"/><marker lat="40.465977767331793" lng="-79.999746620137401" zone="Zone 1" incidentdate="2016-03-24" incidenttime="15:00:00" incidentnumber="16036064" address="Royal St &amp; East St" type="ARREST" age="57" gender="F" description="*********************************************** &lt;br/&gt;5902(a)(2), Prostitution - Loitering for purpose of&lt;br/&gt;9015, Failure To Appear/Arrest on Attachment Order&lt;br/&gt;5902(a)(1), Prostitution&lt;br/&gt;"/><marker lat="40.45555616395901" lng="-79.897087140351402" zone="Zone 5" incidentdate="2016-03-24" incidenttime="13:54:00" incidentnumber="16003972" address="N Homewood Ave" type="ARREST" age="24" gender="M" description="*********************************************** &lt;br/&gt;3304, Criminal Mischief.&lt;br/&gt;9015, Failure To Appear/Arrest on Attachment Order&lt;br/&gt;"/><marker lat="40.389098844158625" lng="-80.020097161583493" zone="Zone 6" incidentdate="2016-03-24" incidenttime="03:10:00" incidentnumber="16049324" address="1000 block Fordham St" type="ARREST" age="33" gender="M" description="*********************************************** &lt;br/&gt;2705, Recklessly Endangering Another Person.&lt;br/&gt;3742, Accidents Involving Death or Personal Injury&lt;br/&gt;3743, Accidents Involving Damage to Attended Veh. or Property&lt;br/&gt;2701(a)(1), Simple Assault - Intent., Know., Reckless.Cause Bod. Injury&lt;br/&gt;"/><marker lat="40.475614209651539" lng="-79.939923020458423" zone="Zone 5" incidentdate="2016-03-24" incidenttime="18:40:00" incidentnumber="15101862" address="900 block Brintell St" type="ARREST" age="57" gender="M" description="*********************************************** &lt;br/&gt;3921(a), Theft by Unlawful Taking or Disposition - Movable item&lt;br/&gt;3925, Receiving Stolen Property.&lt;br/&gt;3503(b.1), Criminal Trespass - Simple Trespasser&lt;br/&gt;"/><marker lat="40.454202808202275" lng="-79.895659746413855" zone="Zone 5" incidentdate="2016-03-24" incidenttime="17:40:00" incidentnumber="16052870" address="Hamilton Ave &amp; Albion St" type="ARREST" age="55" gender="M" description="*********************************************** &lt;br/&gt;2702, Aggravated Assault.&lt;br/&gt;2701, Simple Assault.&lt;br/&gt;3925, Receiving Stolen Property.&lt;br/&gt;6106, Firearms not to be Carried without a License.&lt;br/&gt;2706, Terroristic Threats.&lt;br/&gt;6105(a)(1), Persons not to possess, use, manufacture, control, sell or transfer firearms: Former convict enumerated in subsection (b)&lt;br/&gt;"/><marker lat="40.451812118199655" lng="-79.960502020218996" zone="Zone 2" incidentdate="2016-03-24" incidenttime="00:05:00" incidentnumber="15075228" address="800 block Anaheim St" type="ARREST" age="30" gender="F" description="*********************************************** &lt;br/&gt;2701, Simple Assault.&lt;br/&gt;"/><marker lat="40.459011372372338" lng="-80.006373190229326" zone="Zone 1" incidentdate="2016-03-24" incidenttime="17:44:00" incidentnumber="16052915" address="Fountain St &amp; Loraine St" type="ARREST" age="26" gender="F" description="*********************************************** &lt;br/&gt;13(a)(16), Possession of Controlled Substance&lt;br/&gt;9501, Bench Warrant&lt;br/&gt;"/><marker lat="40.404939361855945" lng="-79.990899233620965" zone="Zone 3" incidentdate="2016-03-24" incidenttime="17:18:00" incidentnumber="16052876" address="1100 block Brownsville Rd" type="ARREST" age="31" gender="M" description="*********************************************** &lt;br/&gt;13(a)(16), Possession of Controlled Substance&lt;br/&gt;13(a)(32), Paraphernalia - Use or Possession&lt;br/&gt;1543, Driving While Operating Privilege is Suspended or Revoked.&lt;br/&gt;4303, General Lighting Requirements.&lt;br/&gt;"/><marker lat="40.440092571650716" lng="-80.003005012857287" zone="Zone 2" incidentdate="2016-03-24" incidenttime="13:35:00" incidentnumber="16043317" address="PPG Place" type="ARREST" age="37" gender="M" description="*********************************************** &lt;br/&gt;3925, Receiving Stolen Property.&lt;br/&gt;3924, Theft of Property Lost, Mislaid or Delivered by Mistake.&lt;br/&gt;"/><marker lat="40.41735986958448" lng="-79.997527623405105" zone="Zone 3" incidentdate="2016-03-24" incidenttime="18:14:00" incidentnumber="16052927" address="600 block Beltzhoover Ave" type="ARREST" age="40" gender="M" description="*********************************************** &lt;br/&gt;13(a)(31), Marijuana: Possession Small Amount&lt;br/&gt;"/><marker lat="40.438466834802064" lng="-79.988141392414235" zone="Zone 2" incidentdate="2016-03-24" incidenttime="12:00:00" incidentnumber="16033336" address="1300 block 5th Ave" type="ARREST" age="44" gender="M" description="*********************************************** &lt;br/&gt;3921(a), Theft by Unlawful Taking or Disposition - Movable item&lt;br/&gt;3925, Receiving Stolen Property.&lt;br/&gt;3932, Theft of Leased Property.&lt;br/&gt;"/><marker lat="40.4234138" lng="-79.9855380" zone="Zone 3" incidentdate="2016-03-24" incidenttime="23:40:00" incidentnumber="16003803" address="100 block Monastery Ave" type="ARREST" age="42" gender="M" description="*********************************************** &lt;br/&gt;9015, Failure To Appear/Arrest on Attachment Order&lt;br/&gt;"/><marker lat="40.459227130464114" lng="-80.005623690982688" zone="Zone 1" incidentdate="2016-03-24" incidenttime="19:45:00" incidentnumber="16042899" address="Sandusky Ct &amp; Henderson St" type="ARREST" age="38" gender="" description="*********************************************** &lt;br/&gt;2701(a)(1), Simple Assault - Intent., Know., Reckless.Cause Bod. Injury&lt;br/&gt;"/><marker lat="40.469387669405805" lng="-79.929877482606599" zone="Zone 5" incidentdate="2016-03-24" incidenttime="10:39:00" incidentnumber="16041969" address="5500 block Black St" type="ARREST" age="24" gender="F" description="*********************************************** &lt;br/&gt;3921(a), Theft by Unlawful Taking or Disposition - Movable item&lt;br/&gt;"/><marker lat="40.458833853713074" lng="-80.021325393398527" zone="Zone 1" incidentdate="2016-03-24" incidenttime="11:05:00" incidentnumber="16052638" address="California Ave &amp; Saint Marks Pl" type="ARREST" age="25" gender="M" description="*********************************************** &lt;br/&gt;2701, Simple Assault.&lt;br/&gt;"/><marker lat="40.421531877189601" lng="-79.993577564166102" zone="Zone 3" incidentdate="2016-03-24" incidenttime="23:40:00" incidentnumber="16053118" address="800 block E Warrington Ave" type="ARREST" age="42" gender="M" description="*********************************************** &lt;br/&gt;13(a)(16), Possession of Controlled Substance&lt;br/&gt;13(a)(32), Paraphernalia - Use or Possession&lt;br/&gt;"/><marker lat="40.459011372372338" lng="-80.006373190229326" zone="Zone 1" incidentdate="2016-03-24" incidenttime="17:44:00" incidentnumber="16052915" address="Fountain St &amp; Loraine St" type="ARREST" age="26" gender="M" description="*********************************************** &lt;br/&gt;13(a)(16), Possession of Controlled Substance&lt;br/&gt;9501, Bench Warrant&lt;br/&gt;"/></markers>
