<?xml version="1.0"?>
<markers><marker lat="40.482879021356389" lng="-80.04453300763744" zone="Zone 1" incidentdate="2015-03-26" incidenttime="16:00:00" incidentnumber="15052459" address="2000 block Termon Ave" type="OFFENSE" age="" gender="" description="*********************************************** &lt;br/&gt;029, Missing Juvenile&lt;br/&gt;"/><marker lat="40.449539215063005" lng="-79.979607411343096" zone="Zone 2" incidentdate="2015-03-26" incidenttime="11:15:00" incidentnumber="15052149" address="1000 block MEMORY Ln" type="OFFENSE" age="" gender="" description="*********************************************** &lt;br/&gt;3921, Theft by Unlawful Taking or Disposition.&lt;br/&gt;"/><marker lat="40.492966157143279" lng="-80.021620944344832" zone="Zone 1" incidentdate="2015-03-26" incidenttime="22:16:00" incidentnumber="15052492" address="4100 block Perrysville Ave" type="OFFENSE" age="" gender="" description="*********************************************** &lt;br/&gt;9999, 9999 - (Misc. Incident):&lt;br/&gt;"/><marker lat="40.448630403274692" lng="-79.999358519002143" zone="Zone 1" incidentdate="2015-03-26" incidenttime="15:00:00" incidentnumber="15052276" address="100 block Anderson St" type="OFFENSE" age="" gender="" description="*********************************************** &lt;br/&gt;3304, Criminal Mischief.&lt;br/&gt;"/><marker lat="40.421531877189601" lng="-79.993577564166102" zone="Zone 3" incidentdate="2015-03-26" incidenttime="01:00:00" incidentnumber="15051927" address="800 block E Warrington Ave" type="OFFENSE" age="" gender="" description="*********************************************** &lt;br/&gt;13(a)(31), Marijuana: Possession Small Amount&lt;br/&gt;4303, General Lighting Requirements.&lt;br/&gt;1543, Driving While Operating Privilege is Suspended or Revoked.&lt;br/&gt;"/><marker lat="40.471429877146207" lng="-79.964151809072447" zone="Zone 2" incidentdate="2015-03-26" incidenttime="21:20:00" incidentnumber="15052475" address="100 block 41st St" type="OFFENSE" age="" gender="" description="*********************************************** &lt;br/&gt;3502, Burglary.&lt;br/&gt;"/><marker lat="40.4592529943626" lng="-79.988147111102137" zone="Zone 1" incidentdate="2015-03-26" incidenttime="11:02:00" incidentnumber="15052136" address="1300 block Lowrie St" type="OFFENSE" age="" gender="" description="*********************************************** &lt;br/&gt;9488, False  Burglar Alarm&lt;br/&gt;"/><marker lat="40.455504998738647" lng="-80.007850467221047" zone="Zone 1" incidentdate="2015-03-26" incidenttime="12:00:00" incidentnumber="15052173" address="100 block W North Ave" type="OFFENSE" age="" gender="" description="*********************************************** &lt;br/&gt;3921, Theft by Unlawful Taking or Disposition.&lt;br/&gt;4101, Forgery.&lt;br/&gt;"/><marker lat="40.457261207626431" lng="-79.924663466395671" zone="Zone 4" incidentdate="2015-03-26" incidenttime="17:45:00" incidentnumber="15052374" address="Carron St &amp; Alder St" type="OFFENSE" age="" gender="" description="*********************************************** &lt;br/&gt;3743, Accidents Involving Damage to Attended Veh. or Property&lt;br/&gt;"/><marker lat="40.428478873788158" lng="-79.980265799395895" zone="Zone 3" incidentdate="2015-03-26" incidenttime="00:10:00" incidentnumber="15051919" address="1800 block E Carson St" type="OFFENSE" age="" gender="" description="*********************************************** &lt;br/&gt;13(a)(31), Marijuana: Possession Small Amount&lt;br/&gt;1332, Display of Registration Plate.&lt;br/&gt;"/><marker lat="40.438721756509537" lng="-79.999466085108594" zone="Zone 2" incidentdate="2015-03-26" incidenttime="20:00:00" incidentnumber="15052439" address="400 block Smithfield St" type="OFFENSE" age="" gender="" description="*********************************************** &lt;br/&gt;3921(a), Theft by Unlawful Taking or Disposition - Movable item&lt;br/&gt;"/><marker lat="40.468754156726419" lng="-80.009586282184429" zone="Zone 1" incidentdate="2015-03-26" incidenttime="17:29:00" incidentnumber="15052344" address="Perrysville Ave &amp; E Mc Intyre Ave" type="OFFENSE" age="" gender="" description="*********************************************** &lt;br/&gt;7122, Altered, Forged or Counterfeit Documents and Plates&lt;br/&gt;1543, Driving While Operating Privilege is Suspended or Revoked.&lt;br/&gt;1786, Required Financial Responsibility.&lt;br/&gt;4703, Operation of Vehicle without Official Certif. of Inspection&lt;br/&gt;"/><marker lat="40.449708939515553" lng="-79.91333258245696" zone="Zone 4" incidentdate="2015-03-26" incidenttime="17:42:00" incidentnumber="15052365" address="400 block S Linden Ave" type="OFFENSE" age="" gender="" description="*********************************************** &lt;br/&gt;9496, Dead on Arrival (DOA)&lt;br/&gt;"/><marker lat="40.446867779409757" lng="-80.020757813868244" zone="Zone 1" incidentdate="2015-03-26" incidenttime="01:25:00" incidentnumber="15051957" address="700 block Casino Dr" type="OFFENSE" age="" gender="" description="*********************************************** &lt;br/&gt;9999, 9999 - (Misc. Incident):&lt;br/&gt;"/><marker lat="40.405726648374788" lng="-80.03872425709703" zone="Zone 6" incidentdate="2015-03-26" incidenttime="05:15:00" incidentnumber="15052028" address="2700 block Banksville Ave" type="OFFENSE" age="" gender="" description="*********************************************** &lt;br/&gt;3502, Burglary.&lt;br/&gt;"/><marker lat="40.482879021356389" lng="-80.04453300763744" zone="Zone 1" incidentdate="2015-03-26" incidenttime="20:23:00" incidentnumber="15052446" address="2000 block Termon Ave" type="OFFENSE" age="" gender="" description="*********************************************** &lt;br/&gt;029, Missing Juvenile&lt;br/&gt;"/><marker lat="40.449945984416168" lng="-79.950663260585088" zone="Zone 4" incidentdate="2015-03-26" incidenttime="09:48:00" incidentnumber="15052435" address="200 block N Craig St" type="OFFENSE" age="" gender="" description="*********************************************** &lt;br/&gt;9999, 9999 - (Misc. Incident):&lt;br/&gt;"/><marker lat="40.4699306" lng="-80.0067931" zone="Zone 1" incidentdate="2015-03-26" incidenttime="08:18:00" incidentnumber="15052073" address="2200 block Hazelton St" type="OFFENSE" age="" gender="" description="*********************************************** &lt;br/&gt;3921(a), Theft by Unlawful Taking or Disposition - Movable item&lt;br/&gt;"/><marker lat="40.427188547881535" lng="-80.005614053802859" zone="Zone 3" incidentdate="2015-03-26" incidenttime="08:08:00" incidentnumber="15052067" address="100 block Boggs Ave" type="OFFENSE" age="" gender="" description="*********************************************** &lt;br/&gt;9496, Dead on Arrival (DOA)&lt;br/&gt;"/><marker lat="40.45535854303678" lng="-79.922872234952976" zone="Zone 4" incidentdate="2015-03-26" incidenttime="19:15:00" incidentnumber="15052409" address="400 block Shady Ave" type="OFFENSE" age="" gender="" description="*********************************************** &lt;br/&gt;3922, Theft by Deception.&lt;br/&gt;"/><marker lat="40.44608960903679" lng="-79.893619929343828" zone="Zone 4" incidentdate="2015-03-26" incidenttime="15:28:00" incidentnumber="15052253" address="7700 block Penn Ave" type="OFFENSE" age="" gender="" description="*********************************************** &lt;br/&gt;13(a)(32), Paraphernalia - Use or Possession&lt;br/&gt;"/><marker lat="40.480478013231327" lng="-80.039603040759772" zone="Zone 1" incidentdate="2015-03-26" incidenttime="19:05:00" incidentnumber="15052408" address="1600 block Davis Ave" type="OFFENSE" age="" gender="" description="*********************************************** &lt;br/&gt;9999, 9999 - (Misc. Incident):&lt;br/&gt;"/><marker lat="40.470558418139333" lng="-79.962799040357027" zone="Zone 2" incidentdate="2015-03-26" incidenttime="10:36:00" incidentnumber="15052146" address="41st St &amp; Foster St" type="OFFENSE" age="" gender="" description="*********************************************** &lt;br/&gt;3934, Theft from Vehicle&lt;br/&gt;3304, Criminal Mischief.&lt;br/&gt;"/><marker lat="40.466196377514876" lng="-79.912205945076749" zone="Zone 5" incidentdate="2015-03-26" incidenttime="17:28:00" incidentnumber="15052342" address="Larimer Ave &amp; Shetland St" type="OFFENSE" age="" gender="" description="*********************************************** &lt;br/&gt;13(a)(16), Possession of Controlled Substance&lt;br/&gt;13(a)(30), Possession w/ Intent to Del. Controlled Substance&lt;br/&gt;13(a)(32), Paraphernalia - Use or Possession&lt;br/&gt;"/><marker lat="40.4176369" lng="-79.9864405" zone="Zone 3" incidentdate="2015-03-26" incidenttime="01:02:00" incidentnumber="15051934" address="Brownsville Rd &amp; Arlington Ave" type="OFFENSE" age="" gender="" description="*********************************************** &lt;br/&gt;3714, Careless Driving&lt;br/&gt;1543, Driving While Operating Privilege is Suspended or Revoked.&lt;br/&gt;3802(a)(1), DUI - General Impairment&lt;br/&gt;"/><marker lat="40.465157804159951" lng="-79.922171643415098" zone="Zone 5" incidentdate="2015-03-26" incidenttime="11:02:00" incidentnumber="15052139" address="400 block N Highland Ave" type="OFFENSE" age="" gender="" description="*********************************************** &lt;br/&gt;901, Criminal Attempt&lt;br/&gt;"/><marker lat="40.471044516867096" lng="-79.920352830654835" zone="Zone 5" incidentdate="2015-03-26" incidenttime="11:30:00" incidentnumber="15052179" address="6000 block Jackson St" type="OFFENSE" age="" gender="" description="*********************************************** &lt;br/&gt;3934, Theft from Vehicle&lt;br/&gt;"/><marker lat="40.414983296810647" lng="-79.993074408092554" zone="Zone 3" incidentdate="2015-03-26" incidenttime="19:48:00" incidentnumber="15052425" address="300 block Rochelle St" type="OFFENSE" age="" gender="" description="*********************************************** &lt;br/&gt;029, Missing Juvenile&lt;br/&gt;"/><marker lat="40.458145456551087" lng="-79.989782292941541" zone="Zone 1" incidentdate="2015-03-26" incidenttime="06:04:00" incidentnumber="15052042" address="1300 block Goettmann St" type="OFFENSE" age="" gender="" description="*********************************************** &lt;br/&gt;3745, Accidents Involving Damage to Unattended Veh.or Prop.&lt;br/&gt;"/><marker lat="40.466616756829907" lng="-79.993676874083434" zone="Zone 1" incidentdate="2015-03-26" incidenttime="08:40:00" incidentnumber="15052087" address="2100 block Rhine St" type="OFFENSE" age="" gender="" description="*********************************************** &lt;br/&gt;2702, Aggravated Assault.&lt;br/&gt;1543, Driving While Operating Privilege is Suspended or Revoked.&lt;br/&gt;5105, Hindering Apprehension or Prosecution.&lt;br/&gt;5101, Obstructing Admin. of Law&lt;br/&gt;4914, False Identification to Law Enforcement Authorities&lt;br/&gt;5501, Riot.&lt;br/&gt;5104, Resisting Arrest or Other Law Enforcement.&lt;br/&gt;5121, Escape.&lt;br/&gt;"/><marker lat="40.45332679295938" lng="-80.029072029857417" zone="Zone 1" incidentdate="2015-03-26" incidenttime="20:25:00" incidentnumber="15052449" address="1600 block Pennsylvania Ave" type="OFFENSE" age="" gender="" description="*********************************************** &lt;br/&gt;2701(b)(1), Simple Assault - Fight or Scuffle Entered by Mutual Consent&lt;br/&gt;"/><marker lat="40.426655631127865" lng="-80.02301213458307" zone="Zone 3" incidentdate="2015-03-26" incidenttime="18:59:00" incidentnumber="15052421" address="900 block Saw Mill Run Blvd" type="OFFENSE" age="" gender="" description="*********************************************** &lt;br/&gt;13(a)(31), Marijuana: Possession Small Amount&lt;br/&gt;"/><marker lat="40.470459914974732" lng="-79.908540011902716" zone="Zone 5" incidentdate="2015-03-26" incidenttime="16:40:00" incidentnumber="15052306" address="1400 block Washington Blvd" type="OFFENSE" age="" gender="" description="*********************************************** &lt;br/&gt;9489, Found Property&lt;br/&gt;"/><marker lat="40.4675684712102" lng="-79.963752542196261" zone="Zone 2" incidentdate="2015-03-26" incidenttime="08:18:00" incidentnumber="15052072" address="Butler St &amp; 39th St" type="OFFENSE" age="" gender="" description="*********************************************** &lt;br/&gt;9999, 9999 - (Misc. Incident):&lt;br/&gt;"/><marker lat="40.456581713944651" lng="-80.000332843470076" zone="Zone 1" incidentdate="2015-03-26" incidenttime="19:30:00" incidentnumber="15052420" address="E North Ave" type="OFFENSE" age="" gender="" description="*********************************************** &lt;br/&gt;9017, Found Drugs&lt;br/&gt;"/><marker lat="40.455479200809719" lng="-80.030827820910446" zone="Zone 1" incidentdate="2015-03-26" incidenttime="07:22:00" incidentnumber="15052052" address="1600 block Metropolitan St" type="OFFENSE" age="" gender="" description="*********************************************** &lt;br/&gt;9488, False  Burglar Alarm&lt;br/&gt;"/><marker lat="40.435871654423465" lng="-79.923064652845284" zone="Zone 4" incidentdate="2015-03-26" incidenttime="09:30:00" incidentnumber="15052105" address="1900 block Murray Ave" type="OFFENSE" age="" gender="" description="*********************************************** &lt;br/&gt;3304, Criminal Mischief.&lt;br/&gt;3934, Theft from Vehicle&lt;br/&gt;"/><marker lat="40.441137684867279" lng="-79.957585934716349" zone="Zone 4" incidentdate="2015-03-26" incidenttime="20:35:00" incidentnumber="15052455" address="200 block Atwood St" type="OFFENSE" age="" gender="" description="*********************************************** &lt;br/&gt;3921(a), Theft by Unlawful Taking or Disposition - Movable item&lt;br/&gt;"/><marker lat="40.465419954241064" lng="-79.889984010849645" zone="Zone 5" incidentdate="2015-03-26" incidenttime="23:26:00" incidentnumber="15052530" address="1500 block Oberlin St" type="OFFENSE" age="" gender="" description="*********************************************** &lt;br/&gt;2701, Simple Assault.&lt;br/&gt;2706, Terroristic Threats.&lt;br/&gt;5101, Obstructing Admin. of Law&lt;br/&gt;"/><marker lat="40.484454877545488" lng="-80.040477404897274" zone="Zone 1" incidentdate="2015-03-26" incidenttime="13:00:00" incidentnumber="15052287" address="3800 block California Ave" type="OFFENSE" age="" gender="" description="*********************************************** &lt;br/&gt;4106, Access Device Fraud&lt;br/&gt;3921, Theft by Unlawful Taking or Disposition.&lt;br/&gt;"/><marker lat="40.460932831144461" lng="-79.91656706740406" zone="Zone 5" incidentdate="2015-03-26" incidenttime="00:01:00" incidentnumber="15052379" address="400 block Enright Ct" type="OFFENSE" age="" gender="" description="*********************************************** &lt;br/&gt;2709, Harassment (Non-Specific)&lt;br/&gt;"/><marker lat="40.420793968702014" lng="-79.991658368981334" zone="Zone 3" incidentdate="2015-03-26" incidenttime="22:58:00" incidentnumber="15052522" address="900 block Industry St" type="OFFENSE" age="" gender="" description="*********************************************** &lt;br/&gt;2706, Terroristic Threats.&lt;br/&gt;"/><marker lat="40.466707590929616" lng="-79.918985092777802" zone="Zone 5" incidentdate="2015-03-26" incidenttime="02:05:00" incidentnumber="15051952" address="600 block Collins Ave" type="OFFENSE" age="" gender="" description="*********************************************** &lt;br/&gt;9497, Aided Case&lt;br/&gt;"/><marker lat="40.45695499739071" lng="-80.061300693660385" zone="Zone 6" incidentdate="2015-03-26" incidenttime="11:10:00" incidentnumber="15052143" address="3300 block Francisco St" type="OFFENSE" age="" gender="" description="*********************************************** &lt;br/&gt;3304(a)(5), CRIMINAL MISCHIEF - Intentionally Damages Real Or Personal Property Of Another&lt;br/&gt;"/><marker lat="40.470558418139333" lng="-79.962799040357027" zone="Zone 2" incidentdate="2015-03-26" incidenttime="10:36:00" incidentnumber="15052145" address="41st St &amp; Foster St" type="OFFENSE" age="" gender="" description="*********************************************** &lt;br/&gt;3304, Criminal Mischief.&lt;br/&gt;3934, Theft from Vehicle&lt;br/&gt;"/><marker lat="40.460268383400177" lng="-79.991521549865112" zone="Zone 1" incidentdate="2015-03-26" incidenttime="15:15:00" incidentnumber="15052252" address="1200 block Spring Garden Ave" type="OFFENSE" age="" gender="" description="*********************************************** &lt;br/&gt;2709(a)(3), Harassment No Legitimate Purpose&lt;br/&gt;"/><marker lat="40.4642764" lng="-79.9802776" zone="Zone 1" incidentdate="2015-03-26" incidenttime="06:40:00" incidentnumber="15052046" address="200 block East Ohio St" type="OFFENSE" age="" gender="" description="*********************************************** &lt;br/&gt;3304(a)(5), CRIMINAL MISCHIEF - Intentionally Damages Real Or Personal Property Of Another&lt;br/&gt;"/><marker lat="40.473481220987026" lng="-79.962813878468651" zone="Zone 2" incidentdate="2015-03-26" incidenttime="15:00:00" incidentnumber="15052257" address="100 block 44th St" type="OFFENSE" age="" gender="" description="*********************************************** &lt;br/&gt;3934, Theft from Vehicle&lt;br/&gt;3304, Criminal Mischief.&lt;br/&gt;"/><marker lat="40.423155912858647" lng="-79.940008672484609" zone="Zone 4" incidentdate="2015-03-26" incidenttime="17:29:00" incidentnumber="15052343" address="4200 block Winterburn Ave" type="OFFENSE" age="" gender="" description="*********************************************** &lt;br/&gt;3928, Unauthorized Use of Automobile and Other Vehicles.&lt;br/&gt;"/><marker lat="40.448630403274692" lng="-79.999358519002143" zone="Zone 1" incidentdate="2015-03-26" incidenttime="07:45:00" incidentnumber="15052061" address="100 block Anderson St" type="OFFENSE" age="" gender="" description="*********************************************** &lt;br/&gt;3304, Criminal Mischief.&lt;br/&gt;3934, Theft from Vehicle&lt;br/&gt;"/><marker lat="40.403184288221588" lng="-79.994048977261443" zone="Zone 3" incidentdate="2015-03-26" incidenttime="11:23:00" incidentnumber="15052165" address="Minooka St" type="OFFENSE" age="" gender="" description="*********************************************** &lt;br/&gt;4912, Impersonating a Public Servant.&lt;br/&gt;"/><marker lat="40.44058362667257" lng="-80.002189911351579" zone="Zone 2" incidentdate="2015-03-26" incidenttime="20:18:00" incidentnumber="15052442" address="Market St &amp; Forbes Ave" type="OFFENSE" age="" gender="" description="*********************************************** &lt;br/&gt;13(a)(31), Marijuana: Possession Small Amount&lt;br/&gt;13(a)(32), Paraphernalia - Use or Possession&lt;br/&gt;"/><marker lat="40.437715655894145" lng="-79.918991746358472" zone="Zone 4" incidentdate="2015-03-26" incidenttime="11:35:00" incidentnumber="15052155" address="6300 block Forbes Ave" type="OFFENSE" age="" gender="" description="*********************************************** &lt;br/&gt;4912, Impersonating a Public Servant.&lt;br/&gt;"/><marker lat="40.482879021356389" lng="-80.04453300763744" zone="Zone 1" incidentdate="2015-03-26" incidenttime="20:23:00" incidentnumber="15052457" address="2000 block Termon Ave" type="OFFENSE" age="" gender="" description="*********************************************** &lt;br/&gt;029, Missing Juvenile&lt;br/&gt;"/><marker lat="40.470558418139333" lng="-79.962799040357027" zone="Zone 2" incidentdate="2015-03-26" incidenttime="10:36:00" incidentnumber="15052124" address="41st St &amp; Foster St" type="OFFENSE" age="" gender="" description="*********************************************** &lt;br/&gt;3934, Theft from Vehicle&lt;br/&gt;3304, Criminal Mischief.&lt;br/&gt;"/><marker lat="40.450718131773378" lng="-79.985267609736766" zone="Zone 2" incidentdate="2015-03-26" incidenttime="05:42:00" incidentnumber="15052307" address="18th St" type="OFFENSE" age="" gender="" description="*********************************************** &lt;br/&gt;3934, Theft from Vehicle&lt;br/&gt;3304, Criminal Mischief.&lt;br/&gt;"/><marker lat="40.451209746298005" lng="-80.021965140261187" zone="Zone 1" incidentdate="2015-03-26" incidenttime="10:00:00" incidentnumber="15052232" address="1200 block Western Ave" type="OFFENSE" age="" gender="" description="*********************************************** &lt;br/&gt;9124, Drug Investigation&lt;br/&gt;"/><marker lat="40.42695519606621" lng="-80.005599666575392" zone="Zone 3" incidentdate="2015-03-26" incidenttime="15:28:00" incidentnumber="15052270" address="Bailey Ave" type="OFFENSE" age="" gender="" description="*********************************************** &lt;br/&gt;3745, Accidents Involving Damage to Unattended Veh.or Prop.&lt;br/&gt;"/><marker lat="40.46455876483973" lng="-79.931949974068132" zone="Zone 5" incidentdate="2015-03-26" incidenttime="17:54:00" incidentnumber="15052361" address="100 block S Fairmount St" type="OFFENSE" age="" gender="" description="*********************************************** &lt;br/&gt;9495, Suicide&lt;br/&gt;"/><marker lat="40.431135693148185" lng="-79.95920277983889" zone="Zone 4" incidentdate="2015-03-26" incidenttime="09:30:00" incidentnumber="15052078" address="2nd Ave &amp; Bates St" type="OFFENSE" age="" gender="" description="*********************************************** &lt;br/&gt;8104, CLASS 1 - Suspicious Package or Device&lt;br/&gt;"/><marker lat="40.464727336756489" lng="-80.023838543711904" zone="Zone 1" incidentdate="2015-03-26" incidenttime="16:45:00" incidentnumber="15052319" address="2300 block BRIGHTON Rd" type="OFFENSE" age="" gender="" description="*********************************************** &lt;br/&gt;9489, Found Property&lt;br/&gt;"/><marker lat="40.457582467396335" lng="-80.006210651513641" zone="Zone 1" incidentdate="2015-03-26" incidenttime="20:01:00" incidentnumber="15052429" address="1400 block Boyle St" type="OFFENSE" age="" gender="" description="*********************************************** &lt;br/&gt;3304, Criminal Mischief.&lt;br/&gt;"/><marker lat="40.394559358162454" lng="-79.999920683882067" zone="Zone 6" incidentdate="2015-03-26" incidenttime="01:03:00" incidentnumber="15051930" address="1900 block Jacob St" type="OFFENSE" age="" gender="" description="*********************************************** &lt;br/&gt;3802(d)(2), DUI - Drug - Impaired Ability&lt;br/&gt;"/><marker lat="40.448630403274692" lng="-79.999358519002143" zone="Zone 1" incidentdate="2015-03-26" incidenttime="06:00:00" incidentnumber="15052094" address="100 block Anderson St" type="OFFENSE" age="" gender="" description="*********************************************** &lt;br/&gt;3304, Criminal Mischief.&lt;br/&gt;3934, Theft from Vehicle&lt;br/&gt;"/><marker lat="40.465298769224127" lng="-80.007849063646432" zone="Zone 1" incidentdate="2015-03-26" incidenttime="11:50:00" incidentnumber="15052167" address="300 block Lafayette Ave" type="OFFENSE" age="" gender="" description="*********************************************** &lt;br/&gt;3921(a), Theft by Unlawful Taking or Disposition - Movable item&lt;br/&gt;"/><marker lat="40.44605158242026" lng="-80.084503325326949" zone="Zone 6" incidentdate="2015-03-26" incidenttime="16:40:00" incidentnumber="15052321" address="2100 block Mazette Pl" type="OFFENSE" age="" gender="" description="*********************************************** &lt;br/&gt;2701, Simple Assault.&lt;br/&gt;"/><marker lat="40.484550069346753" lng="-80.035692783449747" zone="Zone 1" incidentdate="2015-03-26" incidenttime="00:10:00" incidentnumber="15051940" address="3800 block Brighton Rd" type="OFFENSE" age="" gender="" description="*********************************************** &lt;br/&gt;2701, Simple Assault.&lt;br/&gt;"/><marker lat="40.454893172635735" lng="-79.978354258304591" zone="Zone 2" incidentdate="2015-03-26" incidenttime="02:26:00" incidentnumber="15051976" address="2600 block Penn (SAV0Y) Ave" type="OFFENSE" age="" gender="" description="*********************************************** &lt;br/&gt;9093, Indirect Criminal Contempt&lt;br/&gt;"/><marker lat="40.450097920159166" lng="-79.996288626032594" zone="Zone 1" incidentdate="2015-03-26" incidenttime="01:26:00" incidentnumber="15051914" address="700 block River Ave" type="OFFENSE" age="" gender="" description="*********************************************** &lt;br/&gt;4303, General Lighting Requirements.&lt;br/&gt;9502, Police Pursuit&lt;br/&gt;3733, Fleeing or Attempting to Elude Police Officer&lt;br/&gt;"/><marker lat="40.425517933752104" lng="-79.985730181646417" zone="Zone 3" incidentdate="2015-03-26" incidenttime="07:00:00" incidentnumber="15052065" address="Welsh Way" type="OFFENSE" age="" gender="" description="*********************************************** &lt;br/&gt;9490, Missing Persons (18 and Over)&lt;br/&gt;"/><marker lat="40.473159653169574" lng="-80.037579572438645" zone="Zone 1" incidentdate="2015-03-26" incidenttime="08:50:00" incidentnumber="15052089" address="3200 block Bainton St" type="OFFENSE" age="" gender="" description="*********************************************** &lt;br/&gt;3921(a), Theft by Unlawful Taking or Disposition - Movable item&lt;br/&gt;"/><marker lat="40.432949843911942" lng="-79.953439779886978" zone="Zone 4" incidentdate="2015-03-26" incidenttime="08:00:00" incidentnumber="15052263" address="3300 block Dawson St" type="OFFENSE" age="" gender="" description="*********************************************** &lt;br/&gt;2709(a)(1), Harassment by Physical Contact, or Attempts or Threats&lt;br/&gt;"/><marker lat="40.413244662079144" lng="-79.989125551697001" zone="Zone 3" incidentdate="2015-03-26" incidenttime="16:45:00" incidentnumber="15047467" address="400 block Brownsville Rd" type="OFFENSE" age="" gender="" description="*********************************************** &lt;br/&gt;2701, Simple Assault.&lt;br/&gt;"/><marker lat="40.466616756829907" lng="-79.993676874083434" zone="Zone 1" incidentdate="2015-03-26" incidenttime="08:40:00" incidentnumber="15052087" address="2100 block Rhine St" type="ARREST" age="36" gender="M" description="*********************************************** &lt;br/&gt;2702, Aggravated Assault.&lt;br/&gt;1543, Driving While Operating Privilege is Suspended or Revoked.&lt;br/&gt;5105, Hindering Apprehension or Prosecution.&lt;br/&gt;5101, Obstructing Admin. of Law&lt;br/&gt;4914, False Identification to Law Enforcement Authorities&lt;br/&gt;5501, Riot.&lt;br/&gt;5104, Resisting Arrest or Other Law Enforcement.&lt;br/&gt;5121, Escape.&lt;br/&gt;"/><marker lat="40.44608960903679" lng="-79.893619929343828" zone="Zone 4" incidentdate="2015-03-26" incidenttime="15:28:00" incidentnumber="15052253" address="7700 block Penn Ave" type="ARREST" age="29" gender="M" description="*********************************************** &lt;br/&gt;13(a)(32), Paraphernalia - Use or Possession&lt;br/&gt;"/><marker lat="40.434696587775576" lng="-79.996300985228572" zone="Zone 2" incidentdate="2015-03-26" incidenttime="19:00:00" incidentnumber="15051683" address="600 block 1st Ave" type="ARREST" age="23" gender="F" description="*********************************************** &lt;br/&gt;2701(a)(3), Simple Assault - Attempts by Physical Menace&lt;br/&gt;2709(a)(1), Harassment by Physical Contact, or Attempts or Threats&lt;br/&gt;"/><marker lat="40.466196377514876" lng="-79.912205945076749" zone="Zone 5" incidentdate="2015-03-26" incidenttime="17:28:00" incidentnumber="15052342" address="Larimer Ave &amp; Shetland St" type="ARREST" age="18" gender="M" description="*********************************************** &lt;br/&gt;13(a)(16), Possession of Controlled Substance&lt;br/&gt;13(a)(30), Possession w/ Intent to Del. Controlled Substance&lt;br/&gt;13(a)(32), Paraphernalia - Use or Possession&lt;br/&gt;"/><marker lat="40.428478873788158" lng="-79.980265799395895" zone="Zone 3" incidentdate="2015-03-26" incidenttime="00:15:00" incidentnumber="15051919" address="1800 block E Carson St" type="ARREST" age="36" gender="M" description="*********************************************** &lt;br/&gt;13(a)(31), Marijuana: Possession Small Amount&lt;br/&gt;1332, Display of Registration Plate.&lt;br/&gt;"/><marker lat="40.394559358162454" lng="-79.999920683882067" zone="Zone 6" incidentdate="2015-03-26" incidenttime="01:26:00" incidentnumber="15051930" address="1900 block Jacob St" type="ARREST" age="52" gender="F" description="*********************************************** &lt;br/&gt;3802(d)(2), DUI - Drug - Impaired Ability&lt;br/&gt;"/><marker lat="40.4608620" lng="-79.8245580" zone="Zone OSC" incidentdate="2015-03-26" incidenttime="12:00:00" incidentnumber="15036807" address="300 block Rodi Rd" type="ARREST" age="27" gender="M" description="*********************************************** &lt;br/&gt;3921, Theft by Unlawful Taking or Disposition.&lt;br/&gt;"/><marker lat="40.477035165447738" lng="-79.999511479450007" zone="Zone 1" incidentdate="2015-03-26" incidenttime="07:30:00" incidentnumber="15037426" address="Mt Pleasant Rd &amp; Penfort St" type="ARREST" age="" gender="F" description="*********************************************** &lt;br/&gt;2702, Aggravated Assault.&lt;br/&gt;"/><marker lat="40.461009333552113" lng="-79.909747968126766" zone="Zone 5" incidentdate="2015-03-26" incidenttime="09:00:00" incidentnumber="14227881" address="500 block Lincoln Ave" type="ARREST" age="34" gender="M" description="*********************************************** &lt;br/&gt;2702, Aggravated Assault.&lt;br/&gt;903, Criminal Conspiracy.&lt;br/&gt;"/><marker lat="40.477035165447738" lng="-79.999511479450007" zone="Zone 1" incidentdate="2015-03-26" incidenttime="07:30:00" incidentnumber="15037426" address="Mt Pleasant Rd &amp; Penfort St" type="ARREST" age="27" gender="F" description="*********************************************** &lt;br/&gt;2702, Aggravated Assault.&lt;br/&gt;"/><marker lat="40.468754156726419" lng="-80.009586282184429" zone="Zone 1" incidentdate="2015-03-26" incidenttime="17:45:00" incidentnumber="15052344" address="Perrysville Ave &amp; E Mc Intyre Ave" type="ARREST" age="43" gender="M" description="*********************************************** &lt;br/&gt;7122, Altered, Forged or Counterfeit Documents and Plates&lt;br/&gt;1543, Driving While Operating Privilege is Suspended or Revoked.&lt;br/&gt;1786, Required Financial Responsibility.&lt;br/&gt;4703, Operation of Vehicle without Official Certif. of Inspection&lt;br/&gt;"/><marker lat="40.426655631127865" lng="-80.02301213458307" zone="Zone 3" incidentdate="2015-03-26" incidenttime="19:55:00" incidentnumber="15052421" address="900 block Saw Mill Run Blvd" type="ARREST" age="18" gender="M" description="*********************************************** &lt;br/&gt;13(a)(31), Marijuana: Possession Small Amount&lt;br/&gt;"/><marker lat="40.465419954241064" lng="-79.889984010849645" zone="Zone 5" incidentdate="2015-03-26" incidenttime="23:55:00" incidentnumber="15052530" address="1500 block Oberlin St" type="ARREST" age="77" gender="M" description="*********************************************** &lt;br/&gt;2701, Simple Assault.&lt;br/&gt;2706, Terroristic Threats.&lt;br/&gt;5101, Obstructing Admin. of Law&lt;br/&gt;"/><marker lat="40.392919925791212" lng="-80.010808816082346" zone="Zone 6" incidentdate="2015-03-26" incidenttime="13:10:00" incidentnumber="15037493" address="1300 block Bellaire Pl" type="ARREST" age="28" gender="M" description="*********************************************** &lt;br/&gt;2706, Terroristic Threats.&lt;br/&gt;"/><marker lat="40.4176369" lng="-79.9864405" zone="Zone 3" incidentdate="2015-03-26" incidenttime="01:10:00" incidentnumber="15051934" address="Brownsville Rd &amp; Arlington Ave" type="ARREST" age="33" gender="M" description="*********************************************** &lt;br/&gt;3714, Careless Driving&lt;br/&gt;1543, Driving While Operating Privilege is Suspended or Revoked.&lt;br/&gt;3802(a)(1), DUI - General Impairment&lt;br/&gt;"/><marker lat="40.466616756829907" lng="-79.993676874083434" zone="Zone 1" incidentdate="2015-03-26" incidenttime="08:40:00" incidentnumber="15052087" address="2100 block Rhine St" type="ARREST" age="36" gender="F" description="*********************************************** &lt;br/&gt;2702, Aggravated Assault.&lt;br/&gt;1543, Driving While Operating Privilege is Suspended or Revoked.&lt;br/&gt;5105, Hindering Apprehension or Prosecution.&lt;br/&gt;5101, Obstructing Admin. of Law&lt;br/&gt;4914, False Identification to Law Enforcement Authorities&lt;br/&gt;5501, Riot.&lt;br/&gt;5104, Resisting Arrest or Other Law Enforcement.&lt;br/&gt;5121, Escape.&lt;br/&gt;"/><marker lat="40.421531877189601" lng="-79.993577564166102" zone="Zone 3" incidentdate="2015-03-26" incidenttime="01:15:00" incidentnumber="15051927" address="800 block E Warrington Ave" type="ARREST" age="36" gender="M" description="*********************************************** &lt;br/&gt;13(a)(31), Marijuana: Possession Small Amount&lt;br/&gt;4303, General Lighting Requirements.&lt;br/&gt;1543, Driving While Operating Privilege is Suspended or Revoked.&lt;br/&gt;"/><marker lat="40.405726648374788" lng="-80.03872425709703" zone="Zone 6" incidentdate="2015-03-26" incidenttime="06:00:00" incidentnumber="15052028" address="2700 block Banksville Ave" type="ARREST" age="22" gender="F" description="*********************************************** &lt;br/&gt;3502, Burglary.&lt;br/&gt;"/><marker lat="40.413244662079144" lng="-79.989125551697001" zone="Zone 3" incidentdate="2015-03-26" incidenttime="16:45:00" incidentnumber="15047467" address="400 block Brownsville Rd" type="ARREST" age="35" gender="M" description="*********************************************** &lt;br/&gt;2701, Simple Assault.&lt;br/&gt;"/><marker lat="40.391992306024456" lng="-79.990410931645073" zone="Zone 3" incidentdate="2015-03-26" incidenttime="22:04:00" incidentnumber="14131201" address="200 block Parkfield St" type="ARREST" age="28" gender="F" description="*********************************************** &lt;br/&gt;3921, Theft by Unlawful Taking or Disposition.&lt;br/&gt;"/><marker lat="40.4785914" lng="-80.0008597" zone="Zone 1" incidentdate="2015-03-26" incidenttime="07:50:00" incidentnumber="14236355" address="500 block Mt Pleasant Rd" type="ARREST" age="25" gender="M" description="*********************************************** &lt;br/&gt;3304, Criminal Mischief.&lt;br/&gt;2701, Simple Assault.&lt;br/&gt;"/><marker lat="40.44058362667257" lng="-80.002189911351579" zone="Zone 2" incidentdate="2015-03-26" incidenttime="20:20:00" incidentnumber="15052442" address="Market St &amp; Forbes Ave" type="ARREST" age="25" gender="F" description="*********************************************** &lt;br/&gt;13(a)(31), Marijuana: Possession Small Amount&lt;br/&gt;13(a)(32), Paraphernalia - Use or Possession&lt;br/&gt;"/><marker lat="40.434696587775576" lng="-79.996300985228572" zone="Zone 2" incidentdate="2015-03-26" incidenttime="15:00:00" incidentnumber="14007406" address="600 block 1st Ave" type="ARREST" age="31" gender="M" description="*********************************************** &lt;br/&gt;3925, Receiving Stolen Property.&lt;br/&gt;3921, Theft by Unlawful Taking or Disposition.&lt;br/&gt;3502, Burglary.&lt;br/&gt;903, Criminal Conspiracy.&lt;br/&gt;"/><marker lat="40.434696587775576" lng="-79.996300985228572" zone="Zone 2" incidentdate="2015-03-26" incidenttime="07:15:00" incidentnumber="15051683" address="600 block 1st Ave" type="ARREST" age="28" gender="F" description="*********************************************** &lt;br/&gt;2701(a)(3), Simple Assault - Attempts by Physical Menace&lt;br/&gt;2709(a)(1), Harassment by Physical Contact, or Attempts or Threats&lt;br/&gt;"/><marker lat="40.451339678401098" lng="-79.985235930030939" zone="Zone 2" incidentdate="2015-03-26" incidenttime="16:30:00" incidentnumber="15008222" address="19TH St" type="ARREST" age="22" gender="F" description="*********************************************** &lt;br/&gt;2702, Aggravated Assault.&lt;br/&gt;"/></markers>
