<?xml version="1.0"?>
<markers><marker lat="40.445926173410676" lng="-80.052351688864789" zone="Zone 6" incidentdate="2016-01-07" incidenttime="15:15:00" incidentnumber="16003920" address="1000 block Woodlow St" type="OFFENSE" age="" gender="" description="*********************************************** &lt;br/&gt;2701, Simple Assault.&lt;br/&gt;"/><marker lat="40.429817964894596" lng="-79.996000577859093" zone="Zone 3" incidentdate="2016-01-07" incidenttime="03:40:00" incidentnumber="16003688" address="400 block Bingham St" type="OFFENSE" age="" gender="" description="*********************************************** &lt;br/&gt;5505, Public Drunkenness&lt;br/&gt;"/><marker lat="40.46983150999074" lng="-80.007266655663884" zone="Zone 1" incidentdate="2016-01-07" incidenttime="14:30:00" incidentnumber="16003895" address="2500 block Maple Ave" type="OFFENSE" age="" gender="" description="*********************************************** &lt;br/&gt;13(a)(16), Possession of Controlled Substance&lt;br/&gt;13(a)(30), Possession w/ Intent to Del. Controlled Substance&lt;br/&gt;13(a)(30)*, Delivery of Controlled Substance&lt;br/&gt;13(a)(31), Marijuana: Possession Small Amount&lt;br/&gt;13(a)(19), Purchase from Unauthorized Seller&lt;br/&gt;"/><marker lat="40.465412122145814" lng="-79.935803863526644" zone="Zone 5" incidentdate="2016-01-07" incidenttime="16:00:00" incidentnumber="16004010" address="5400 block Broad St" type="OFFENSE" age="" gender="" description="*********************************************** &lt;br/&gt;2709, Harassment (Non-Specific)&lt;br/&gt;"/><marker lat="40.405163297103016" lng="-79.944521017205943" zone="Zone 4" incidentdate="2016-01-07" incidenttime="16:06:00" incidentnumber="16003949" address="500 block Courtland St" type="OFFENSE" age="" gender="" description="*********************************************** &lt;br/&gt;3934, Theft from Vehicle&lt;br/&gt;"/><marker lat="40.470427972702254" lng="-79.932792808592893" zone="Zone 5" incidentdate="2016-01-07" incidenttime="16:55:00" incidentnumber="16003984" address="5400 block Black St" type="OFFENSE" age="" gender="" description="*********************************************** &lt;br/&gt;3502, Burglary.&lt;br/&gt;"/><marker lat="40.382527119313124" lng="-79.979476215377588" zone="Zone 3" incidentdate="2016-01-07" incidenttime="17:42:00" incidentnumber="16003990" address="100 block Stewart Ave" type="OFFENSE" age="" gender="" description="*********************************************** &lt;br/&gt;9489, Found Property&lt;br/&gt;"/><marker lat="40.388587123340194" lng="-79.996652253718551" zone="Zone 3" incidentdate="2016-01-07" incidenttime="18:45:00" incidentnumber="16004051" address="2200 block Saw Mill Run Blvd" type="OFFENSE" age="" gender="" description="*********************************************** &lt;br/&gt;3745, Accidents Involving Damage to Unattended Veh.or Prop.&lt;br/&gt;"/><marker lat="40.4729131" lng="-79.9298333" zone="Zone 5" incidentdate="2016-01-07" incidenttime="13:11:00" incidentnumber="16003865" address="800 block Highview St" type="OFFENSE" age="" gender="" description="*********************************************** &lt;br/&gt;9496, Dead on Arrival (DOA)&lt;br/&gt;"/><marker lat="40.456351790713306" lng="-79.932528767533697" zone="Zone 4" incidentdate="2016-01-07" incidenttime="16:00:00" incidentnumber="16003941" address="500 block Summerlea St" type="OFFENSE" age="" gender="" description="*********************************************** &lt;br/&gt;9999, 9999 - (Misc. Incident):&lt;br/&gt;"/><marker lat="40.487002145990218" lng="-80.012977786244406" zone="Zone 1" incidentdate="2016-01-07" incidenttime="00:40:00" incidentnumber="16003599" address="300 block Richey Ave" type="OFFENSE" age="" gender="" description="*********************************************** &lt;br/&gt;9488, False  Burglar Alarm&lt;br/&gt;"/><marker lat="40.452042212663898" lng="-80.008738896002342" zone="Zone 1" incidentdate="2016-01-07" incidenttime="18:00:00" incidentnumber="16004114" address="200 block Ridge Ave" type="OFFENSE" age="" gender="" description="*********************************************** &lt;br/&gt;029, Missing Juvenile&lt;br/&gt;"/><marker lat="40.463944552788249" lng="-79.982653498433706" zone="Zone 1" incidentdate="2016-01-07" incidenttime="18:07:00" incidentnumber="16004024" address="1700 block Lowrie St" type="OFFENSE" age="" gender="" description="*********************************************** &lt;br/&gt;3701, Robbery.&lt;br/&gt;2706, Terroristic Threats.&lt;br/&gt;"/><marker lat="40.447955660226434" lng="-80.041147135719797" zone="Zone 6" incidentdate="2016-01-07" incidenttime="13:45:00" incidentnumber="16003881" address="1200 block Lakewood St" type="OFFENSE" age="" gender="" description="*********************************************** &lt;br/&gt;2701, Simple Assault.&lt;br/&gt;"/><marker lat="40.467323114181738" lng="-79.981171585366738" zone="Zone 1" incidentdate="2016-01-07" incidenttime="16:12:00" incidentnumber="16003950" address="1800 block Sundeman St" type="OFFENSE" age="" gender="" description="*********************************************** &lt;br/&gt;3502, Burglary.&lt;br/&gt;3921(a), Theft by Unlawful Taking or Disposition - Movable item&lt;br/&gt;"/><marker lat="40.456731447697983" lng="-80.006873141930313" zone="Zone 1" incidentdate="2016-01-07" incidenttime="10:40:00" incidentnumber="16003808" address="1300 block Federal St" type="OFFENSE" age="" gender="" description="*********************************************** &lt;br/&gt;9999, 9999 - (Misc. Incident):&lt;br/&gt;"/><marker lat="40.405163297103016" lng="-79.944521017205943" zone="Zone 4" incidentdate="2016-01-07" incidenttime="16:06:00" incidentnumber="16020494" address="500 block Courtland St" type="OFFENSE" age="" gender="" description="*********************************************** &lt;br/&gt;3304, Criminal Mischief.&lt;br/&gt;"/><marker lat="40.4533745" lng="-80.0775704" zone="Zone 6" incidentdate="2016-01-07" incidenttime="12:02:00" incidentnumber="16003833" address="3600 block Wind Gap Ave" type="OFFENSE" age="" gender="" description="*********************************************** &lt;br/&gt;9488, False  Burglar Alarm&lt;br/&gt;"/><marker lat="40.457155854017508" lng="-79.929226237261304" zone="Zone 4" incidentdate="2016-01-07" incidenttime="14:25:00" incidentnumber="16003910" address="600 block College Ave" type="OFFENSE" age="" gender="" description="*********************************************** &lt;br/&gt;3745, Accidents Involving Damage to Unattended Veh.or Prop.&lt;br/&gt;"/><marker lat="40.446346164512178" lng="-79.994318011299683" zone="Zone 2" incidentdate="2016-01-07" incidenttime="01:43:00" incidentnumber="16003637" address="11th St" type="OFFENSE" age="" gender="" description="*********************************************** &lt;br/&gt;9497, Aided Case&lt;br/&gt;"/><marker lat="40.475969296652167" lng="-79.933375276582481" zone="Zone 5" incidentdate="2016-01-07" incidenttime="18:36:00" incidentnumber="16004038" address="5300 block Stanton Ave" type="OFFENSE" age="" gender="" description="*********************************************** &lt;br/&gt;1786, Required Financial Responsibility.&lt;br/&gt;3802(a)(1), DUI - General Impairment&lt;br/&gt;3802(c), DUI - Highest Rate of Alcohol - BAC &gt;= .16%&lt;br/&gt;3301, Arson&lt;br/&gt;"/><marker lat="40.452966162510073" lng="-79.891011747036316" zone="Zone 5" incidentdate="2016-01-07" incidenttime="15:01:00" incidentnumber="16004025" address="7600 block Hamilton Ave" type="OFFENSE" age="" gender="" description="*********************************************** &lt;br/&gt;2709(a), Harassment.&lt;br/&gt;"/><marker lat="40.437694537589067" lng="-79.972643159209809" zone="Zone 2" incidentdate="2016-01-07" incidenttime="15:30:00" incidentnumber="16003940" address="5th Ave &amp; Birmingham Brg" type="OFFENSE" age="" gender="" description="*********************************************** &lt;br/&gt;3743, Accidents Involving Damage to Attended Veh. or Property&lt;br/&gt;"/><marker lat="40.489613629341036" lng="-80.018113956283486" zone="Zone 1" incidentdate="2016-01-07" incidenttime="13:00:00" incidentnumber="16003862" address="3900 block Perrysville Ave" type="OFFENSE" age="" gender="" description="*********************************************** &lt;br/&gt;3304(a)(5), CRIMINAL MISCHIEF - Intentionally Damages Real Or Personal Property Of Another&lt;br/&gt;"/><marker lat="40.466952259461593" lng="-79.986083000827605" zone="Zone 1" incidentdate="2016-01-07" incidenttime="16:49:00" incidentnumber="16003977" address="1700 block High St" type="OFFENSE" age="" gender="" description="*********************************************** &lt;br/&gt;2701, Simple Assault.&lt;br/&gt;"/><marker lat="40.449646657025653" lng="-79.892798110797884" zone="Zone 4" incidentdate="2016-01-07" incidenttime="19:30:00" incidentnumber="16004028" address="300 block N Braddock Ave" type="OFFENSE" age="" gender="" description="*********************************************** &lt;br/&gt;9999, 9999 - (Misc. Incident):&lt;br/&gt;"/><marker lat="40.451819528786032" lng="-79.893609842291738" zone="Zone 5" incidentdate="2016-01-07" incidenttime="08:02:00" incidentnumber="16003732" address="7500 block Susquehanna St" type="OFFENSE" age="" gender="" description="*********************************************** &lt;br/&gt;2702, Aggravated Assault.&lt;br/&gt;"/><marker lat="40.447144108900588" lng="-79.951831601407065" zone="Zone 4" incidentdate="2016-01-07" incidenttime="14:00:00" incidentnumber="16003946" address="100 block N Bellefield Ave" type="OFFENSE" age="" gender="" description="*********************************************** &lt;br/&gt;9498, 302 (Mental)&lt;br/&gt;"/><marker lat="40.440697119948119" lng="-80.003946068250272" zone="Zone 2" incidentdate="2016-01-07" incidenttime="14:44:00" incidentnumber="16003923" address="100 block Forbes Ave" type="OFFENSE" age="" gender="" description="*********************************************** &lt;br/&gt;13(a)(32), Paraphernalia - Use or Possession&lt;br/&gt;3929, Retail Theft.&lt;br/&gt;"/><marker lat="40.452042212663898" lng="-80.008738896002342" zone="Zone 1" incidentdate="2016-01-07" incidenttime="18:00:00" incidentnumber="16004138" address="200 block Ridge Ave" type="OFFENSE" age="" gender="" description="*********************************************** &lt;br/&gt;9490, Missing Persons (18 and Over)&lt;br/&gt;"/><marker lat="40.378443809335181" lng="-80.003123944842969" zone="Zone 3" incidentdate="2016-01-07" incidenttime="15:00:00" incidentnumber="16003928" address="2700 block Library Rd" type="OFFENSE" age="" gender="" description="*********************************************** &lt;br/&gt;3921(a), Theft by Unlawful Taking or Disposition - Movable item&lt;br/&gt;"/><marker lat="40.454614947288412" lng="-80.014854314791251" zone="Zone 1" incidentdate="2016-01-07" incidenttime="15:25:00" incidentnumber="16003932" address="1200 block Brighton Rd" type="OFFENSE" age="" gender="" description="*********************************************** &lt;br/&gt;3929, Retail Theft.&lt;br/&gt;"/><marker lat="40.452042212663898" lng="-80.008738896002342" zone="Zone 1" incidentdate="2016-01-07" incidenttime="21:12:00" incidentnumber="16004140" address="200 block Ridge Ave" type="OFFENSE" age="" gender="" description="*********************************************** &lt;br/&gt;029, Missing Juvenile&lt;br/&gt;"/><marker lat="40.4276437" lng="-79.9058134" zone="Zone 4" incidentdate="2016-01-07" incidenttime="07:20:00" incidentnumber="16003730" address="1200 block Commercial St" type="OFFENSE" age="" gender="" description="*********************************************** &lt;br/&gt;3921, Theft by Unlawful Taking or Disposition.&lt;br/&gt;"/><marker lat="40.445590651116305" lng="-79.949387243364313" zone="Zone 4" incidentdate="2016-01-07" incidenttime="11:35:00" incidentnumber="16003826" address="300 block N Craig St" type="OFFENSE" age="" gender="" description="*********************************************** &lt;br/&gt;9496, Dead on Arrival (DOA)&lt;br/&gt;"/><marker lat="40.466616756829907" lng="-79.993676874083434" zone="Zone 1" incidentdate="2016-01-07" incidenttime="19:30:00" incidentnumber="16004078" address="2100 block Rhine St" type="OFFENSE" age="" gender="" description="*********************************************** &lt;br/&gt;13(a)(16), Possession of Controlled Substance&lt;br/&gt;13(a)(30), Possession w/ Intent to Del. Controlled Substance&lt;br/&gt;"/><marker lat="40.472095604741263" lng="-79.959322838278794" zone="Zone 2" incidentdate="2016-01-07" incidenttime="09:00:00" incidentnumber="16003765" address="200 block 45th St" type="OFFENSE" age="" gender="" description="*********************************************** &lt;br/&gt;3934, Theft from Vehicle&lt;br/&gt;"/><marker lat="40.4374824" lng="-80.0036951" zone="Zone 2" incidentdate="2016-01-07" incidenttime="20:40:00" incidentnumber="16004074" address="Smithfield St Brg &amp; Fort Pitt Blvd" type="OFFENSE" age="" gender="" description="*********************************************** &lt;br/&gt;9497, Aided Case&lt;br/&gt;"/><marker lat="40.4599937" lng="-79.9305305" zone="Zone 5" incidentdate="2016-01-07" incidenttime="07:48:00" incidentnumber="16003758" address="5800 block Friendship Ave" type="OFFENSE" age="" gender="" description="*********************************************** &lt;br/&gt;13(a)(16), Possession of Controlled Substance&lt;br/&gt;13(a)(32), Paraphernalia - Use or Possession&lt;br/&gt;"/><marker lat="40.45555616395901" lng="-79.897087140351402" zone="Zone 5" incidentdate="2016-01-07" incidenttime="16:00:00" incidentnumber="16003972" address="N Homewood Ave" type="OFFENSE" age="" gender="" description="*********************************************** &lt;br/&gt;3304, Criminal Mischief.&lt;br/&gt;"/><marker lat="40.467655627165364" lng="-79.924365017505139" zone="Zone 5" incidentdate="2016-01-07" incidenttime="17:10:00" incidentnumber="16003987" address="Borland St &amp; Black St" type="OFFENSE" age="" gender="" description="*********************************************** &lt;br/&gt;13(a)(16), Possession of Controlled Substance&lt;br/&gt;907, Possessing Instruments of Crime.&lt;br/&gt;"/><marker lat="40.4277091" lng="-79.3954294" zone="Zone 2" incidentdate="2016-01-07" incidenttime="15:50:00" incidentnumber="16003961" address="Boulevard of the Allies &amp; Stevenson St" type="OFFENSE" age="" gender="" description="*********************************************** &lt;br/&gt;3743, Accidents Involving Damage to Attended Veh. or Property&lt;br/&gt;"/><marker lat="40.437261487984259" lng="-79.975953918643825" zone="Zone 2" incidentdate="2016-01-07" incidenttime="21:50:00" incidentnumber="16004131" address="Forbes Ave &amp; Seneca St" type="OFFENSE" age="" gender="" description="*********************************************** &lt;br/&gt;13(a)(31), Marijuana: Possession Small Amount&lt;br/&gt;1543, Driving While Operating Privilege is Suspended or Revoked.&lt;br/&gt;3112, Traffic-Control Signals.&lt;br/&gt;"/><marker lat="40.468302368514408" lng="-80.004054451101169" zone="Zone 1" incidentdate="2016-01-07" incidenttime="18:46:00" incidentnumber="16004041" address="2300 block Wurzell Ave" type="OFFENSE" age="" gender="" description="*********************************************** &lt;br/&gt;2701, Simple Assault.&lt;br/&gt;"/><marker lat="40.454307782768687" lng="-79.946518733076431" zone="Zone 5" incidentdate="2016-01-07" incidenttime="19:30:00" incidentnumber="16004084" address="4900 block Baum Blvd" type="OFFENSE" age="" gender="" description="*********************************************** &lt;br/&gt;3921(a), Theft by Unlawful Taking or Disposition - Movable item&lt;br/&gt;"/><marker lat="40.468707151284001" lng="-79.962290675901343" zone="Zone 2" incidentdate="2016-01-07" incidenttime="18:20:00" incidentnumber="16004081" address="40th St &amp; Butler St" type="OFFENSE" age="" gender="" description="*********************************************** &lt;br/&gt;3743, Accidents Involving Damage to Attended Veh. or Property&lt;br/&gt;"/><marker lat="40.371841534460778" lng="-79.91239161243233" zone="Zone 4" incidentdate="2016-01-07" incidenttime="10:20:00" incidentnumber="16003802" address="1300 block Leaside Dr" type="OFFENSE" age="" gender="" description="*********************************************** &lt;br/&gt;9999, 9999 - (Misc. Incident):&lt;br/&gt;"/><marker lat="40.4471653" lng="-80.0523328" zone="Zone 6" incidentdate="2016-01-07" incidenttime="02:15:00" incidentnumber="16003663" address="1500 block Crucible St" type="OFFENSE" age="" gender="" description="*********************************************** &lt;br/&gt;3921, Theft by Unlawful Taking or Disposition.&lt;br/&gt;4106, Access Device Fraud&lt;br/&gt;"/><marker lat="40.411352131057285" lng="-79.993006739748296" zone="Zone 3" incidentdate="2016-01-07" incidenttime="02:57:00" incidentnumber="16003680" address="300 block Moore Ave" type="OFFENSE" age="" gender="" description="*********************************************** &lt;br/&gt;3745, Accidents Involving Damage to Unattended Veh.or Prop.&lt;br/&gt;"/><marker lat="40.477206951060047" lng="-79.918846035751514" zone="Zone 5" incidentdate="2016-01-07" incidenttime="20:00:00" incidentnumber="16004067" address="1400 block N Euclid Ave" type="OFFENSE" age="" gender="" description="*********************************************** &lt;br/&gt;2709, Harassment (Non-Specific)&lt;br/&gt;"/><marker lat="40.468693075773288" lng="-79.961677392158549" zone="Zone 2" incidentdate="2016-01-07" incidenttime="12:30:00" incidentnumber="16003845" address="4000 block Butler St" type="OFFENSE" age="" gender="" description="*********************************************** &lt;br/&gt;3745, Accidents Involving Damage to Unattended Veh.or Prop.&lt;br/&gt;"/><marker lat="40.427541855392327" lng="-79.977596384534849" zone="Zone 3" incidentdate="2016-01-07" incidenttime="13:30:00" incidentnumber="16003861" address="2000 block Sarah St" type="OFFENSE" age="" gender="" description="*********************************************** &lt;br/&gt;2709(a), Harassment.&lt;br/&gt;"/><marker lat="40.436021491768535" lng="-79.922879205318864" zone="Zone 4" incidentdate="2016-01-07" incidenttime="16:10:00" incidentnumber="16004026" address="Bartlett St &amp; Murray Ave" type="OFFENSE" age="" gender="" description="*********************************************** &lt;br/&gt;3304, Criminal Mischief.&lt;br/&gt;"/><marker lat="40.386740915625779" lng="-79.989950465239076" zone="Zone 3" incidentdate="2016-01-07" incidenttime="19:15:00" incidentnumber="16004093" address="400 block Overbrook Blvd" type="OFFENSE" age="" gender="" description="*********************************************** &lt;br/&gt;2706, Terroristic Threats.&lt;br/&gt;"/><marker lat="40.456473594608255" lng="-80.05559691973923" zone="Zone 6" incidentdate="2016-01-07" incidenttime="02:00:00" incidentnumber="16003617" address="3100 block Landis St" type="OFFENSE" age="" gender="" description="*********************************************** &lt;br/&gt;029, Missing Juvenile&lt;br/&gt;"/><marker lat="40.453252722000734" lng="-80.019338369092168" zone="Zone 1" incidentdate="2016-01-07" incidenttime="16:20:00" incidentnumber="16003958" address="1100 block ALLEGHENY Ave" type="OFFENSE" age="" gender="" description="*********************************************** &lt;br/&gt;9999, 9999 - (Misc. Incident):&lt;br/&gt;"/><marker lat="40.43830217437776" lng="-79.979443613174553" zone="Zone 2" incidentdate="2016-01-07" incidenttime="18:08:00" incidentnumber="16004023" address="5th Ave &amp; Gist St" type="OFFENSE" age="" gender="" description="*********************************************** &lt;br/&gt;13(a)(31), Marijuana: Possession Small Amount&lt;br/&gt;5104, Resisting Arrest or Other Law Enforcement.&lt;br/&gt;3334, Turning Movements and Required Signals.&lt;br/&gt;"/><marker lat="40.476125195473571" lng="-79.916284691659371" zone="Zone 5" incidentdate="2016-01-07" incidenttime="05:30:00" incidentnumber="16003701" address="1400 block Browning Rd" type="OFFENSE" age="" gender="" description="*********************************************** &lt;br/&gt;9488, False  Burglar Alarm&lt;br/&gt;"/><marker lat="40.470060073090153" lng="-80.018328801931702" zone="Zone 1" incidentdate="2016-01-07" incidenttime="01:57:00" incidentnumber="16003652" address="600 block Marshall Ave" type="OFFENSE" age="" gender="" description="*********************************************** &lt;br/&gt;3745, Accidents Involving Damage to Unattended Veh.or Prop.&lt;br/&gt;3802(c), DUI - Highest Rate of Alcohol - BAC &gt;= .16%&lt;br/&gt;"/><marker lat="40.441919441965581" lng="-79.982892744621594" zone="Zone 2" incidentdate="2016-01-07" incidenttime="21:12:00" incidentnumber="16004139" address="1800 block Centre Ave" type="OFFENSE" age="" gender="" description="*********************************************** &lt;br/&gt;029, Missing Juvenile&lt;br/&gt;"/><marker lat="40.463252273354115" lng="-80.014695833087771" zone="Zone 1" incidentdate="2016-01-07" incidenttime="07:00:00" incidentnumber="16003770" address="2100 block Holyoke St" type="OFFENSE" age="" gender="" description="*********************************************** &lt;br/&gt;3745, Accidents Involving Damage to Unattended Veh.or Prop.&lt;br/&gt;"/><marker lat="40.452042212663898" lng="-80.008738896002342" zone="Zone 1" incidentdate="2016-01-07" incidenttime="23:50:00" incidentnumber="16004158" address="200 block Ridge Ave" type="OFFENSE" age="" gender="" description="*********************************************** &lt;br/&gt;029, Missing Juvenile&lt;br/&gt;"/><marker lat="40.453285126966584" lng="-80.054579750288909" zone="Zone 6" incidentdate="2016-01-07" incidenttime="21:26:00" incidentnumber="16004125" address="Chartiers Ave &amp; Hillsboro St" type="OFFENSE" age="" gender="" description="*********************************************** &lt;br/&gt;13(a)(16), Possession of Controlled Substance&lt;br/&gt;13(a)(30), Possession w/ Intent to Del. Controlled Substance&lt;br/&gt;13(a)(32), Paraphernalia - Use or Possession&lt;br/&gt;3334, Turning Movements and Required Signals.&lt;br/&gt;"/><marker lat="40.389050371782872" lng="-80.015502482507387" zone="Zone 6" incidentdate="2016-01-07" incidenttime="15:18:00" incidentnumber="16003919" address="1200 block Berkshire Ave" type="OFFENSE" age="" gender="" description="*********************************************** &lt;br/&gt;029, Missing Juvenile&lt;br/&gt;"/><marker lat="40.467723127915512" lng="-79.945957959909578" zone="Zone 5" incidentdate="2016-01-07" incidenttime="16:40:00" incidentnumber="15228183" address="300 block Young St" type="OFFENSE" age="" gender="" description="*********************************************** &lt;br/&gt;1786, Required Financial Responsibility.&lt;br/&gt;1501, Drivers Required to be Licensed.&lt;br/&gt;1543, Driving While Operating Privilege is Suspended or Revoked.&lt;br/&gt;4703, Operation of Vehicle without Official Certif. of Inspection&lt;br/&gt;3925, Receiving Stolen Property.&lt;br/&gt;1301, Registration and Certificate of Title Required.&lt;br/&gt;1372, Unauthorized Transfer or Use of Registration.&lt;br/&gt;"/><marker lat="40.4292082569009" lng="-79.99643379759658" zone="Zone 3" incidentdate="2016-01-07" incidenttime="08:30:00" incidentnumber="16003776" address="S 4th St &amp; E Carson St" type="OFFENSE" age="" gender="" description="*********************************************** &lt;br/&gt;9489, Found Property&lt;br/&gt;"/><marker lat="40.4274771168228" lng="-79.969817626401067" zone="Zone 3" incidentdate="2016-01-07" incidenttime="11:15:00" incidentnumber="16003818" address="2500 block E Carson St" type="OFFENSE" age="" gender="" description="*********************************************** &lt;br/&gt;3921(a), Theft by Unlawful Taking or Disposition - Movable item&lt;br/&gt;"/><marker lat="40.4482175" lng="-80.0603672" zone="Zone 6" incidentdate="2016-01-07" incidenttime="00:55:00" incidentnumber="16003623" address="2600 block straka St" type="OFFENSE" age="" gender="" description="*********************************************** &lt;br/&gt;9488, False  Burglar Alarm&lt;br/&gt;"/><marker lat="40.4106981" lng="-79.9930302" zone="Zone 3" incidentdate="2016-01-07" incidenttime="18:25:00" incidentnumber="16004032" address="Alice St &amp; Suncrest St" type="OFFENSE" age="" gender="" description="*********************************************** &lt;br/&gt;13(a)(16), Possession of Controlled Substance&lt;br/&gt;3334, Turning Movements and Required Signals.&lt;br/&gt;1501(A), Valid Drivers License Required&lt;br/&gt;"/><marker lat="40.438869859393428" lng="-79.934026917743054" zone="Zone 4" incidentdate="2016-01-07" incidenttime="03:45:00" incidentnumber="16003839" address="5400 block Northumberland St" type="OFFENSE" age="" gender="" description="*********************************************** &lt;br/&gt;4106, Access Device Fraud&lt;br/&gt;4120, Identity Theft&lt;br/&gt;"/><marker lat="40.402714750647654" lng="-79.994018520375135" zone="Zone 3" incidentdate="2016-01-07" incidenttime="14:38:00" incidentnumber="16003902" address="200 block Nobles Ln" type="OFFENSE" age="" gender="" description="*********************************************** &lt;br/&gt;2702, Aggravated Assault.&lt;br/&gt;"/><marker lat="40.456058278524658" lng="-79.904723021825518" zone="Zone 5" incidentdate="2016-01-07" incidenttime="18:15:00" incidentnumber="16004087" address="6900 block Hamilton Ave" type="OFFENSE" age="" gender="" description="*********************************************** &lt;br/&gt;3745, Accidents Involving Damage to Unattended Veh.or Prop.&lt;br/&gt;"/><marker lat="40.399229873573063" lng="-80.021382841648759" zone="Zone 6" incidentdate="2016-01-07" incidenttime="20:00:00" incidentnumber="16004076" address="2400 block Pioneer Ave" type="OFFENSE" age="" gender="" description="*********************************************** &lt;br/&gt;2709, Harassment (Non-Specific)&lt;br/&gt;"/><marker lat="40.466616756829907" lng="-79.993676874083434" zone="Zone 1" incidentdate="2016-01-07" incidenttime="19:55:00" incidentnumber="16004078" address="2100 block Rhine St" type="ARREST" age="52" gender="M" description="*********************************************** &lt;br/&gt;13(a)(16), Possession of Controlled Substance&lt;br/&gt;13(a)(30), Possession w/ Intent to Del. Controlled Substance&lt;br/&gt;"/><marker lat="40.434696587775576" lng="-79.996300985228572" zone="Zone 2" incidentdate="2016-01-07" incidenttime="00:27:00" incidentnumber="16000736" address="600 block 1st Ave" type="ARREST" age="27" gender="F" description="*********************************************** &lt;br/&gt;3304, Criminal Mischief.&lt;br/&gt;"/><marker lat="40.467723127915512" lng="-79.945957959909578" zone="Zone 5" incidentdate="2016-01-07" incidenttime="16:40:00" incidentnumber="15228183" address="300 block Young St" type="ARREST" age="35" gender="M" description="*********************************************** &lt;br/&gt;1786, Required Financial Responsibility.&lt;br/&gt;1501, Drivers Required to be Licensed.&lt;br/&gt;1543, Driving While Operating Privilege is Suspended or Revoked.&lt;br/&gt;4703, Operation of Vehicle without Official Certif. of Inspection&lt;br/&gt;3925, Receiving Stolen Property.&lt;br/&gt;1301, Registration and Certificate of Title Required.&lt;br/&gt;1372, Unauthorized Transfer or Use of Registration.&lt;br/&gt;"/><marker lat="40.434696587775576" lng="-79.996300985228572" zone="Zone 2" incidentdate="2016-01-07" incidenttime="09:14:00" incidentnumber="15236734" address="600 block 1st Ave" type="ARREST" age="27" gender="F" description="*********************************************** &lt;br/&gt;3922, Theft by Deception.&lt;br/&gt;13(a)(32), Paraphernalia - Use or Possession&lt;br/&gt;3929, Retail Theft.&lt;br/&gt;903, Criminal Conspiracy.&lt;br/&gt;908, Prohibited Offensive Weapons.&lt;br/&gt;2903, False Imprisonment.&lt;br/&gt;"/><marker lat="40.475969296652167" lng="-79.933375276582481" zone="Zone 5" incidentdate="2016-01-07" incidenttime="19:18:00" incidentnumber="16004038" address="5300 block Stanton Ave" type="ARREST" age="41" gender="M" description="*********************************************** &lt;br/&gt;1786, Required Financial Responsibility.&lt;br/&gt;3802(a)(1), DUI - General Impairment&lt;br/&gt;3802(c), DUI - Highest Rate of Alcohol - BAC &gt;= .16%&lt;br/&gt;3301, Arson&lt;br/&gt;"/><marker lat="40.430127608455145" lng="-79.999142313719375" zone="Zone 3" incidentdate="2016-01-07" incidenttime="23:40:00" incidentnumber="13164399" address="S 2nd St &amp; E Carson St" type="ARREST" age="22" gender="F" description="*********************************************** &lt;br/&gt;1501, Drivers Required to be Licensed.&lt;br/&gt;3802(a)(1), DUI - General Impairment&lt;br/&gt;3742.1, Accident Involv. Death/Inj. While not Licensed&lt;br/&gt;"/><marker lat="40.435095503606554" lng="-79.993077686753679" zone="Zone 2" incidentdate="2016-01-07" incidenttime="02:10:00" incidentnumber="15239501" address="900 block 2ND Ave" type="ARREST" age="24" gender="M" description="*********************************************** &lt;br/&gt;13(a)(16), Possession of Controlled Substance&lt;br/&gt;13(a)(30), Possession w/ Intent to Del. Controlled Substance&lt;br/&gt;13(a)(32), Paraphernalia - Use or Possession&lt;br/&gt;6105(a)(1), Persons not to possess, use, manufacture, control, sell or transfer firearms: Former convict enumerated in subsection (b)&lt;br/&gt;"/><marker lat="40.458489749275515" lng="-79.99483344091658" zone="Zone 1" incidentdate="2016-01-07" incidenttime="17:25:00" incidentnumber="15153811" address="1000 block Salter Way" type="ARREST" age="27" gender="M" description="*********************************************** &lt;br/&gt;2701(b)(2), Simple Assault -  Child Under 12 / Adult 21 Or Older&lt;br/&gt;"/><marker lat="40.466952259461593" lng="-79.986083000827605" zone="Zone 1" incidentdate="2016-01-07" incidenttime="17:00:00" incidentnumber="16003977" address="1700 block High St" type="ARREST" age="18" gender="M" description="*********************************************** &lt;br/&gt;2701, Simple Assault.&lt;br/&gt;"/><marker lat="40.4363795" lng="-79.9764063" zone="Zone 4" incidentdate="2016-01-07" incidenttime="08:21:00" incidentnumber="15229930" address="3400 block Blvd of the Allies Blvd" type="ARREST" age="26" gender="M" description="*********************************************** &lt;br/&gt;3926(a)(1), Theft of Services; Cable, Gas, Taxi, Bill, Tab, etc.&lt;br/&gt;"/><marker lat="40.440697119948119" lng="-80.003946068250272" zone="Zone 2" incidentdate="2016-01-07" incidenttime="16:20:00" incidentnumber="16003923" address="100 block Forbes Ave" type="ARREST" age="28" gender="M" description="*********************************************** &lt;br/&gt;13(a)(32), Paraphernalia - Use or Possession&lt;br/&gt;3929, Retail Theft.&lt;br/&gt;"/><marker lat="40.386609507711356" lng="-79.998076912300704" zone="Zone 3" incidentdate="2016-01-07" incidenttime="18:45:00" incidentnumber="15245230" address="200 block Vineland St" type="ARREST" age="47" gender="M" description="*********************************************** &lt;br/&gt;3304, Criminal Mischief.&lt;br/&gt;3503, Criminal Trespass&lt;br/&gt;2701, Simple Assault.&lt;br/&gt;"/><marker lat="40.46983150999074" lng="-80.007266655663884" zone="Zone 1" incidentdate="2016-01-07" incidenttime="14:27:00" incidentnumber="16003895" address="2500 block Maple Ave" type="ARREST" age="20" gender="M" description="*********************************************** &lt;br/&gt;13(a)(16), Possession of Controlled Substance&lt;br/&gt;13(a)(30), Possession w/ Intent to Del. Controlled Substance&lt;br/&gt;13(a)(30)*, Delivery of Controlled Substance&lt;br/&gt;13(a)(31), Marijuana: Possession Small Amount&lt;br/&gt;13(a)(19), Purchase from Unauthorized Seller&lt;br/&gt;"/><marker lat="40.453285126966584" lng="-80.054579750288909" zone="Zone 6" incidentdate="2016-01-07" incidenttime="21:26:00" incidentnumber="16004125" address="Chartiers Ave &amp; Hillsboro St" type="ARREST" age="26" gender="M" description="*********************************************** &lt;br/&gt;13(a)(16), Possession of Controlled Substance&lt;br/&gt;13(a)(30), Possession w/ Intent to Del. Controlled Substance&lt;br/&gt;13(a)(32), Paraphernalia - Use or Possession&lt;br/&gt;3334, Turning Movements and Required Signals.&lt;br/&gt;"/><marker lat="40.467655627165364" lng="-79.924365017505139" zone="Zone 5" incidentdate="2016-01-07" incidenttime="17:11:00" incidentnumber="16003987" address="Borland St &amp; Black St" type="ARREST" age="61" gender="F" description="*********************************************** &lt;br/&gt;13(a)(16), Possession of Controlled Substance&lt;br/&gt;907, Possessing Instruments of Crime.&lt;br/&gt;"/><marker lat="40.46594508318281" lng="-80.02606973410272" zone="Zone 1" incidentdate="2016-01-07" incidenttime="14:50:00" incidentnumber="15157023" address="Marshall Ave &amp; Ridgeland Dr" type="ARREST" age="40" gender="M" description="*********************************************** &lt;br/&gt;13(a)(16), Possession of Controlled Substance&lt;br/&gt;13(a)(32), Paraphernalia - Use or Possession&lt;br/&gt;9015, Failure To Appear/Arrest on Attachment Order&lt;br/&gt;1786, Required Financial Responsibility.&lt;br/&gt;1543, Driving While Operating Privilege is Suspended or Revoked.&lt;br/&gt;"/><marker lat="40.466952259461593" lng="-79.986083000827605" zone="Zone 1" incidentdate="2016-01-07" incidenttime="16:55:00" incidentnumber="16003977" address="1700 block High St" type="ARREST" age="24" gender="M" description="*********************************************** &lt;br/&gt;2701, Simple Assault.&lt;br/&gt;"/><marker lat="40.470060073090153" lng="-80.018328801931702" zone="Zone 1" incidentdate="2016-01-07" incidenttime="02:03:00" incidentnumber="16003652" address="600 block Marshall Ave" type="ARREST" age="49" gender="F" description="*********************************************** &lt;br/&gt;3745, Accidents Involving Damage to Unattended Veh.or Prop.&lt;br/&gt;3802(c), DUI - Highest Rate of Alcohol - BAC &gt;= .16%&lt;br/&gt;"/><marker lat="40.456241751621349" lng="-79.994935679777853" zone="Zone 1" incidentdate="2016-01-07" incidenttime="17:15:00" incidentnumber="15229618" address="Chestnut St &amp; Suismon St" type="ARREST" age="34" gender="F" description="*********************************************** &lt;br/&gt;3304, Criminal Mischief.&lt;br/&gt;"/><marker lat="40.463944552788249" lng="-79.982653498433706" zone="Zone 1" incidentdate="2016-01-07" incidenttime="18:38:00" incidentnumber="16004024" address="1700 block Lowrie St" type="ARREST" age="32" gender="M" description="*********************************************** &lt;br/&gt;3701, Robbery.&lt;br/&gt;2706, Terroristic Threats.&lt;br/&gt;"/><marker lat="40.4599937" lng="-79.9305305" zone="Zone 5" incidentdate="2016-01-07" incidenttime="10:46:00" incidentnumber="16003758" address="5800 block Friendship Ave" type="ARREST" age="29" gender="F" description="*********************************************** &lt;br/&gt;13(a)(16), Possession of Controlled Substance&lt;br/&gt;13(a)(32), Paraphernalia - Use or Possession&lt;br/&gt;"/><marker lat="40.435095503606554" lng="-79.993077686753679" zone="Zone 2" incidentdate="2016-01-07" incidenttime="15:50:00" incidentnumber="15248871" address="900 block Second Ave" type="ARREST" age="35" gender="M" description="*********************************************** &lt;br/&gt;3502, Burglary.&lt;br/&gt;3925, Receiving Stolen Property.&lt;br/&gt;"/><marker lat="40.43830217437776" lng="-79.979443613174553" zone="Zone 2" incidentdate="2016-01-07" incidenttime="18:08:00" incidentnumber="16004023" address="5th Ave &amp; Gist St" type="ARREST" age="29" gender="M" description="*********************************************** &lt;br/&gt;13(a)(31), Marijuana: Possession Small Amount&lt;br/&gt;5104, Resisting Arrest or Other Law Enforcement.&lt;br/&gt;3334, Turning Movements and Required Signals.&lt;br/&gt;"/><marker lat="40.468302368514408" lng="-80.004054451101169" zone="Zone 1" incidentdate="2016-01-07" incidenttime="19:00:00" incidentnumber="16004041" address="2300 block Wurzell Ave" type="ARREST" age="25" gender="F" description="*********************************************** &lt;br/&gt;2701, Simple Assault.&lt;br/&gt;"/><marker lat="40.437261487984259" lng="-79.975953918643825" zone="Zone 2" incidentdate="2016-01-07" incidenttime="21:50:00" incidentnumber="16004131" address="Forbes Ave &amp; Seneca St" type="ARREST" age="29" gender="M" description="*********************************************** &lt;br/&gt;13(a)(31), Marijuana: Possession Small Amount&lt;br/&gt;1543, Driving While Operating Privilege is Suspended or Revoked.&lt;br/&gt;3112, Traffic-Control Signals.&lt;br/&gt;"/><marker lat="40.468302368514408" lng="-80.004054451101169" zone="Zone 1" incidentdate="2016-01-07" incidenttime="19:00:00" incidentnumber="16004041" address="2300 block Wurzell Ave" type="ARREST" age="19" gender="F" description="*********************************************** &lt;br/&gt;2701, Simple Assault.&lt;br/&gt;"/><marker lat="40.43830217437776" lng="-79.979443613174553" zone="Zone 2" incidentdate="2016-01-07" incidenttime="19:50:00" incidentnumber="16004023" address="5th Ave &amp; Gist St" type="ARREST" age="28" gender="M" description="*********************************************** &lt;br/&gt;13(a)(31), Marijuana: Possession Small Amount&lt;br/&gt;5104, Resisting Arrest or Other Law Enforcement.&lt;br/&gt;3334, Turning Movements and Required Signals.&lt;br/&gt;"/><marker lat="40.46983150999074" lng="-80.007266655663884" zone="Zone 1" incidentdate="2016-01-07" incidenttime="14:27:00" incidentnumber="16003895" address="2500 block Maple Ave" type="ARREST" age="32" gender="M" description="*********************************************** &lt;br/&gt;13(a)(16), Possession of Controlled Substance&lt;br/&gt;13(a)(30), Possession w/ Intent to Del. Controlled Substance&lt;br/&gt;13(a)(30)*, Delivery of Controlled Substance&lt;br/&gt;13(a)(31), Marijuana: Possession Small Amount&lt;br/&gt;13(a)(19), Purchase from Unauthorized Seller&lt;br/&gt;"/><marker lat="40.4106981" lng="-79.9930302" zone="Zone 3" incidentdate="2016-01-07" incidenttime="18:25:00" incidentnumber="16004032" address="Alice St &amp; Suncrest St" type="ARREST" age="39" gender="M" description="*********************************************** &lt;br/&gt;13(a)(16), Possession of Controlled Substance&lt;br/&gt;3334, Turning Movements and Required Signals.&lt;br/&gt;1501(A), Valid Drivers License Required&lt;br/&gt;"/></markers>
