<?xml version="1.0"?>
<markers><marker lat="40.438308590945255" lng="-79.957718574743282" zone="Zone 4" incidentdate="2016-02-11" incidenttime="12:00:00" incidentnumber="16025548" address="300 block Mc Kee Pl" type="OFFENSE" age="" gender="" description="*********************************************** &lt;br/&gt;3921, Theft by Unlawful Taking or Disposition.&lt;br/&gt;"/><marker lat="40.440697119948119" lng="-80.003946068250272" zone="Zone 2" incidentdate="2016-02-11" incidenttime="15:25:00" incidentnumber="15211504" address="100 block Forbes Ave" type="OFFENSE" age="" gender="" description="*********************************************** &lt;br/&gt;9015, Failure To Appear/Arrest on Attachment Order&lt;br/&gt;3929, Retail Theft.&lt;br/&gt;"/><marker lat="40.440092571650716" lng="-80.003005012857287" zone="Zone 2" incidentdate="2016-02-11" incidenttime="15:10:00" incidentnumber="16025628" address="PPG Pl" type="OFFENSE" age="" gender="" description="*********************************************** &lt;br/&gt;9497, Aided Case&lt;br/&gt;"/><marker lat="40.487823540011732" lng="-79.897614208935366" zone="Zone 5" incidentdate="2016-02-11" incidenttime="18:13:00" incidentnumber="16025748" address="800 block Freeport Rd" type="OFFENSE" age="" gender="" description="*********************************************** &lt;br/&gt;3929, Retail Theft.&lt;br/&gt;"/><marker lat="40.418503988939655" lng="-79.924348393884145" zone="Zone 4" incidentdate="2016-02-11" incidenttime="01:45:00" incidentnumber="16025332" address="3300 block Beechwood Blvd" type="OFFENSE" age="" gender="" description="*********************************************** &lt;br/&gt;3502, Burglary.&lt;br/&gt;"/><marker lat="40.466157023204467" lng="-79.98535298496779" zone="Zone 1" incidentdate="2016-02-11" incidenttime="08:34:00" incidentnumber="16025444" address="1600 block Spring Garden Ave" type="OFFENSE" age="" gender="" description="*********************************************** &lt;br/&gt;2701(a)(1), Simple Assault - Intent., Know., Reckless.Cause Bod. Injury&lt;br/&gt;"/><marker lat="40.38515772475057" lng="-79.995148189584569" zone="Zone 3" incidentdate="2016-02-11" incidenttime="11:56:00" incidentnumber="16025530" address="2400 block Saw Mill Run Blvd" type="OFFENSE" age="" gender="" description="*********************************************** &lt;br/&gt;9496, Dead on Arrival (DOA)&lt;br/&gt;"/><marker lat="40.466352472755183" lng="-79.897670468246574" zone="Zone 4" incidentdate="2016-02-11" incidenttime="08:10:00" incidentnumber="16025417" address="1300 block Lincoln Ave" type="OFFENSE" age="" gender="" description="*********************************************** &lt;br/&gt;9999, 9999 - (Misc. Incident):&lt;br/&gt;"/><marker lat="40.44515440155142" lng="-79.975987053682289" zone="Zone 2" incidentdate="2016-02-11" incidenttime="13:30:00" incidentnumber="16025616" address="2200 block Centre Ave" type="OFFENSE" age="" gender="" description="*********************************************** &lt;br/&gt;3921, Theft by Unlawful Taking or Disposition.&lt;br/&gt;"/><marker lat="40.389269849105723" lng="-79.98539716094264" zone="Zone 3" incidentdate="2016-02-11" incidenttime="02:59:00" incidentnumber="16025363" address="Brownsville Rd &amp; Overbrook Blvd" type="OFFENSE" age="" gender="" description="*********************************************** &lt;br/&gt;5503(a)(1), DISORDERLY CONDUCT - ENGAGE IN FIGHTING&lt;br/&gt;"/><marker lat="40.45297697721896" lng="-79.942563534970191" zone="Zone 4" incidentdate="2016-02-11" incidenttime="13:50:00" incidentnumber="16025645" address="bayard Rd" type="OFFENSE" age="" gender="" description="*********************************************** &lt;br/&gt;9999, 9999 - (Misc. Incident):&lt;br/&gt;"/><marker lat="40.463944552788249" lng="-79.982653498433706" zone="Zone 1" incidentdate="2016-02-11" incidenttime="10:42:00" incidentnumber="16025497" address="1700 block Lowrie St" type="OFFENSE" age="" gender="" description="*********************************************** &lt;br/&gt;9488, False  Burglar Alarm&lt;br/&gt;"/><marker lat="40.467810996041386" lng="-79.907116178869074" zone="Zone 5" incidentdate="2016-02-11" incidenttime="08:00:00" incidentnumber="16025712" address="1100 block Larimer Ave" type="OFFENSE" age="" gender="" description="*********************************************** &lt;br/&gt;3304, Criminal Mischief.&lt;br/&gt;"/><marker lat="40.4340914762005" lng="-79.989773063460575" zone="Zone 2" incidentdate="2016-02-11" incidenttime="09:10:00" incidentnumber="16025471" address="10th St Byp" type="OFFENSE" age="" gender="" description="*********************************************** &lt;br/&gt;3743, Accidents Involving Damage to Attended Veh. or Property&lt;br/&gt;"/><marker lat="40.46322613334992" lng="-79.959579071495824" zone="Zone 2" incidentdate="2016-02-11" incidenttime="14:30:00" incidentnumber="16025607" address="39th St &amp; Howley St" type="OFFENSE" age="" gender="" description="*********************************************** &lt;br/&gt;3921(a), Theft by Unlawful Taking or Disposition - Movable item&lt;br/&gt;"/><marker lat="40.457551828948766" lng="-79.973861951528761" zone="Zone 2" incidentdate="2016-02-11" incidenttime="17:25:00" incidentnumber="16025722" address="Spring Way &amp; 29th St" type="OFFENSE" age="" gender="" description="*********************************************** &lt;br/&gt;3802(a)(1), DUI - General Impairment&lt;br/&gt;3321, Vehicle Approaching or Entering Intersection.&lt;br/&gt;"/><marker lat="40.434576841386871" lng="-79.923014326255213" zone="Zone 4" incidentdate="2016-02-11" incidenttime="15:30:00" incidentnumber="16025635" address="2000 block Murray Ave" type="OFFENSE" age="" gender="" description="*********************************************** &lt;br/&gt;3304(a)(4), CRIMINAL MISCHIEF- Intentionally Damage Property (By Graffiti, Aerosol Spray Paint, Broad Tip Marker, or Similar)&lt;br/&gt;907, Possessing Instruments of Crime.&lt;br/&gt;3503(b)(1)(iii), Defiant Trespass - Fencing or Other Enclosure&lt;br/&gt;"/><marker lat="40.422703998069622" lng="-79.995775354266669" zone="Zone 3" incidentdate="2016-02-11" incidenttime="17:30:00" incidentnumber="16025728" address="700 block Excelsior St" type="OFFENSE" age="" gender="" description="*********************************************** &lt;br/&gt;9999, 9999 - (Misc. Incident):&lt;br/&gt;"/><marker lat="40.4530675" lng="-80.0030668" zone="Zone 1" incidentdate="2016-02-11" incidenttime="03:53:00" incidentnumber="16025381" address="200 block East Ohio St" type="OFFENSE" age="" gender="" description="*********************************************** &lt;br/&gt;9488, False  Burglar Alarm&lt;br/&gt;"/><marker lat="40.442853265191879" lng="-79.965696319067632" zone="Zone 4" incidentdate="2016-02-11" incidenttime="07:15:00" incidentnumber="16025431" address="300 block Robinson St" type="OFFENSE" age="" gender="" description="*********************************************** &lt;br/&gt;3921, Theft by Unlawful Taking or Disposition.&lt;br/&gt;"/><marker lat="40.456938679070994" lng="-79.999947636278463" zone="Zone 5" incidentdate="2016-02-11" incidenttime="01:52:00" incidentnumber="16025333" address="600 block N Braddock Ave" type="OFFENSE" age="" gender="" description="*********************************************** &lt;br/&gt;3745, Accidents Involving Damage to Unattended Veh.or Prop.&lt;br/&gt;"/><marker lat="40.442015142893851" lng="-79.962054128177357" zone="Zone 4" incidentdate="2016-02-11" incidenttime="16:00:00" incidentnumber="16025691" address="3500 block Terrace St" type="OFFENSE" age="" gender="" description="*********************************************** &lt;br/&gt;9504, Lost Property&lt;br/&gt;"/><marker lat="40.427838355756052" lng="-79.980651909136142" zone="Zone 3" incidentdate="2016-02-11" incidenttime="13:30:00" incidentnumber="16025589" address="S 18th St &amp; Sarah St" type="OFFENSE" age="" gender="" description="*********************************************** &lt;br/&gt;3743, Accidents Involving Damage to Attended Veh. or Property&lt;br/&gt;"/><marker lat="40.450142897869029" lng="-79.973821656982068" zone="Zone 2" incidentdate="2016-02-11" incidenttime="17:52:00" incidentnumber="16025738" address="Bedford Ave &amp; Duff St" type="OFFENSE" age="" gender="" description="*********************************************** &lt;br/&gt;13(a)(16), Possession of Controlled Substance&lt;br/&gt;13(a)(30), Possession w/ Intent to Del. Controlled Substance&lt;br/&gt;5104, Resisting Arrest or Other Law Enforcement.&lt;br/&gt;5101, Obstructing Admin. of Law&lt;br/&gt;3323, Stop Signs and Yield Signs.&lt;br/&gt;"/><marker lat="40.450588490629549" lng="-79.935462167387811" zone="Zone 4" incidentdate="2016-02-11" incidenttime="12:33:00" incidentnumber="16025553" address="5400 block Walnut St" type="OFFENSE" age="" gender="" description="*********************************************** &lt;br/&gt;9489, Found Property&lt;br/&gt;"/><marker lat="40.391579872568094" lng="-80.015378713407102" zone="Zone 6" incidentdate="2016-02-11" incidenttime="19:06:00" incidentnumber="16025729" address="1100 block Brookline Blvd" type="OFFENSE" age="" gender="" description="*********************************************** &lt;br/&gt;9496, Dead on Arrival (DOA)&lt;br/&gt;"/><marker lat="40.394559358162454" lng="-79.999920683882067" zone="Zone 6" incidentdate="2016-02-11" incidenttime="00:01:00" incidentnumber="16025674" address="1900 block Jacob St" type="OFFENSE" age="" gender="" description="*********************************************** &lt;br/&gt;4120, Identity Theft&lt;br/&gt;"/><marker lat="40.466466300099462" lng="-79.942450189243573" zone="Zone 5" incidentdate="2016-02-11" incidenttime="05:51:00" incidentnumber="16025404" address="300 block S Winebiddle (Rear Parking Lot) St" type="OFFENSE" age="" gender="" description="*********************************************** &lt;br/&gt;3921, Theft by Unlawful Taking or Disposition.&lt;br/&gt;"/><marker lat="40.4406248" lng="-79.9958864" zone="Zone 1" incidentdate="2016-02-11" incidenttime="18:00:00" incidentnumber="16025772" address="Zone 1 Area" type="OFFENSE" age="" gender="" description="*********************************************** &lt;br/&gt;9124, Drug Investigation&lt;br/&gt;"/><marker lat="40.451687559597296" lng="-79.93218291951132" zone="Zone 4" incidentdate="2016-02-11" incidenttime="13:45:00" incidentnumber="16025588" address="Ivy St &amp; Walnut St" type="OFFENSE" age="" gender="" description="*********************************************** &lt;br/&gt;3304, Criminal Mischief.&lt;br/&gt;3934, Theft from Vehicle&lt;br/&gt;"/><marker lat="40.4444642" lng="-79.9872164" zone="Zone 2" incidentdate="2016-02-11" incidenttime="23:40:00" incidentnumber="16025870" address="700 block Mercer St" type="OFFENSE" age="" gender="" description="*********************************************** &lt;br/&gt;9999, 9999 - (Misc. Incident):&lt;br/&gt;"/><marker lat="40.455049993558632" lng="-80.058271587803674" zone="Zone 6" incidentdate="2016-02-11" incidenttime="00:01:00" incidentnumber="16025733" address="800 block Citadel St" type="OFFENSE" age="" gender="" description="*********************************************** &lt;br/&gt;2709, Harassment (Non-Specific)&lt;br/&gt;"/><marker lat="40.453881093138619" lng="-79.873029877694393" zone="Zone 5" incidentdate="2016-02-11" incidenttime="15:44:00" incidentnumber="16025652" address="2200 block East Hills Dr" type="OFFENSE" age="" gender="" description="*********************************************** &lt;br/&gt;9999, 9999 - (Misc. Incident):&lt;br/&gt;"/><marker lat="40.391935616779428" lng="-80.012990596194811" zone="Zone 6" incidentdate="2016-02-11" incidenttime="17:00:00" incidentnumber="16025695" address="1200 block Brookline Blvd" type="OFFENSE" age="" gender="" description="*********************************************** &lt;br/&gt;9999, 9999 - (Misc. Incident):&lt;br/&gt;"/><marker lat="40.456564641128566" lng="-79.871361460228911" zone="Zone 5" incidentdate="2016-02-11" incidenttime="00:01:00" incidentnumber="16025721" address="2300 block East Hills Dr" type="OFFENSE" age="" gender="" description="*********************************************** &lt;br/&gt;2709, Harassment (Non-Specific)&lt;br/&gt;"/><marker lat="40.399184649147095" lng="-80.025493435297477" zone="Zone 6" incidentdate="2016-02-11" incidenttime="18:46:00" incidentnumber="16025763" address="2500 block West Liberty Ave" type="OFFENSE" age="" gender="" description="*********************************************** &lt;br/&gt;13(a)(16), Possession of Controlled Substance&lt;br/&gt;1543, Driving While Operating Privilege is Suspended or Revoked.&lt;br/&gt;"/><marker lat="40.463856138548046" lng="-79.904944113134064" zone="Zone 5" incidentdate="2016-02-11" incidenttime="11:30:00" incidentnumber="16025643" address="6600 block Tennis Way" type="OFFENSE" age="" gender="" description="*********************************************** &lt;br/&gt;9490, Missing Persons (18 and Over)&lt;br/&gt;"/><marker lat="40.452656721916718" lng="-80.059581564502764" zone="Zone 6" incidentdate="2016-02-11" incidenttime="14:00:00" incidentnumber="16025757" address="3000 block Universal St" type="OFFENSE" age="" gender="" description="*********************************************** &lt;br/&gt;2709.A3, HARASSMENT - COURSE OF CONDUCT W/NO LEGIT. PURPOSE&lt;br/&gt;"/><marker lat="40.469989317873136" lng="-79.929933603028601" zone="Zone 5" incidentdate="2016-02-11" incidenttime="08:35:00" incidentnumber="16025446" address="600 block Chislett St" type="OFFENSE" age="" gender="" description="*********************************************** &lt;br/&gt;9122, Miscellaneous Fire Vehicle Investigation to Continue&lt;br/&gt;"/><marker lat="40.402179104509891" lng="-80.011905193857018" zone="Zone 6" incidentdate="2016-02-11" incidenttime="14:30:00" incidentnumber="16025595" address="700 block Dunster St" type="OFFENSE" age="" gender="" description="*********************************************** &lt;br/&gt;9093, Indirect Criminal Contempt&lt;br/&gt;"/><marker lat="40.4073375" lng="-79.9924902" zone="Zone 3" incidentdate="2016-02-11" incidenttime="01:45:00" incidentnumber="16025302" address="800 block Roll St" type="OFFENSE" age="" gender="" description="*********************************************** &lt;br/&gt;029, Missing Juvenile&lt;br/&gt;"/><marker lat="40.456633448414188" lng="-79.936435139782176" zone="Zone 4" incidentdate="2016-02-11" incidenttime="15:44:00" incidentnumber="16025648" address="5500 block Centre Ave" type="OFFENSE" age="" gender="" description="*********************************************** &lt;br/&gt;3304, Criminal Mischief.&lt;br/&gt;"/><marker lat="40.461630806852277" lng="-79.926784260450063" zone="Zone 5" incidentdate="2016-02-11" incidenttime="06:00:00" incidentnumber="16025433" address="5900 block Penn Ave" type="OFFENSE" age="" gender="" description="*********************************************** &lt;br/&gt;3502, Burglary.&lt;br/&gt;"/><marker lat="40.430879395977193" lng="-80.001322478404902" zone="Zone 3" incidentdate="2016-02-11" incidenttime="15:03:00" incidentnumber="16025627" address="Arlington Ave &amp; E Carson St" type="OFFENSE" age="" gender="" description="*********************************************** &lt;br/&gt;3701, Robbery.&lt;br/&gt;"/><marker lat="40.45673063026581" lng="-79.879690020734955" zone="Zone 5" incidentdate="2016-02-11" incidenttime="04:03:00" incidentnumber="16025384" address="1000 block Stoneville St" type="OFFENSE" age="" gender="" description="*********************************************** &lt;br/&gt;9496, Dead on Arrival (DOA)&lt;br/&gt;"/><marker lat="40.45858179352976" lng="-79.992016742966769" zone="Zone 1" incidentdate="2016-02-11" incidenttime="18:10:00" incidentnumber="16025751" address="1100 block Brabec St" type="OFFENSE" age="" gender="" description="*********************************************** &lt;br/&gt;13(a)(16), Possession of Controlled Substance&lt;br/&gt;13(a)(30), Possession w/ Intent to Del. Controlled Substance&lt;br/&gt;9501, Bench Warrant&lt;br/&gt;7512, Criminal Use of Communication&lt;br/&gt;"/><marker lat="40.465403003221674" lng="-79.925953323369583" zone="Zone 5" incidentdate="2016-02-11" incidenttime="14:50:00" incidentnumber="16025630" address="5800 block Rippey St" type="OFFENSE" age="" gender="" description="*********************************************** &lt;br/&gt;9489, Found Property&lt;br/&gt;"/><marker lat="40.445590651116305" lng="-79.949387243364313" zone="Zone 4" incidentdate="2016-02-11" incidenttime="09:30:00" incidentnumber="16025476" address="300 block N Craig St" type="OFFENSE" age="" gender="" description="*********************************************** &lt;br/&gt;9999, 9999 - (Misc. Incident):&lt;br/&gt;"/><marker lat="40.404939361855945" lng="-79.990899233620965" zone="Zone 3" incidentdate="2016-02-11" incidenttime="16:27:00" incidentnumber="16025673" address="1100 block Brownsville Rd" type="OFFENSE" age="" gender="" description="*********************************************** &lt;br/&gt;3743, Accidents Involving Damage to Attended Veh. or Property&lt;br/&gt;"/><marker lat="40.427361411734964" lng="-79.906435649664033" zone="Zone 4" incidentdate="2016-02-11" incidenttime="09:32:00" incidentnumber="16025478" address="6800 block Forward Ave" type="OFFENSE" age="" gender="" description="*********************************************** &lt;br/&gt;3743, Accidents Involving Damage to Attended Veh. or Property&lt;br/&gt;"/><marker lat="40.428684832699354" lng="-79.983306706238423" zone="Zone 3" incidentdate="2016-02-11" incidenttime="08:35:00" incidentnumber="16018389" address="1500 block E Carson St" type="ARREST" age="25" gender="M" description="*********************************************** &lt;br/&gt;2702, Aggravated Assault.&lt;br/&gt;"/><marker lat="40.392871479647226" lng="-80.019186485910737" zone="Zone 6" incidentdate="2016-02-11" incidenttime="15:40:00" incidentnumber="16008354" address="900 block Brookline Blvd" type="ARREST" age="34" gender="M" description="*********************************************** &lt;br/&gt;3921(a), Theft by Unlawful Taking or Disposition - Movable item&lt;br/&gt;"/><marker lat="40.4471653" lng="-80.0523328" zone="Zone 6" incidentdate="2016-02-11" incidenttime="03:45:00" incidentnumber="16010118" address="1500 block Crucible St" type="ARREST" age="23" gender="F" description="*********************************************** &lt;br/&gt;3304, Criminal Mischief.&lt;br/&gt;3304(a)(5), CRIMINAL MISCHIEF - Intentionally Damages Real Or Personal Property Of Another&lt;br/&gt;"/><marker lat="40.45858179352976" lng="-79.992016742966769" zone="Zone 1" incidentdate="2016-02-11" incidenttime="18:10:00" incidentnumber="15247975" address="1100 block Brabec St" type="ARREST" age="27" gender="M" description="*********************************************** &lt;br/&gt;3502, Burglary.&lt;br/&gt;3304, Criminal Mischief.&lt;br/&gt;2701, Simple Assault.&lt;br/&gt;"/><marker lat="40.402179104509891" lng="-80.011905193857018" zone="Zone 6" incidentdate="2016-02-11" incidenttime="15:00:00" incidentnumber="16025595" address="700 block Dunster St" type="ARREST" age="32" gender="F" description="*********************************************** &lt;br/&gt;9093, Indirect Criminal Contempt&lt;br/&gt;"/><marker lat="40.445360252034405" lng="-79.970828570004869" zone="Zone 2" incidentdate="2016-02-11" incidenttime="11:10:00" incidentnumber="16018545" address="2500 block Center Ave" type="ARREST" age="59" gender="M" description="*********************************************** &lt;br/&gt;4915, Failure to Comply with Megans Law&lt;br/&gt;"/><marker lat="40.452883071705521" lng="-80.016907502703404" zone="Zone 1" incidentdate="2016-02-11" incidenttime="08:00:00" incidentnumber="16024222" address="900 block Beech Ave" type="ARREST" age="37" gender="F" description="*********************************************** &lt;br/&gt;2706, Terroristic Threats.&lt;br/&gt;4952, Intimidation of Witnesses or Victims&lt;br/&gt;4953, Retaliation Against Witness,Victim or Party.&lt;br/&gt;"/><marker lat="40.436036005233959" lng="-79.985455385193148" zone="Zone 2" incidentdate="2016-02-11" incidenttime="12:50:00" incidentnumber="15231287" address="1400 block Locust St" type="ARREST" age="66" gender="F" description="*********************************************** &lt;br/&gt;3922, Theft by Deception.&lt;br/&gt;"/><marker lat="40.440697119948119" lng="-80.003946068250272" zone="Zone 2" incidentdate="2016-02-11" incidenttime="15:20:00" incidentnumber="15211504" address="100 block Forbes Ave" type="ARREST" age="36" gender="F" description="*********************************************** &lt;br/&gt;9015, Failure To Appear/Arrest on Attachment Order&lt;br/&gt;3929, Retail Theft.&lt;br/&gt;"/><marker lat="40.434576841386871" lng="-79.923014326255213" zone="Zone 4" incidentdate="2016-02-11" incidenttime="15:29:00" incidentnumber="16025635" address="2000 block Murray Ave" type="ARREST" age="16" gender="F" description="*********************************************** &lt;br/&gt;3304(a)(4), CRIMINAL MISCHIEF- Intentionally Damage Property (By Graffiti, Aerosol Spray Paint, Broad Tip Marker, or Similar)&lt;br/&gt;907, Possessing Instruments of Crime.&lt;br/&gt;3503(b)(1)(iii), Defiant Trespass - Fencing or Other Enclosure&lt;br/&gt;"/><marker lat="40.487823540011732" lng="-79.897614208935366" zone="Zone 5" incidentdate="2016-02-11" incidenttime="18:23:00" incidentnumber="16025748" address="800 block Freeport Rd" type="ARREST" age="48" gender="M" description="*********************************************** &lt;br/&gt;3929, Retail Theft.&lt;br/&gt;"/><marker lat="40.469498895079255" lng="-79.892138971033631" zone="Zone 5" incidentdate="2016-02-11" incidenttime="15:00:00" incidentnumber="15230623" address="1600 block Westmoreland St" type="ARREST" age="20" gender="M" description="*********************************************** &lt;br/&gt;9015, Failure To Appear/Arrest on Attachment Order&lt;br/&gt;2701, Simple Assault.&lt;br/&gt;"/><marker lat="40.434696587775576" lng="-79.996300985228572" zone="Zone 2" incidentdate="2016-02-11" incidenttime="19:55:00" incidentnumber="16023997" address="600 block 1st Ave" type="ARREST" age="29" gender="F" description="*********************************************** &lt;br/&gt;3304(a)(5), CRIMINAL MISCHIEF - Intentionally Damages Real Or Personal Property Of Another&lt;br/&gt;"/><marker lat="40.466157023204467" lng="-79.98535298496779" zone="Zone 1" incidentdate="2016-02-11" incidenttime="09:37:00" incidentnumber="16025444" address="1600 block Spring Garden Ave" type="ARREST" age="40" gender="M" description="*********************************************** &lt;br/&gt;2701(a)(1), Simple Assault - Intent., Know., Reckless.Cause Bod. Injury&lt;br/&gt;"/><marker lat="40.407062259034475" lng="-80.034145343480191" zone="Zone 6" incidentdate="2016-02-11" incidenttime="22:30:00" incidentnumber="16024544" address="1700 block Banksville Rd" type="ARREST" age="28" gender="F" description="*********************************************** &lt;br/&gt;3701, Robbery.&lt;br/&gt;"/><marker lat="40.450142897869029" lng="-79.973821656982068" zone="Zone 2" incidentdate="2016-02-11" incidenttime="17:52:00" incidentnumber="16025738" address="Bedford Ave &amp; Duff St" type="ARREST" age="32" gender="M" description="*********************************************** &lt;br/&gt;13(a)(16), Possession of Controlled Substance&lt;br/&gt;13(a)(30), Possession w/ Intent to Del. Controlled Substance&lt;br/&gt;5104, Resisting Arrest or Other Law Enforcement.&lt;br/&gt;5101, Obstructing Admin. of Law&lt;br/&gt;3323, Stop Signs and Yield Signs.&lt;br/&gt;"/><marker lat="40.45858179352976" lng="-79.992016742966769" zone="Zone 1" incidentdate="2016-02-11" incidenttime="18:10:00" incidentnumber="16025751" address="1100 block Brabec St" type="ARREST" age="28" gender="M" description="*********************************************** &lt;br/&gt;13(a)(16), Possession of Controlled Substance&lt;br/&gt;13(a)(30), Possession w/ Intent to Del. Controlled Substance&lt;br/&gt;9501, Bench Warrant&lt;br/&gt;7512, Criminal Use of Communication&lt;br/&gt;"/><marker lat="40.434696587775576" lng="-79.996300985228572" zone="Zone 2" incidentdate="2016-02-11" incidenttime="19:00:00" incidentnumber="16022599" address="600 block 1ST Ave" type="ARREST" age="27" gender="F" description="*********************************************** &lt;br/&gt;2701, Simple Assault.&lt;br/&gt;"/><marker lat="40.4843602300542" lng="-80.013634255115278" zone="Zone 1" incidentdate="2016-02-11" incidenttime="12:09:00" incidentnumber="16013973" address="200 block Venture St" type="ARREST" age="22" gender="M" description="*********************************************** &lt;br/&gt;2701, Simple Assault.&lt;br/&gt;"/><marker lat="40.434696587775576" lng="-79.996300985228572" zone="Zone 2" incidentdate="2016-02-11" incidenttime="18:00:00" incidentnumber="16021387" address="600 block 1st Ave" type="ARREST" age="22" gender="F" description="*********************************************** &lt;br/&gt;9124, Drug Investigation&lt;br/&gt;13(a)(16), Possession of Controlled Substance&lt;br/&gt;"/><marker lat="40.457396684455787" lng="-79.896297857079958" zone="Zone 5" incidentdate="2016-02-11" incidenttime="11:55:00" incidentnumber="15133771" address="Frankstown Ave &amp; N Homewood Ave" type="ARREST" age="37" gender="M" description="*********************************************** &lt;br/&gt;4952, Intimidation of Witnesses or Victims&lt;br/&gt;"/><marker lat="40.435095503606554" lng="-79.993077686753679" zone="Zone 2" incidentdate="2016-02-11" incidenttime="09:00:00" incidentnumber="14237712" address="900 block 2nd Ave" type="ARREST" age="20" gender="M" description="*********************************************** &lt;br/&gt;3502, Burglary.&lt;br/&gt;3921, Theft by Unlawful Taking or Disposition.&lt;br/&gt;903, Criminal Conspiracy.&lt;br/&gt;"/><marker lat="40.409907809469559" lng="-79.944055701424162" zone="Zone 4" incidentdate="2016-02-11" incidenttime="20:25:00" incidentnumber="15183534" address="4900 block 2nd Ave" type="ARREST" age="45" gender="M" description="*********************************************** &lt;br/&gt;4105(a)(1), Bad Checks&lt;br/&gt;"/><marker lat="40.424891638236268" lng="-79.984583341425534" zone="Zone 3" incidentdate="2016-02-11" incidenttime="21:19:00" incidentnumber="16020187" address="Pius St" type="ARREST" age="50" gender="M" description="*********************************************** &lt;br/&gt;3921, Theft by Unlawful Taking or Disposition.&lt;br/&gt;"/><marker lat="40.454410692106848" lng="-79.996707609094031" zone="Zone 1" incidentdate="2016-02-11" incidenttime="18:05:00" incidentnumber="15212159" address="800 block East Ohio St" type="ARREST" age="38" gender="M" description="*********************************************** &lt;br/&gt;13(a)(16), Possession of Controlled Substance&lt;br/&gt;9501, Bench Warrant&lt;br/&gt;3921(a), Theft by Unlawful Taking or Disposition - Movable item&lt;br/&gt;5104, Resisting Arrest or Other Law Enforcement.&lt;br/&gt;1501, Drivers Required to be Licensed.&lt;br/&gt;1543, Driving While Operating Privilege is Suspended or Revoked.&lt;br/&gt;3334, Turning Movements and Required Signals.&lt;br/&gt;3925, Receiving Stolen Property.&lt;br/&gt;3733, Fleeing or Attempting to Elude Police Officer&lt;br/&gt;3323, Stop Signs and Yield Signs.&lt;br/&gt;3301, Arson&lt;br/&gt;1372, Unauthorized Transfer or Use of Registration.&lt;br/&gt;5126, Flight to Avoid Apprehension, Trial or Punishment.&lt;br/&gt;"/><marker lat="40.457551828948766" lng="-79.973861951528761" zone="Zone 2" incidentdate="2016-02-11" incidenttime="17:25:00" incidentnumber="16025722" address="Spring Way &amp; 29th St" type="ARREST" age="39" gender="F" description="*********************************************** &lt;br/&gt;3802(a)(1), DUI - General Impairment&lt;br/&gt;3321, Vehicle Approaching or Entering Intersection.&lt;br/&gt;"/><marker lat="40.4597773" lng="-79.8738992" zone="Zone 5" incidentdate="2016-02-11" incidenttime="20:25:00" incidentnumber="16016697" address="Frankstown Ave &amp; Woods Ave" type="ARREST" age="29" gender="M" description="*********************************************** &lt;br/&gt;3742.1, Accident Involv. Death/Inj. While not Licensed&lt;br/&gt;"/><marker lat="40.399184649147095" lng="-80.025493435297477" zone="Zone 6" incidentdate="2016-02-11" incidenttime="18:46:00" incidentnumber="16025763" address="2500 block West Liberty Ave" type="ARREST" age="28" gender="F" description="*********************************************** &lt;br/&gt;13(a)(16), Possession of Controlled Substance&lt;br/&gt;1543, Driving While Operating Privilege is Suspended or Revoked.&lt;br/&gt;"/><marker lat="40.450142897869029" lng="-79.973821656982068" zone="Zone 2" incidentdate="2016-02-11" incidenttime="17:52:00" incidentnumber="16025738" address="Bedford Ave &amp; Duff St" type="ARREST" age="42" gender="M" description="*********************************************** &lt;br/&gt;13(a)(16), Possession of Controlled Substance&lt;br/&gt;13(a)(30), Possession w/ Intent to Del. Controlled Substance&lt;br/&gt;5104, Resisting Arrest or Other Law Enforcement.&lt;br/&gt;5101, Obstructing Admin. of Law&lt;br/&gt;3323, Stop Signs and Yield Signs.&lt;br/&gt;"/><marker lat="40.3993418" lng="-80.0447346" zone="Zone 6" incidentdate="2016-02-11" incidenttime="22:30:00" incidentnumber="16008644" address="3200 block Banksville Rd" type="ARREST" age="28" gender="F" description="*********************************************** &lt;br/&gt;3701, Robbery.&lt;br/&gt;"/></markers>
