<?xml version="1.0"?>
<markers><marker lat="40.468693075773288" lng="-79.961677392158549" zone="Zone 2" incidentdate="2015-07-23" incidenttime="00:01:00" incidentnumber="15136601" address="4000 block Butler St" type="OFFENSE" age="" gender="" description="*********************************************** &lt;br/&gt;2709, Harassment (Non-Specific)&lt;br/&gt;"/><marker lat="40.4350458" lng="-79.9564147" zone="Zone 4" incidentdate="2015-07-23" incidenttime="09:30:00" incidentnumber="15136217" address="3100 block Bates St" type="OFFENSE" age="" gender="" description="*********************************************** &lt;br/&gt;9999, 9999 - (Misc. Incident):&lt;br/&gt;"/><marker lat="40.436449810983582" lng="-79.968293421126532" zone="Zone 4" incidentdate="2015-07-23" incidenttime="16:10:00" incidentnumber="15136431" address="Brenham St &amp; 5th Ave" type="OFFENSE" age="" gender="" description="*********************************************** &lt;br/&gt;3934, Theft from Vehicle&lt;br/&gt;3304, Criminal Mischief.&lt;br/&gt;"/><marker lat="40.454913786969136" lng="-80.060587220950779" zone="Zone 6" incidentdate="2015-07-23" incidenttime="17:00:00" incidentnumber="15136488" address="1000 block Sutherland St" type="OFFENSE" age="" gender="" description="*********************************************** &lt;br/&gt;3304, Criminal Mischief.&lt;br/&gt;"/><marker lat="40.426751427575063" lng="-80.06024245592009" zone="Zone 6" incidentdate="2015-07-23" incidenttime="12:15:00" incidentnumber="15136295" address="2400 block Baldwick Rd" type="OFFENSE" age="" gender="" description="*********************************************** &lt;br/&gt;4106, Access Device Fraud&lt;br/&gt;"/><marker lat="40.436060531633849" lng="-79.951720827214046" zone="Zone 4" incidentdate="2015-07-23" incidenttime="09:40:00" incidentnumber="15136211" address="3600 block Parkview Ave" type="OFFENSE" age="" gender="" description="*********************************************** &lt;br/&gt;029, Missing Juvenile&lt;br/&gt;"/><marker lat="40.398364081814798" lng="-79.996178535833138" zone="Zone 3" incidentdate="2015-07-23" incidenttime="11:00:00" incidentnumber="15136280" address="1500 block Celtic St" type="OFFENSE" age="" gender="" description="*********************************************** &lt;br/&gt;3921, Theft by Unlawful Taking or Disposition.&lt;br/&gt;"/><marker lat="40.429438536176598" lng="-79.984214133354882" zone="Zone 3" incidentdate="2015-07-23" incidenttime="19:51:00" incidentnumber="15136590" address="S 14th St" type="OFFENSE" age="" gender="" description="*********************************************** &lt;br/&gt;9489, Found Property&lt;br/&gt;"/><marker lat="40.462766370932492" lng="-79.957250054964803" zone="Zone 5" incidentdate="2015-07-23" incidenttime="17:25:00" incidentnumber="15136487" address="4000 block Liberty Ave" type="OFFENSE" age="" gender="" description="*********************************************** &lt;br/&gt;3921(a), Theft by Unlawful Taking or Disposition - Movable item&lt;br/&gt;"/><marker lat="40.442808370820714" lng="-79.968054376480751" zone="Zone 2" incidentdate="2015-07-23" incidenttime="19:00:00" incidentnumber="15136564" address="2500 block Wadsworth St" type="OFFENSE" age="" gender="" description="*********************************************** &lt;br/&gt;3304, Criminal Mischief.&lt;br/&gt;3934, Theft from Vehicle&lt;br/&gt;"/><marker lat="40.432020963324831" lng="-79.997379967836821" zone="Zone 3" incidentdate="2015-07-23" incidenttime="20:36:00" incidentnumber="15136638" address="Liberty Brg" type="OFFENSE" age="" gender="" description="*********************************************** &lt;br/&gt;1786, Required Financial Responsibility.&lt;br/&gt;3743, Accidents Involving Damage to Attended Veh. or Property&lt;br/&gt;"/><marker lat="40.401560464797562" lng="-79.989376367429728" zone="Zone 3" incidentdate="2015-07-23" incidenttime="12:00:00" incidentnumber="15136277" address="1400 block Brownsville Rd" type="OFFENSE" age="" gender="" description="*********************************************** &lt;br/&gt;3921, Theft by Unlawful Taking or Disposition.&lt;br/&gt;"/><marker lat="40.414309475534907" lng="-79.990557634779719" zone="Zone 3" incidentdate="2015-07-23" incidenttime="16:50:00" incidentnumber="15136456" address="200 block Bausman St" type="OFFENSE" age="" gender="" description="*********************************************** &lt;br/&gt;9496, Dead on Arrival (DOA)&lt;br/&gt;"/><marker lat="40.458532837073371" lng="-79.925434742971191" zone="Zone 5" incidentdate="2015-07-23" incidenttime="13:00:00" incidentnumber="15136334" address="200 block N Highland Ave" type="OFFENSE" age="" gender="" description="*********************************************** &lt;br/&gt;3921, Theft by Unlawful Taking or Disposition.&lt;br/&gt;"/><marker lat="40.459638842157609" lng="-79.893001452245613" zone="Zone 5" incidentdate="2015-07-23" incidenttime="10:40:00" incidentnumber="15136247" address="7300 block Hermitage St" type="OFFENSE" age="" gender="" description="*********************************************** &lt;br/&gt;3502, Burglary.&lt;br/&gt;"/><marker lat="40.415830105146881" lng="-80.012979208323102" zone="Zone 3" incidentdate="2015-07-23" incidenttime="13:51:00" incidentnumber="15136335" address="Boggs Ave" type="OFFENSE" age="" gender="" description="*********************************************** &lt;br/&gt;2701, Simple Assault.&lt;br/&gt;2709(a), Harassment.&lt;br/&gt;5123, Contraband.&lt;br/&gt;3304, Criminal Mischief.&lt;br/&gt;"/><marker lat="40.4539862" lng="-80.0524091" zone="Zone 6" incidentdate="2015-07-23" incidenttime="15:50:00" incidentnumber="15136425" address="600 block Hillsboro St" type="OFFENSE" age="" gender="" description="*********************************************** &lt;br/&gt;2709(a), Harassment.&lt;br/&gt;"/><marker lat="40.472148068339337" lng="-79.959291663539659" zone="Zone 2" incidentdate="2015-07-23" incidenttime="16:42:00" incidentnumber="15136452" address="45th St &amp; Butler St" type="OFFENSE" age="" gender="" description="*********************************************** &lt;br/&gt;3308, One-Way Roadways and Rotary Traffic Islands.&lt;br/&gt;3743, Accidents Involving Damage to Attended Veh. or Property&lt;br/&gt;"/><marker lat="40.411743423667133" lng="-80.015599892756285" zone="Zone 6" incidentdate="2015-07-23" incidenttime="07:00:00" incidentnumber="15136354" address="200 block Platt Ave" type="OFFENSE" age="" gender="" description="*********************************************** &lt;br/&gt;3502, Burglary.&lt;br/&gt;"/><marker lat="40.455144589666361" lng="-79.879589312691138" zone="Zone 5" incidentdate="2015-07-23" incidenttime="07:45:00" incidentnumber="15136172" address="8300 block Frankstown Ave" type="OFFENSE" age="" gender="" description="*********************************************** &lt;br/&gt;3502, Burglary.&lt;br/&gt;901, Criminal Attempt&lt;br/&gt;"/><marker lat="40.416192601732035" lng="-80.025299190128038" zone="Zone 6" incidentdate="2015-07-23" incidenttime="20:12:00" incidentnumber="15136550" address="1300 block Beechview Ave" type="OFFENSE" age="" gender="" description="*********************************************** &lt;br/&gt;3304, Criminal Mischief.&lt;br/&gt;"/><marker lat="40.453068030092489" lng="-80.049343022384349" zone="Zone 6" incidentdate="2015-07-23" incidenttime="17:55:00" incidentnumber="15136481" address="2700 block Zephyr Ave" type="OFFENSE" age="" gender="" description="*********************************************** &lt;br/&gt;2706, Terroristic Threats.&lt;br/&gt;2709(a)(1), Harassment by Physical Contact, or Attempts or Threats&lt;br/&gt;"/><marker lat="40.4072771" lng="-79.9390541" zone="Zone 4" incidentdate="2015-07-23" incidenttime="19:50:00" incidentnumber="15136589" address="300 block Ashton Ave" type="OFFENSE" age="" gender="" description="*********************************************** &lt;br/&gt;3304, Criminal Mischief.&lt;br/&gt;2701, Simple Assault.&lt;br/&gt;2706, Terroristic Threats.&lt;br/&gt;"/><marker lat="40.458972156177147" lng="-80.00553337384008" zone="Zone 1" incidentdate="2015-07-23" incidenttime="15:20:00" incidentnumber="15136399" address="Fountain St &amp; Sandusky St" type="OFFENSE" age="" gender="" description="*********************************************** &lt;br/&gt;3304, Criminal Mischief.&lt;br/&gt;"/><marker lat="40.4539862" lng="-80.0524091" zone="Zone 6" incidentdate="2015-07-23" incidenttime="18:00:00" incidentnumber="15136505" address="600 block Hillsboro St" type="OFFENSE" age="" gender="" description="*********************************************** &lt;br/&gt;3304, Criminal Mischief.&lt;br/&gt;2709, Harassment (Non-Specific)&lt;br/&gt;"/><marker lat="40.455470090179453" lng="-79.897028104534954" zone="Zone 5" incidentdate="2015-07-23" incidenttime="01:00:00" incidentnumber="15136207" address="7200 block Kelly St" type="OFFENSE" age="" gender="" description="*********************************************** &lt;br/&gt;3921, Theft by Unlawful Taking or Disposition.&lt;br/&gt;"/><marker lat="40.453539170738004" lng="-80.000575279128412" zone="Zone 1" incidentdate="2015-07-23" incidenttime="03:11:00" incidentnumber="15138081" address="500 block East Ohio St" type="OFFENSE" age="" gender="" description="*********************************************** &lt;br/&gt;9489, Found Property&lt;br/&gt;"/><marker lat="40.482879021356389" lng="-80.04453300763744" zone="Zone 1" incidentdate="2015-07-23" incidenttime="01:11:00" incidentnumber="15136039" address="2000 block Termon Ave" type="OFFENSE" age="" gender="" description="*********************************************** &lt;br/&gt;9490, Missing Persons (18 and Over)&lt;br/&gt;"/><marker lat="40.42432527260366" lng="-79.981142809815296" zone="Zone 3" incidentdate="2015-07-23" incidenttime="01:18:00" incidentnumber="15136042" address="100 block Pius St" type="OFFENSE" age="" gender="" description="*********************************************** &lt;br/&gt;3304, Criminal Mischief.&lt;br/&gt;3802(a)(1), DUI - General Impairment&lt;br/&gt;1501, Drivers Required to be Licensed.&lt;br/&gt;"/><marker lat="40.466887128304442" lng="-80.025013063862957" zone="Zone 1" incidentdate="2015-07-23" incidenttime="18:18:00" incidentnumber="15136509" address="Brighton Rd &amp; Marshall Ave" type="OFFENSE" age="" gender="" description="*********************************************** &lt;br/&gt;1543, Driving While Operating Privilege is Suspended or Revoked.&lt;br/&gt;3809(a), Restriction on Alcoholic Beverages in Vehicle&lt;br/&gt;3736, Reckless Driving&lt;br/&gt;3802(a)(1), DUI - General Impairment&lt;br/&gt;"/><marker lat="40.426187266457788" lng="-79.939787460334415" zone="Zone 4" incidentdate="2015-07-23" incidenttime="15:00:00" incidentnumber="15136440" address="Winterburn Ave &amp; Greenfield Ave" type="OFFENSE" age="" gender="" description="*********************************************** &lt;br/&gt;9999, 9999 - (Misc. Incident):&lt;br/&gt;"/><marker lat="40.446856995950952" lng="-80.051173354540921" zone="Zone 6" incidentdate="2015-07-23" incidenttime="01:32:00" incidentnumber="15136053" address="800 block Woodlow St" type="OFFENSE" age="" gender="" description="*********************************************** &lt;br/&gt;2701, Simple Assault.&lt;br/&gt;"/><marker lat="40.456572332747427" lng="-80.001487255429311" zone="Zone 4" incidentdate="2015-07-23" incidenttime="09:18:00" incidentnumber="15136202" address="500 block N Neville St" type="OFFENSE" age="" gender="" description="*********************************************** &lt;br/&gt;9496, Dead on Arrival (DOA)&lt;br/&gt;"/><marker lat="40.434696587775576" lng="-79.996300985228572" zone="Zone 2" incidentdate="2015-07-23" incidenttime="13:00:00" incidentnumber="15136355" address="600 block 1st Ave" type="OFFENSE" age="" gender="" description="*********************************************** &lt;br/&gt;9501, Bench Warrant&lt;br/&gt;"/><marker lat="40.4533116" lng="-80.0016724" zone="Zone 1" incidentdate="2015-07-23" incidenttime="12:58:00" incidentnumber="15136314" address="East Ohio St &amp; Cedar Ave" type="OFFENSE" age="" gender="" description="*********************************************** &lt;br/&gt;601.08(a), Alcohol or Liquor Consumption on Streets or Sidewalks&lt;br/&gt;"/><marker lat="40.460696355453372" lng="-80.003600733228566" zone="Zone 1" incidentdate="2015-07-23" incidenttime="06:30:00" incidentnumber="15136138" address="1600 block Myler St" type="OFFENSE" age="" gender="" description="*********************************************** &lt;br/&gt;3304, Criminal Mischief.&lt;br/&gt;"/><marker lat="40.4406248" lng="-79.9958864" zone="Zone 1" incidentdate="2015-07-23" incidenttime="07:55:00" incidentnumber="15136160" address="East Ohio St &amp; 31st St Brg" type="OFFENSE" age="" gender="" description="*********************************************** &lt;br/&gt;3743, Accidents Involving Damage to Attended Veh. or Property&lt;br/&gt;"/><marker lat="40.474257123372347" lng="-80.013666594855891" zone="Zone 1" incidentdate="2015-07-23" incidenttime="06:00:00" incidentnumber="15136556" address="300 block Kennedy Ave" type="OFFENSE" age="" gender="" description="*********************************************** &lt;br/&gt;5506, Loitering and Prowling at Night&lt;br/&gt;3304, Criminal Mischief.&lt;br/&gt;"/><marker lat="40.452952663955934" lng="-79.874021402815671" zone="Zone 5" incidentdate="2015-07-23" incidenttime="14:35:00" incidentnumber="15136374" address="2100 block Park Hill Dr" type="OFFENSE" age="" gender="" description="*********************************************** &lt;br/&gt;2702, Aggravated Assault.&lt;br/&gt;"/><marker lat="40.467140525279241" lng="-79.964627417955029" zone="Zone 2" incidentdate="2015-07-23" incidenttime="15:15:00" incidentnumber="15136389" address="Mulberry Way &amp; 38th St" type="OFFENSE" age="" gender="" description="*********************************************** &lt;br/&gt;3745, Accidents Involving Damage to Unattended Veh.or Prop.&lt;br/&gt;"/><marker lat="40.455276829291662" lng="-80.047672481194809" zone="Zone 6" incidentdate="2015-07-23" incidenttime="16:40:00" incidentnumber="15136432" address="2700 block Sacramento Ave" type="OFFENSE" age="" gender="" description="*********************************************** &lt;br/&gt;105.6.31, Open burning&lt;br/&gt;"/><marker lat="40.395806366442379" lng="-79.999098500341347" zone="Zone 6" incidentdate="2015-07-23" incidenttime="09:00:00" incidentnumber="15136214" address="1800 block Whited St" type="OFFENSE" age="" gender="" description="*********************************************** &lt;br/&gt;2709, Harassment (Non-Specific)&lt;br/&gt;"/><marker lat="40.443377168012155" lng="-79.966062946167824" zone="Zone 2" incidentdate="2015-07-23" incidenttime="15:15:00" incidentnumber="15136408" address="Robinson St &amp; Wadsworth St" type="OFFENSE" age="" gender="" description="*********************************************** &lt;br/&gt;3304, Criminal Mischief.&lt;br/&gt;3934, Theft from Vehicle&lt;br/&gt;"/><marker lat="40.460623402161843" lng="-79.932766652756285" zone="Zone 5" incidentdate="2015-07-23" incidenttime="16:45:00" incidentnumber="15136471" address="300 block S Negley Ave" type="OFFENSE" age="" gender="" description="*********************************************** &lt;br/&gt;3934, Theft from Vehicle&lt;br/&gt;"/><marker lat="40.467627622543603" lng="-80.009959746698527" zone="Zone 1" incidentdate="2015-07-23" incidenttime="18:30:00" incidentnumber="15136524" address="2400 block perrysville Ave" type="OFFENSE" age="" gender="" description="*********************************************** &lt;br/&gt;3921(a), Theft by Unlawful Taking or Disposition - Movable item&lt;br/&gt;4101, Forgery.&lt;br/&gt;"/><marker lat="40.456581713944651" lng="-80.000332843470076" zone="Zone 1" incidentdate="2015-07-23" incidenttime="19:42:00" incidentnumber="15136583" address="E North Ave" type="OFFENSE" age="" gender="" description="*********************************************** &lt;br/&gt;5505, Public Drunkenness&lt;br/&gt;"/><marker lat="40.444136782158047" lng="-80.000993475333104" zone="Zone 2" incidentdate="2015-07-23" incidenttime="01:15:00" incidentnumber="15136046" address="100 block 7th St" type="OFFENSE" age="" gender="" description="*********************************************** &lt;br/&gt;2701(a)(1), Simple Assault - Intent., Know., Reckless.Cause Bod. Injury&lt;br/&gt;"/><marker lat="40.448474919203605" lng="-79.9718399245683" zone="Zone 2" incidentdate="2015-07-23" incidenttime="21:46:00" incidentnumber="15136681" address="600 block Junilla St" type="OFFENSE" age="" gender="" description="*********************************************** &lt;br/&gt;13(a)(31), Marijuana: Possession Small Amount&lt;br/&gt;4910, Tampering with or Fabricating Physical Evidence.&lt;br/&gt;13(a)(32), Paraphernalia - Use or Possession&lt;br/&gt;"/><marker lat="40.420019068985731" lng="-79.990853184377926" zone="Zone 3" incidentdate="2015-07-23" incidenttime="06:40:00" incidentnumber="15136137" address="Knox Ave" type="OFFENSE" age="" gender="" description="*********************************************** &lt;br/&gt;3304, Criminal Mischief.&lt;br/&gt;"/><marker lat="40.4523434" lng="-80.0088818" zone="Zone 1" incidentdate="2015-07-23" incidenttime="18:50:00" incidentnumber="15136649" address="700 block ARCH St" type="OFFENSE" age="" gender="" description="*********************************************** &lt;br/&gt;9489, Found Property&lt;br/&gt;"/><marker lat="40.386152206328809" lng="-79.932960964720053" zone="Zone 4" incidentdate="2015-07-23" incidenttime="07:00:00" incidentnumber="15136384" address="500 block Baldwin Rd" type="OFFENSE" age="" gender="" description="*********************************************** &lt;br/&gt;3304(a)(5), CRIMINAL MISCHIEF - Intentionally Damages Real Or Personal Property Of Another&lt;br/&gt;3921(a), Theft by Unlawful Taking or Disposition - Movable item&lt;br/&gt;"/><marker lat="40.467585274156875" lng="-80.009893156316821" zone="Zone 1" incidentdate="2015-07-23" incidenttime="18:00:00" incidentnumber="15136543" address="Perrysville Ave &amp; E Burgess St" type="OFFENSE" age="" gender="" description="*********************************************** &lt;br/&gt;3304, Criminal Mischief.&lt;br/&gt;"/><marker lat="40.4432493" lng="-79.9651489" zone="Zone 2" incidentdate="2015-07-23" incidenttime="18:30:00" incidentnumber="15136541" address="3500 block Allequippa St" type="OFFENSE" age="" gender="" description="*********************************************** &lt;br/&gt;3304(a)(5), CRIMINAL MISCHIEF - Intentionally Damages Real Or Personal Property Of Another&lt;br/&gt;3934, Theft from Vehicle&lt;br/&gt;"/><marker lat="40.432628623020925" lng="-79.913447658198976" zone="Zone 4" incidentdate="2015-07-23" incidenttime="10:00:00" incidentnumber="15136262" address="100 block Phillips Pl" type="OFFENSE" age="" gender="" description="*********************************************** &lt;br/&gt;3934, Theft from Vehicle&lt;br/&gt;"/><marker lat="40.446856995950952" lng="-80.051173354540921" zone="Zone 6" incidentdate="2015-07-23" incidenttime="00:23:00" incidentnumber="15136016" address="800 block Woodlow St" type="OFFENSE" age="" gender="" description="*********************************************** &lt;br/&gt;9490, Missing Persons (18 and Over)&lt;br/&gt;"/><marker lat="40.428276333917673" lng="-79.97636113605644" zone="Zone 3" incidentdate="2015-07-23" incidenttime="05:00:00" incidentnumber="15136105" address="100 block S 21st St" type="OFFENSE" age="" gender="" description="*********************************************** &lt;br/&gt;9999, 9999 - (Misc. Incident):&lt;br/&gt;"/><marker lat="40.393167838197392" lng="-79.986585064520185" zone="Zone 3" incidentdate="2015-07-23" incidenttime="13:03:00" incidentnumber="15136319" address="2100 block Brownsville Rd" type="OFFENSE" age="" gender="" description="*********************************************** &lt;br/&gt;9999, 9999 - (Misc. Incident):&lt;br/&gt;"/><marker lat="40.449715639024333" lng="-80.018247612075271" zone="Zone 1" incidentdate="2015-07-23" incidenttime="14:35:00" incidentnumber="15136369" address="700 block Allegheny Ave" type="OFFENSE" age="" gender="" description="*********************************************** &lt;br/&gt;13(a)(30)*, Delivery of Controlled Substance&lt;br/&gt;13(a)(16), Possession of Controlled Substance&lt;br/&gt;7512, Criminal Use of Communication&lt;br/&gt;13(a)(30), Possession w/ Intent to Del. Controlled Substance&lt;br/&gt;"/><marker lat="40.414320028410003" lng="-80.030314687369781" zone="Zone 6" incidentdate="2015-07-23" incidenttime="01:29:00" incidentnumber="15136052" address="1400 block Banksville Rd" type="OFFENSE" age="" gender="" description="*********************************************** &lt;br/&gt;9488, False  Burglar Alarm&lt;br/&gt;"/><marker lat="40.475970803438344" lng="-80.003076972725822" zone="Zone 1" incidentdate="2015-07-23" incidenttime="02:48:00" incidentnumber="15136073" address="100 block Hazlett St" type="OFFENSE" age="" gender="" description="*********************************************** &lt;br/&gt;9501, Bench Warrant&lt;br/&gt;"/><marker lat="40.4642764" lng="-79.9802776" zone="Zone 1" incidentdate="2015-07-23" incidenttime="05:31:00" incidentnumber="15136118" address="200 block East Ohio St" type="OFFENSE" age="" gender="" description="*********************************************** &lt;br/&gt;3304, Criminal Mischief.&lt;br/&gt;"/><marker lat="40.444062481160877" lng="-79.918063359612859" zone="Zone 4" incidentdate="2015-07-23" incidenttime="00:18:00" incidentnumber="15136014" address="1400 block Beechwood Blvd" type="OFFENSE" age="" gender="" description="*********************************************** &lt;br/&gt;9496, Dead on Arrival (DOA)&lt;br/&gt;"/><marker lat="40.4742888063031" lng="-79.957763556353001" zone="Zone 2" incidentdate="2015-07-23" incidenttime="13:30:00" incidentnumber="15136381" address="Butler St &amp; Umpire Way" type="OFFENSE" age="" gender="" description="*********************************************** &lt;br/&gt;2709(a)(1), Harassment by Physical Contact, or Attempts or Threats&lt;br/&gt;"/><marker lat="40.391579872568094" lng="-80.015378713407102" zone="Zone 6" incidentdate="2015-07-23" incidenttime="00:23:00" incidentnumber="15136089" address="1100 block Brookline Blvd" type="OFFENSE" age="" gender="" description="*********************************************** &lt;br/&gt;3921, Theft by Unlawful Taking or Disposition.&lt;br/&gt;"/><marker lat="40.457746324808426" lng="-79.995403647447674" zone="Zone 1" incidentdate="2015-07-23" incidenttime="16:30:00" incidentnumber="15136575" address="Spring Garden Ave &amp; Chestnut St" type="OFFENSE" age="" gender="" description="*********************************************** &lt;br/&gt;3743, Accidents Involving Damage to Attended Veh. or Property&lt;br/&gt;"/><marker lat="40.442305410823543" lng="-79.938407711452911" zone="Zone 4" incidentdate="2015-07-23" incidenttime="18:05:00" incidentnumber="15136518" address="Roselawn Ter &amp; Margaret Morrison St" type="OFFENSE" age="" gender="" description="*********************************************** &lt;br/&gt;3743, Accidents Involving Damage to Attended Veh. or Property&lt;br/&gt;"/><marker lat="40.479829245655225" lng="-80.001901444196207" zone="Zone 1" incidentdate="2015-07-23" incidenttime="18:30:00" incidentnumber="15136578" address="400 block Mt Pleasant Rd" type="OFFENSE" age="" gender="" description="*********************************************** &lt;br/&gt;3921, Theft by Unlawful Taking or Disposition.&lt;br/&gt;"/><marker lat="40.428985020183561" lng="-79.924237004106203" zone="Zone 4" incidentdate="2015-07-23" incidenttime="00:30:00" incidentnumber="15136047" address="2700 block Murray Ave" type="OFFENSE" age="" gender="" description="*********************************************** &lt;br/&gt;9504, Lost Property&lt;br/&gt;"/><marker lat="40.46847788789708" lng="-79.921661728488743" zone="Zone 5" incidentdate="2015-07-23" incidenttime="16:00:00" incidentnumber="15136530" address="700 block N Highland Ave" type="OFFENSE" age="" gender="" description="*********************************************** &lt;br/&gt;3921, Theft by Unlawful Taking or Disposition.&lt;br/&gt;"/><marker lat="40.456074371118916" lng="-80.056352185035564" zone="Zone 6" incidentdate="2015-07-23" incidenttime="17:18:00" incidentnumber="15123423" address="3100 block Ashlyn St" type="OFFENSE" age="" gender="" description="*********************************************** &lt;br/&gt;2702, Aggravated Assault.&lt;br/&gt;2902, Unlawful Restraint.&lt;br/&gt;3701, Robbery.&lt;br/&gt;903, Criminal Conspiracy.&lt;br/&gt;2705, Recklessly Endangering Another Person.&lt;br/&gt;"/><marker lat="40.456304780128008" lng="-80.004625944576162" zone="Zone 1" incidentdate="2015-07-23" incidenttime="19:00:00" incidentnumber="15136561" address="1200 block sandusky St N" type="OFFENSE" age="" gender="" description="*********************************************** &lt;br/&gt;2709(a)(1), Harassment by Physical Contact, or Attempts or Threats&lt;br/&gt;"/><marker lat="40.43584366632922" lng="-80.033959942268069" zone="Zone 6" incidentdate="2015-07-23" incidenttime="00:20:00" incidentnumber="15136017" address="400 block Greentree Rd" type="OFFENSE" age="" gender="" description="*********************************************** &lt;br/&gt;3743, Accidents Involving Damage to Attended Veh. or Property&lt;br/&gt;"/><marker lat="40.412030234321499" lng="-80.020364495718169" zone="Zone 6" incidentdate="2015-07-23" incidenttime="07:00:00" incidentnumber="15136441" address="1500 block Rockland Ave" type="OFFENSE" age="" gender="" description="*********************************************** &lt;br/&gt;3745, Accidents Involving Damage to Unattended Veh.or Prop.&lt;br/&gt;"/><marker lat="40.460278372771441" lng="-80.023223266830939" zone="Zone 1" incidentdate="2015-07-23" incidenttime="13:08:00" incidentnumber="15136321" address="1100 block Morrison St" type="OFFENSE" age="" gender="" description="*********************************************** &lt;br/&gt;029, Missing Juvenile&lt;br/&gt;"/><marker lat="40.445102554754776" lng="-79.983074145377273" zone="Zone 2" incidentdate="2015-07-23" incidenttime="07:20:00" incidentnumber="15136147" address="1900 block Webster Ave" type="OFFENSE" age="" gender="" description="*********************************************** &lt;br/&gt;9999, 9999 - (Misc. Incident):&lt;br/&gt;"/><marker lat="40.417345136139645" lng="-79.988193247990409" zone="Zone 3" incidentdate="2015-07-23" incidenttime="09:15:00" incidentnumber="15136205" address="100 block Jucunda St" type="OFFENSE" age="" gender="" description="*********************************************** &lt;br/&gt;3503, Criminal Trespass&lt;br/&gt;"/><marker lat="40.474969270673661" lng="-79.927819600643218" zone="Zone 5" incidentdate="2015-07-23" incidenttime="15:10:00" incidentnumber="15136396" address="1000 block King Ave" type="OFFENSE" age="" gender="" description="*********************************************** &lt;br/&gt;3502, Burglary.&lt;br/&gt;"/><marker lat="40.421531877189601" lng="-79.993577564166102" zone="Zone 3" incidentdate="2015-07-23" incidenttime="16:01:00" incidentnumber="15136409" address="800 block E Warrington Ave" type="OFFENSE" age="" gender="" description="*********************************************** &lt;br/&gt;2701, Simple Assault.&lt;br/&gt;"/><marker lat="40.460302578526942" lng="-80.006980071080037" zone="Zone 1" incidentdate="2015-07-23" incidenttime="13:27:00" incidentnumber="15136351" address="1700 block Belleau Dr" type="OFFENSE" age="" gender="" description="*********************************************** &lt;br/&gt;2701, Simple Assault.&lt;br/&gt;2709(a)(1), Harassment by Physical Contact, or Attempts or Threats&lt;br/&gt;"/><marker lat="40.462427061866322" lng="-79.92435329167472" zone="Zone 5" incidentdate="2015-07-23" incidenttime="16:55:00" incidentnumber="15136467" address="6000 block Broad St" type="OFFENSE" age="" gender="" description="*********************************************** &lt;br/&gt;2702, Aggravated Assault.&lt;br/&gt;"/><marker lat="40.430266135946901" lng="-80.000653663493566" zone="Zone 2" incidentdate="2015-07-23" incidenttime="07:30:00" incidentnumber="15136504" address="E Sycamore St" type="OFFENSE" age="" gender="" description="*********************************************** &lt;br/&gt;3745, Accidents Involving Damage to Unattended Veh.or Prop.&lt;br/&gt;"/><marker lat="40.482879021356389" lng="-80.04453300763744" zone="Zone 1" incidentdate="2015-07-23" incidenttime="23:07:00" incidentnumber="15136719" address="2000 block Termon Ave" type="OFFENSE" age="" gender="" description="*********************************************** &lt;br/&gt;029, Missing Juvenile&lt;br/&gt;"/><marker lat="40.454679602149504" lng="-80.022882152106121" zone="Zone 1" incidentdate="2015-07-23" incidenttime="15:10:00" incidentnumber="15136383" address="Fontella St &amp; Pennsylvania Ave" type="OFFENSE" age="" gender="" description="*********************************************** &lt;br/&gt;3921, Theft by Unlawful Taking or Disposition.&lt;br/&gt;"/><marker lat="40.453881093138619" lng="-79.873029877694393" zone="Zone 5" incidentdate="2015-07-23" incidenttime="09:29:00" incidentnumber="15136209" address="2200 block East Hills Dr" type="OFFENSE" age="" gender="" description="*********************************************** &lt;br/&gt;9999, 9999 - (Misc. Incident):&lt;br/&gt;"/><marker lat="40.434696587775576" lng="-79.996300985228572" zone="Zone 2" incidentdate="2015-07-23" incidenttime="13:00:00" incidentnumber="15136355" address="600 block 1st Ave" type="ARREST" age="38" gender="M" description="*********************************************** &lt;br/&gt;9501, Bench Warrant&lt;br/&gt;"/><marker lat="40.444136782158047" lng="-80.000993475333104" zone="Zone 2" incidentdate="2015-07-23" incidenttime="01:30:00" incidentnumber="15136046" address="100 block 7th St" type="ARREST" age="21" gender="F" description="*********************************************** &lt;br/&gt;2701(a)(1), Simple Assault - Intent., Know., Reckless.Cause Bod. Injury&lt;br/&gt;"/><marker lat="40.419607469652064" lng="-79.927151382845352" zone="Zone 4" incidentdate="2015-07-23" incidenttime="20:25:00" incidentnumber="15126923" address="Beechwood Blvd &amp; Hazelwood Ave" type="ARREST" age="33" gender="M" description="*********************************************** &lt;br/&gt;1543, Driving While Operating Privilege is Suspended or Revoked.&lt;br/&gt;3714, Careless Driving&lt;br/&gt;3743, Accidents Involving Damage to Attended Veh. or Property&lt;br/&gt;"/><marker lat="40.47045804777099" lng="-80.027278420865969" zone="Zone 1" incidentdate="2015-07-23" incidenttime="12:30:00" incidentnumber="15123167" address="2800 block Stayton St" type="ARREST" age="13" gender="M" description="*********************************************** &lt;br/&gt;3502, Burglary.&lt;br/&gt;903, Criminal Conspiracy.&lt;br/&gt;"/><marker lat="40.415830105146881" lng="-80.012979208323102" zone="Zone 3" incidentdate="2015-07-23" incidenttime="13:51:00" incidentnumber="15136335" address="Boggs Ave" type="ARREST" age="52" gender="F" description="*********************************************** &lt;br/&gt;2701, Simple Assault.&lt;br/&gt;2709(a), Harassment.&lt;br/&gt;5123, Contraband.&lt;br/&gt;3304, Criminal Mischief.&lt;br/&gt;"/><marker lat="40.474259937428243" lng="-80.010532705998429" zone="Zone 1" incidentdate="2015-07-23" incidenttime="19:30:00" incidentnumber="15135032" address="200 block Kennedy Ave" type="ARREST" age="39" gender="M" description="*********************************************** &lt;br/&gt;13(a)(32), Paraphernalia - Use or Possession&lt;br/&gt;4304(a)(1), Endangering Welfare of Children - Course of Conduct Enhanced&lt;br/&gt;"/><marker lat="40.409907809469559" lng="-79.944055701424162" zone="Zone 4" incidentdate="2015-07-23" incidenttime="14:35:00" incidentnumber="15125125" address="4900 block 2nd Ave" type="ARREST" age="23" gender="M" description="*********************************************** &lt;br/&gt;3922, Theft by Deception.&lt;br/&gt;4101, Forgery.&lt;br/&gt;4105(a)(1), Bad Checks&lt;br/&gt;"/><marker lat="40.428478873788158" lng="-79.980265799395895" zone="Zone 3" incidentdate="2015-07-23" incidenttime="11:00:00" incidentnumber="15113386" address="1800 block E Carson St" type="ARREST" age="41" gender="F" description="*********************************************** &lt;br/&gt;4105(a)(1), Bad Checks&lt;br/&gt;3922, Theft by Deception.&lt;br/&gt;"/><marker lat="40.449715639024333" lng="-80.018247612075271" zone="Zone 1" incidentdate="2015-07-23" incidenttime="14:35:00" incidentnumber="15136369" address="700 block Allegheny Ave" type="ARREST" age="32" gender="F" description="*********************************************** &lt;br/&gt;13(a)(30)*, Delivery of Controlled Substance&lt;br/&gt;13(a)(16), Possession of Controlled Substance&lt;br/&gt;7512, Criminal Use of Communication&lt;br/&gt;13(a)(30), Possession w/ Intent to Del. Controlled Substance&lt;br/&gt;"/><marker lat="40.421531877189601" lng="-79.993577564166102" zone="Zone 3" incidentdate="2015-07-23" incidenttime="00:45:00" incidentnumber="15098216" address="800 block E Warrington Ave" type="ARREST" age="26" gender="F" description="*********************************************** &lt;br/&gt;13(a)(16), Possession of Controlled Substance&lt;br/&gt;9124, Drug Investigation&lt;br/&gt;13(a)(30), Possession w/ Intent to Del. Controlled Substance&lt;br/&gt;7512, Criminal Use of Communication&lt;br/&gt;903, Criminal Conspiracy.&lt;br/&gt;"/><marker lat="40.456074371118916" lng="-80.056352185035564" zone="Zone 6" incidentdate="2015-07-23" incidenttime="17:18:00" incidentnumber="15123423" address="3100 block Ashlyn St" type="ARREST" age="33" gender="F" description="*********************************************** &lt;br/&gt;2702, Aggravated Assault.&lt;br/&gt;2902, Unlawful Restraint.&lt;br/&gt;3701, Robbery.&lt;br/&gt;903, Criminal Conspiracy.&lt;br/&gt;2705, Recklessly Endangering Another Person.&lt;br/&gt;"/><marker lat="40.42432527260366" lng="-79.981142809815296" zone="Zone 3" incidentdate="2015-07-23" incidenttime="01:20:00" incidentnumber="15136042" address="100 block Pius St" type="ARREST" age="41" gender="M" description="*********************************************** &lt;br/&gt;3304, Criminal Mischief.&lt;br/&gt;3802(a)(1), DUI - General Impairment&lt;br/&gt;1501, Drivers Required to be Licensed.&lt;br/&gt;"/><marker lat="40.466501848383245" lng="-80.013362041992835" zone="Zone 1" incidentdate="2015-07-23" incidenttime="15:39:00" incidentnumber="15111620" address="300 block W Burgess St" type="ARREST" age="44" gender="M" description="*********************************************** &lt;br/&gt;2702, Aggravated Assault.&lt;br/&gt;3701, Robbery.&lt;br/&gt;2701, Simple Assault.&lt;br/&gt;2705, Recklessly Endangering Another Person.&lt;br/&gt;"/><marker lat="40.456686952050369" lng="-80.000071164913123" zone="Zone 1" incidentdate="2015-07-23" incidenttime="16:10:00" incidentnumber="15134970" address="E North Ave &amp; Middle St" type="ARREST" age="33" gender="M" description="*********************************************** &lt;br/&gt;3743, Accidents Involving Damage to Attended Veh. or Property&lt;br/&gt;"/><marker lat="40.47045804777099" lng="-80.027278420865969" zone="Zone 1" incidentdate="2015-07-23" incidenttime="12:30:00" incidentnumber="15123167" address="2800 block Stayton St" type="ARREST" age="" gender="M" description="*********************************************** &lt;br/&gt;3502, Burglary.&lt;br/&gt;903, Criminal Conspiracy.&lt;br/&gt;"/><marker lat="40.434696587775576" lng="-79.996300985228572" zone="Zone 2" incidentdate="2015-07-23" incidenttime="15:20:00" incidentnumber="15131563" address="600 block First Ave" type="ARREST" age="27" gender="M" description="*********************************************** &lt;br/&gt;3304, Criminal Mischief.&lt;br/&gt;4914, False Identification to Law Enforcement Authorities&lt;br/&gt;"/><marker lat="40.456074371118916" lng="-80.056352185035564" zone="Zone 6" incidentdate="2015-07-23" incidenttime="17:18:00" incidentnumber="15123423" address="3100 block Ashlyn St" type="ARREST" age="29" gender="M" description="*********************************************** &lt;br/&gt;2702, Aggravated Assault.&lt;br/&gt;2902, Unlawful Restraint.&lt;br/&gt;3701, Robbery.&lt;br/&gt;903, Criminal Conspiracy.&lt;br/&gt;2705, Recklessly Endangering Another Person.&lt;br/&gt;"/><marker lat="40.475970803438344" lng="-80.003076972725822" zone="Zone 1" incidentdate="2015-07-23" incidenttime="02:58:00" incidentnumber="15136073" address="100 block Hazlett St" type="ARREST" age="25" gender="M" description="*********************************************** &lt;br/&gt;9501, Bench Warrant&lt;br/&gt;"/><marker lat="40.448474919203605" lng="-79.9718399245683" zone="Zone 2" incidentdate="2015-07-23" incidenttime="21:46:00" incidentnumber="15136681" address="600 block Junilla St" type="ARREST" age="24" gender="M" description="*********************************************** &lt;br/&gt;13(a)(31), Marijuana: Possession Small Amount&lt;br/&gt;4910, Tampering with or Fabricating Physical Evidence.&lt;br/&gt;13(a)(32), Paraphernalia - Use or Possession&lt;br/&gt;"/><marker lat="40.45502247083629" lng="-80.055619564864116" zone="Zone 6" incidentdate="2015-07-23" incidenttime="01:20:00" incidentnumber="15135851" address="Sherwood Ave &amp; Ashlyn St" type="ARREST" age="26" gender="F" description="*********************************************** &lt;br/&gt;2702, Aggravated Assault.&lt;br/&gt;"/><marker lat="40.466887128304442" lng="-80.025013063862957" zone="Zone 1" incidentdate="2015-07-23" incidenttime="18:40:00" incidentnumber="15136509" address="Brighton Rd &amp; Marshall Ave" type="ARREST" age="40" gender="F" description="*********************************************** &lt;br/&gt;1543, Driving While Operating Privilege is Suspended or Revoked.&lt;br/&gt;3809(a), Restriction on Alcoholic Beverages in Vehicle&lt;br/&gt;3736, Reckless Driving&lt;br/&gt;3802(a)(1), DUI - General Impairment&lt;br/&gt;"/><marker lat="40.46200880678763" lng="-79.95391294228159" zone="Zone 5" incidentdate="2015-07-23" incidenttime="04:00:00" incidentnumber="15133679" address="400 block Dargan St" type="ARREST" age="23" gender="M" description="*********************************************** &lt;br/&gt;3304, Criminal Mischief.&lt;br/&gt;903, Criminal Conspiracy.&lt;br/&gt;"/><marker lat="40.447792126681051" lng="-79.937291810906075" zone="Zone 4" incidentdate="2015-07-23" incidenttime="03:00:00" incidentnumber="15058105" address="5th Ave &amp; Wilkins Ave" type="ARREST" age="30" gender="F" description="*********************************************** &lt;br/&gt;1543, Driving While Operating Privilege is Suspended or Revoked.&lt;br/&gt;3742, Accidents Involving Death or Personal Injury&lt;br/&gt;3322, Vehicle Turning Left.&lt;br/&gt;1786, Required Financial Responsibility.&lt;br/&gt;"/></markers>
