<?xml version="1.0"?>
<markers><marker lat="40.484908452673871" lng="-79.934268580499193" zone="Zone 5" incidentdate="2015-07-09" incidenttime="14:00:00" incidentnumber="15126072" address="1500 block Hawthorne St" type="OFFENSE" age="" gender="" description="*********************************************** &lt;br/&gt;3921, Theft by Unlawful Taking or Disposition.&lt;br/&gt;"/><marker lat="40.399798282486785" lng="-79.98914686757854" zone="Zone 3" incidentdate="2015-07-09" incidenttime="01:30:00" incidentnumber="15125693" address="600 block Brownsville Rd" type="OFFENSE" age="" gender="" description="*********************************************** &lt;br/&gt;3743, Accidents Involving Damage to Attended Veh. or Property&lt;br/&gt;3802(a)(1), DUI - General Impairment&lt;br/&gt;3802(c), DUI - Highest Rate of Alcohol - BAC &gt;= .16%&lt;br/&gt;"/><marker lat="40.4550203" lng="-80.0558082" zone="Zone 6" incidentdate="2015-07-09" incidenttime="13:38:00" incidentnumber="15125986" address="700 block Sherwood Ave" type="OFFENSE" age="" gender="" description="*********************************************** &lt;br/&gt;13(a)(31), Marijuana: Possession Small Amount&lt;br/&gt;13(a)(32), Paraphernalia - Use or Possession&lt;br/&gt;"/><marker lat="40.470459852290823" lng="-80.0111378348073" zone="Zone 1" incidentdate="2015-07-09" incidenttime="08:40:00" incidentnumber="15125856" address="2900 block N. Charles St" type="OFFENSE" age="" gender="" description="*********************************************** &lt;br/&gt;3502, Burglary.&lt;br/&gt;"/><marker lat="40.443979182258303" lng="-79.915168631844438" zone="Zone 4" incidentdate="2015-07-09" incidenttime="05:30:00" incidentnumber="15125879" address="6600 block Woodwell St" type="OFFENSE" age="" gender="" description="*********************************************** &lt;br/&gt;3934, Theft from Vehicle&lt;br/&gt;"/><marker lat="40.393515742313681" lng="-80.020021227154487" zone="Zone 6" incidentdate="2015-07-09" incidenttime="15:30:00" incidentnumber="15126058" address="800 block Brookline Blvd" type="OFFENSE" age="" gender="" description="*********************************************** &lt;br/&gt;3304, Criminal Mischief.&lt;br/&gt;"/><marker lat="40.4523434" lng="-80.0088818" zone="Zone 1" incidentdate="2015-07-09" incidenttime="00:25:00" incidentnumber="15125671" address="700 block Arch St" type="OFFENSE" age="" gender="" description="*********************************************** &lt;br/&gt;9488, False  Burglar Alarm&lt;br/&gt;611.04, Repeated False Alarms&lt;br/&gt;"/><marker lat="40.466361564628137" lng="-80.025784730614262" zone="Zone 1" incidentdate="2015-07-09" incidenttime="06:00:00" incidentnumber="15125775" address="1100 block New Hampshire Dr" type="OFFENSE" age="" gender="" description="*********************************************** &lt;br/&gt;3921, Theft by Unlawful Taking or Disposition.&lt;br/&gt;"/><marker lat="40.476107338964091" lng="-80.012789061571709" zone="Zone 1" incidentdate="2015-07-09" incidenttime="11:00:00" incidentnumber="15125851" address="3000 block Oak Park Rd" type="OFFENSE" age="" gender="" description="*********************************************** &lt;br/&gt;3304, Criminal Mischief.&lt;br/&gt;"/><marker lat="40.4480359" lng="-79.9079590" zone="Zone 4" incidentdate="2015-07-09" incidenttime="16:00:00" incidentnumber="15126068" address="6600 block Reynolds St" type="OFFENSE" age="" gender="" description="*********************************************** &lt;br/&gt;9999, 9999 - (Misc. Incident):&lt;br/&gt;"/><marker lat="40.44607162104321" lng="-79.904200595251737" zone="Zone 4" incidentdate="2015-07-09" incidenttime="16:30:00" incidentnumber="15126026" address="400 block N Homewood Ave" type="OFFENSE" age="" gender="" description="*********************************************** &lt;br/&gt;9497, Aided Case&lt;br/&gt;9498, 302 (Mental)&lt;br/&gt;"/><marker lat="40.456581713944651" lng="-80.000332843470076" zone="Zone 1" incidentdate="2015-07-09" incidenttime="11:05:00" incidentnumber="15125890" address="E North Ave" type="OFFENSE" age="" gender="" description="*********************************************** &lt;br/&gt;2709, Harassment (Non-Specific)&lt;br/&gt;"/><marker lat="40.4050524" lng="-79.9368702" zone="Zone 4" incidentdate="2015-07-09" incidenttime="14:10:00" incidentnumber="15126001" address="Bergwin Field" type="OFFENSE" age="" gender="" description="*********************************************** &lt;br/&gt;2702, Aggravated Assault.&lt;br/&gt;"/><marker lat="40.468220485665128" lng="-79.957368939527754" zone="Zone 2" incidentdate="2015-07-09" incidenttime="16:00:00" incidentnumber="15126089" address="42nd St &amp; Government Way" type="OFFENSE" age="" gender="" description="*********************************************** &lt;br/&gt;3921(a), Theft by Unlawful Taking or Disposition - Movable item&lt;br/&gt;"/><marker lat="40.453214380492888" lng="-79.999008894833395" zone="Zone 1" incidentdate="2015-07-09" incidenttime="12:00:00" incidentnumber="15125947" address="600 block Avery St" type="OFFENSE" age="" gender="" description="*********************************************** &lt;br/&gt;3934, Theft from Vehicle&lt;br/&gt;"/><marker lat="40.440954972189189" lng="-79.956215323465358" zone="Zone 4" incidentdate="2015-07-09" incidenttime="19:00:00" incidentnumber="15126243" address="Oakland Ave &amp; Sennott St" type="OFFENSE" age="" gender="" description="*********************************************** &lt;br/&gt;3304, Criminal Mischief.&lt;br/&gt;"/><marker lat="40.477228637716912" lng="-80.013656688475578" zone="Zone 1" incidentdate="2015-07-09" incidenttime="04:35:00" incidentnumber="15125758" address="Norwood Ave &amp; Mt Allister Rd" type="OFFENSE" age="" gender="" description="*********************************************** &lt;br/&gt;3304, Criminal Mischief.&lt;br/&gt;"/><marker lat="40.417889310412598" lng="-79.993424880864467" zone="Zone 3" incidentdate="2015-07-09" incidenttime="22:35:00" incidentnumber="15126300" address="300 block Orchard Pl" type="OFFENSE" age="" gender="" description="*********************************************** &lt;br/&gt;2706, Terroristic Threats.&lt;br/&gt;"/><marker lat="40.419609213008243" lng="-79.972382318806652" zone="Zone 3" incidentdate="2015-07-09" incidenttime="06:00:00" incidentnumber="15125777" address="2400 block Berg St" type="OFFENSE" age="" gender="" description="*********************************************** &lt;br/&gt;903, Criminal Conspiracy.&lt;br/&gt;13(a)(30), Possession w/ Intent to Del. Controlled Substance&lt;br/&gt;13(a)(31)(i), Marijuana - Possess Small Amt for Personal Use&lt;br/&gt;13(a)(32), Paraphernalia - Use or Possession&lt;br/&gt;"/><marker lat="40.419755416785335" lng="-80.002263610370221" zone="Zone 3" incidentdate="2015-07-09" incidenttime="08:15:00" incidentnumber="15125802" address="300 block Climax St" type="OFFENSE" age="" gender="" description="*********************************************** &lt;br/&gt;1501, Drivers Required to be Licensed.&lt;br/&gt;3743, Accidents Involving Damage to Attended Veh. or Property&lt;br/&gt;3921(a), Theft by Unlawful Taking or Disposition - Movable item&lt;br/&gt;"/><marker lat="40.459431038763775" lng="-79.886892905158163" zone="Zone 5" incidentdate="2015-07-09" incidenttime="11:54:00" incidentnumber="15125931" address="1200 block Nolan Ct" type="OFFENSE" age="" gender="" description="*********************************************** &lt;br/&gt;2709(a), Harassment.&lt;br/&gt;2701, Simple Assault.&lt;br/&gt;"/><marker lat="40.469222816226129" lng="-80.030265846271092" zone="Zone 1" incidentdate="2015-07-09" incidenttime="08:48:00" incidentnumber="15125818" address="1300 block Woodland Ave" type="OFFENSE" age="" gender="" description="*********************************************** &lt;br/&gt;9999, 9999 - (Misc. Incident):&lt;br/&gt;"/><marker lat="40.471774763172014" lng="-80.03743610964851" zone="Zone 1" incidentdate="2015-07-09" incidenttime="18:20:00" incidentnumber="15126165" address="Mc Clure Ave &amp; Eckert St" type="OFFENSE" age="" gender="" description="*********************************************** &lt;br/&gt;1543, Driving While Operating Privilege is Suspended or Revoked.&lt;br/&gt;3714, Careless Driving&lt;br/&gt;5507, Obstructing Highways and Passages.&lt;br/&gt;4914, False Identification to Law Enforcement Authorities&lt;br/&gt;"/><marker lat="40.449709503118903" lng="-79.986072992839951" zone="Zone 2" incidentdate="2015-07-09" incidenttime="15:00:00" incidentnumber="15126045" address="Penn Ave &amp; 17th St" type="OFFENSE" age="" gender="" description="*********************************************** &lt;br/&gt;3745, Accidents Involving Damage to Unattended Veh.or Prop.&lt;br/&gt;"/><marker lat="40.467765210673555" lng="-79.934311888042416" zone="Zone 5" incidentdate="2015-07-09" incidenttime="22:45:00" incidentnumber="15126289" address="400 block N Aiken Ave" type="OFFENSE" age="" gender="" description="*********************************************** &lt;br/&gt;2702, Aggravated Assault.&lt;br/&gt;13(a)(16), Possession of Controlled Substance&lt;br/&gt;5104, Resisting Arrest or Other Law Enforcement.&lt;br/&gt;3502, Burglary.&lt;br/&gt;13(a)(30), Possession w/ Intent to Del. Controlled Substance&lt;br/&gt;"/><marker lat="40.47625033390969" lng="-80.012180861418926" zone="Zone 1" incidentdate="2015-07-09" incidenttime="21:00:00" incidentnumber="15126260" address="3000 block Perrysville Ave" type="OFFENSE" age="" gender="" description="*********************************************** &lt;br/&gt;3304, Criminal Mischief.&lt;br/&gt;"/><marker lat="40.457700651820147" lng="-80.070542829616485" zone="Zone 6" incidentdate="2015-07-09" incidenttime="08:00:00" incidentnumber="15126055" address="1400 block Orator St" type="OFFENSE" age="" gender="" description="*********************************************** &lt;br/&gt;3304, Criminal Mischief.&lt;br/&gt;"/><marker lat="40.465855745524813" lng="-79.988386391212202" zone="Zone 1" incidentdate="2015-07-09" incidenttime="11:30:00" incidentnumber="15125948" address="1900 block Bader St" type="OFFENSE" age="" gender="" description="*********************************************** &lt;br/&gt;3921, Theft by Unlawful Taking or Disposition.&lt;br/&gt;"/><marker lat="40.387334894928699" lng="-79.99242391316929" zone="Zone 3" incidentdate="2015-07-09" incidenttime="16:00:00" incidentnumber="15126144" address="2300 block Lucina Ave" type="OFFENSE" age="" gender="" description="*********************************************** &lt;br/&gt;3304, Criminal Mischief.&lt;br/&gt;"/><marker lat="40.46865923819162" lng="-79.922754705917129" zone="Zone 5" incidentdate="2015-07-09" incidenttime="16:15:00" incidentnumber="15126148" address="700 block N Beatty St" type="OFFENSE" age="" gender="" description="*********************************************** &lt;br/&gt;3502, Burglary.&lt;br/&gt;"/><marker lat="40.476792918012528" lng="-79.999444064892103" zone="Zone 1" incidentdate="2015-07-09" incidenttime="13:40:00" incidentnumber="15126211" address="600 block mt pleasant Rd" type="OFFENSE" age="" gender="" description="*********************************************** &lt;br/&gt;2701(b)(1), Simple Assault - Fight or Scuffle Entered by Mutual Consent&lt;br/&gt;"/><marker lat="40.464382757275381" lng="-79.976947117516161" zone="Zone 1" incidentdate="2015-07-09" incidenttime="19:51:00" incidentnumber="15126214" address="800 block Waterfront Dr" type="OFFENSE" age="" gender="" description="*********************************************** &lt;br/&gt;9488, False  Burglar Alarm&lt;br/&gt;"/><marker lat="40.451003452968095" lng="-80.005189077519901" zone="Zone 1" incidentdate="2015-07-09" incidenttime="09:39:00" incidentnumber="15125883" address="100 block South Commons" type="OFFENSE" age="" gender="" description="*********************************************** &lt;br/&gt;9093, Indirect Criminal Contempt&lt;br/&gt;"/><marker lat="40.434696587775576" lng="-79.996300985228572" zone="Zone 2" incidentdate="2015-07-09" incidenttime="10:05:00" incidentnumber="15125865" address="600 block 1st Ave" type="OFFENSE" age="" gender="" description="*********************************************** &lt;br/&gt;3924, Theft of Property Lost, Mislaid or Delivered by Mistake.&lt;br/&gt;"/><marker lat="40.463944552788249" lng="-79.982653498433706" zone="Zone 1" incidentdate="2015-07-09" incidenttime="16:00:00" incidentnumber="15126064" address="1700 block Lowrie St" type="OFFENSE" age="" gender="" description="*********************************************** &lt;br/&gt;13(a)(16), Possession of Controlled Substance&lt;br/&gt;4910, Tampering with or Fabricating Physical Evidence.&lt;br/&gt;13(a)(30), Possession w/ Intent to Del. Controlled Substance&lt;br/&gt;"/><marker lat="40.430946637068146" lng="-80.05719062357268" zone="Zone 6" incidentdate="2015-07-09" incidenttime="17:11:00" incidentnumber="15126117" address="1800 block Brett St" type="OFFENSE" age="" gender="" description="*********************************************** &lt;br/&gt;9497, Aided Case&lt;br/&gt;"/><marker lat="40.452321902122407" lng="-80.046517504856524" zone="Zone 6" incidentdate="2015-07-09" incidenttime="08:49:00" incidentnumber="15125819" address="2600 block Glen Mawr St" type="OFFENSE" age="" gender="" description="*********************************************** &lt;br/&gt;029, Missing Juvenile&lt;br/&gt;"/><marker lat="40.425465950130466" lng="-80.004495099725489" zone="Zone 3" incidentdate="2015-07-09" incidenttime="20:24:00" incidentnumber="15126249" address="Cushman St" type="OFFENSE" age="" gender="" description="*********************************************** &lt;br/&gt;13(a)(32), Paraphernalia - Use or Possession&lt;br/&gt;"/><marker lat="40.452952663955934" lng="-79.874021402815671" zone="Zone 5" incidentdate="2015-07-09" incidenttime="02:15:00" incidentnumber="15125715" address="2100 block Park Hill Dr" type="OFFENSE" age="" gender="" description="*********************************************** &lt;br/&gt;3304(a)(5), CRIMINAL MISCHIEF - Intentionally Damages Real Or Personal Property Of Another&lt;br/&gt;"/><marker lat="40.463684521405213" lng="-80.05606954409491" zone="Zone 6" incidentdate="2015-07-09" incidenttime="01:00:00" incidentnumber="15125684" address="300 block Stanhope St" type="OFFENSE" age="" gender="" description="*********************************************** &lt;br/&gt;9999, 9999 - (Misc. Incident):&lt;br/&gt;"/><marker lat="40.45235120150376" lng="-79.960240045529005" zone="Zone 2" incidentdate="2015-07-09" incidenttime="01:35:00" incidentnumber="15125700" address="800 block Bryn Mawr Rd" type="OFFENSE" age="" gender="" description="*********************************************** &lt;br/&gt;9015, Failure To Appear/Arrest on Attachment Order&lt;br/&gt;"/><marker lat="40.453832996905142" lng="-79.998490888440458" zone="Zone 1" incidentdate="2015-07-09" incidenttime="14:20:00" incidentnumber="15126029" address="100 block East Ohio St" type="OFFENSE" age="" gender="" description="*********************************************** &lt;br/&gt;2701, Simple Assault.&lt;br/&gt;"/><marker lat="40.468497634696611" lng="-79.941878881562516" zone="Zone 5" incidentdate="2015-07-09" incidenttime="16:00:00" incidentnumber="15126132" address="5100 block Hillcrest St" type="OFFENSE" age="" gender="" description="*********************************************** &lt;br/&gt;029, Missing Juvenile&lt;br/&gt;"/><marker lat="40.447305035049212" lng="-79.973087427401282" zone="Zone 2" incidentdate="2015-07-09" incidenttime="16:30:00" incidentnumber="15126186" address="2400 block Wylie Ave" type="OFFENSE" age="" gender="" description="*********************************************** &lt;br/&gt;9501, Bench Warrant&lt;br/&gt;"/><marker lat="40.475970803438344" lng="-80.003076972725822" zone="Zone 1" incidentdate="2015-07-09" incidenttime="10:20:00" incidentnumber="15125938" address="100 block Hazlett St" type="OFFENSE" age="" gender="" description="*********************************************** &lt;br/&gt;3502, Burglary.&lt;br/&gt;"/><marker lat="40.428990235576741" lng="-79.99836059977649" zone="Zone 3" incidentdate="2015-07-09" incidenttime="13:31:00" incidentnumber="15125946" address="Arlington Ave &amp; P J Mc Ardle Rdwy" type="OFFENSE" age="" gender="" description="*********************************************** &lt;br/&gt;9501, Bench Warrant&lt;br/&gt;"/><marker lat="40.475564655826638" lng="-80.013606446515041" zone="Zone 1" incidentdate="2015-07-09" incidenttime="08:00:00" incidentnumber="15125791" address="2900 block Oak Park Rd" type="OFFENSE" age="" gender="" description="*********************************************** &lt;br/&gt;3304, Criminal Mischief.&lt;br/&gt;"/><marker lat="40.40076988324757" lng="-79.939119606264953" zone="Zone 4" incidentdate="2015-07-09" incidenttime="09:15:00" incidentnumber="15126119" address="5600 block 2nd Ave" type="OFFENSE" age="" gender="" description="*********************************************** &lt;br/&gt;3921(a), Theft by Unlawful Taking or Disposition - Movable item&lt;br/&gt;"/><marker lat="40.371860681926734" lng="-79.912496857238764" zone="Zone 4" incidentdate="2015-07-09" incidenttime="16:00:00" incidentnumber="15126135" address="5100 block Interboro Ave" type="OFFENSE" age="" gender="" description="*********************************************** &lt;br/&gt;3921(a), Theft by Unlawful Taking or Disposition - Movable item&lt;br/&gt;"/><marker lat="40.434348049519336" lng="-80.006335021862654" zone="Zone 3" incidentdate="2015-07-09" incidenttime="16:45:00" incidentnumber="15126138" address="300 block Station Square Dr W" type="OFFENSE" age="" gender="" description="*********************************************** &lt;br/&gt;3743, Accidents Involving Damage to Attended Veh. or Property&lt;br/&gt;"/><marker lat="40.458833853713074" lng="-80.021325393398527" zone="Zone 1" incidentdate="2015-07-09" incidenttime="12:35:00" incidentnumber="15125971" address="California Ave &amp; St Marks Pl" type="OFFENSE" age="" gender="" description="*********************************************** &lt;br/&gt;9489, Found Property&lt;br/&gt;"/><marker lat="40.469846019604212" lng="-80.013742872941449" zone="Zone 1" incidentdate="2015-07-09" incidenttime="08:30:00" incidentnumber="15125810" address="2800 block N Charles St" type="OFFENSE" age="" gender="" description="*********************************************** &lt;br/&gt;9999, 9999 - (Misc. Incident):&lt;br/&gt;"/><marker lat="40.440264464999863" lng="-79.957440502627435" zone="Zone 4" incidentdate="2015-07-09" incidenttime="13:00:00" incidentnumber="15126105" address="3600 block Forbes Ave" type="OFFENSE" age="" gender="" description="*********************************************** &lt;br/&gt;9504, Lost Property&lt;br/&gt;"/><marker lat="40.421545693486237" lng="-80.024682613402248" zone="Zone 6" incidentdate="2015-07-09" incidenttime="19:59:00" incidentnumber="15126218" address="Tropical Ave &amp; Hollyford Pl" type="OFFENSE" age="" gender="" description="*********************************************** &lt;br/&gt;13(a)(16), Possession of Controlled Substance&lt;br/&gt;4101, Forgery.&lt;br/&gt;13(a)(30), Possession w/ Intent to Del. Controlled Substance&lt;br/&gt;13(a)(30)*, Delivery of Controlled Substance&lt;br/&gt;5123, Contraband.&lt;br/&gt;"/><marker lat="40.446346164512178" lng="-79.994318011299683" zone="Zone 2" incidentdate="2015-07-09" incidenttime="07:42:00" incidentnumber="15125797" address="11th St" type="OFFENSE" age="" gender="" description="*********************************************** &lt;br/&gt;3503.B1I, DEF. TRESPASS ACTUAL COMMUNICATION&lt;br/&gt;"/><marker lat="40.398505638311875" lng="-79.988028936702165" zone="Zone 3" incidentdate="2015-07-09" incidenttime="15:00:00" incidentnumber="15126043" address="100 block W Cherryhill St" type="OFFENSE" age="" gender="" description="*********************************************** &lt;br/&gt;3304, Criminal Mischief.&lt;br/&gt;"/><marker lat="40.451003452968095" lng="-80.005189077519901" zone="Zone 1" incidentdate="2015-07-09" incidenttime="09:39:00" incidentnumber="15125838" address="100 block South Commons" type="OFFENSE" age="" gender="" description="*********************************************** &lt;br/&gt;2701, Simple Assault.&lt;br/&gt;"/><marker lat="40.468749029734006" lng="-79.89604709950828" zone="Zone 5" incidentdate="2015-07-09" incidenttime="12:50:00" incidentnumber="15125966" address="Lincoln Ave &amp; Lemington Ave" type="OFFENSE" age="" gender="" description="*********************************************** &lt;br/&gt;3928, Unauthorized Use of Automobile and Other Vehicles.&lt;br/&gt;"/><marker lat="40.466403724290423" lng="-79.942485078602758" zone="Zone 5" incidentdate="2015-07-09" incidenttime="09:30:00" incidentnumber="15125873" address="5100 block Broad St" type="OFFENSE" age="" gender="" description="*********************************************** &lt;br/&gt;3304, Criminal Mischief.&lt;br/&gt;"/><marker lat="40.439534165811146" lng="-79.99836772444668" zone="Zone 2" incidentdate="2015-07-09" incidenttime="10:54:00" incidentnumber="15125893" address="400 block 5th Ave" type="OFFENSE" age="" gender="" description="*********************************************** &lt;br/&gt;3929, Retail Theft.&lt;br/&gt;"/><marker lat="40.417627041456356" lng="-80.009889438915522" zone="Zone 3" incidentdate="2015-07-09" incidenttime="16:29:00" incidentnumber="15126090" address="Climax St" type="OFFENSE" age="" gender="" description="*********************************************** &lt;br/&gt;4910, Tampering with or Fabricating Physical Evidence.&lt;br/&gt;13(a)(16), Possession of Controlled Substance&lt;br/&gt;13(a)(30), Possession w/ Intent to Del. Controlled Substance&lt;br/&gt;6110.2, Possesion of Firearm with Altered Mfg. Number&lt;br/&gt;3503, Criminal Trespass&lt;br/&gt;3925, Receiving Stolen Property.&lt;br/&gt;"/><marker lat="40.420631630996397" lng="-79.982595761695364" zone="Zone 3" incidentdate="2015-07-09" incidenttime="19:04:00" incidentnumber="15126189" address="2400 block Gable St" type="OFFENSE" age="" gender="" description="*********************************************** &lt;br/&gt;3304(a)(5), CRIMINAL MISCHIEF - Intentionally Damages Real Or Personal Property Of Another&lt;br/&gt;"/><marker lat="40.430020824945359" lng="-79.976813326700821" zone="Zone 3" incidentdate="2015-07-09" incidenttime="23:35:00" incidentnumber="15126316" address="2000 block Wharton St" type="OFFENSE" age="" gender="" description="*********************************************** &lt;br/&gt;029, Missing Juvenile&lt;br/&gt;"/><marker lat="40.459580251289381" lng="-79.991295926440714" zone="Zone 1" incidentdate="2015-07-09" incidenttime="13:37:00" incidentnumber="15125987" address="1200 block Voskamp St" type="OFFENSE" age="" gender="" description="*********************************************** &lt;br/&gt;2709, Harassment (Non-Specific)&lt;br/&gt;"/><marker lat="40.394957985423687" lng="-79.986864420495252" zone="Zone 3" incidentdate="2015-07-09" incidenttime="02:48:00" incidentnumber="15125714" address="2000 block Brownsville Rd" type="OFFENSE" age="" gender="" description="*********************************************** &lt;br/&gt;1543, Driving While Operating Privilege is Suspended or Revoked.&lt;br/&gt;3802(b), DUI - High Rate of Alchol - BAC &gt;=.10% &lt;.16%&lt;br/&gt;3802(a)(1), DUI - General Impairment&lt;br/&gt;3304, Criminal Mischief.&lt;br/&gt;"/><marker lat="40.438764488312714" lng="-79.993352503282367" zone="Zone 2" incidentdate="2015-07-09" incidenttime="15:40:00" incidentnumber="15126044" address="700 block 5th Ave" type="OFFENSE" age="" gender="" description="*********************************************** &lt;br/&gt;9497, Aided Case&lt;br/&gt;5505, Public Drunkenness&lt;br/&gt;"/><marker lat="40.439071097484913" lng="-80.028434352354793" zone="Zone 3" incidentdate="2015-07-09" incidenttime="15:59:00" incidentnumber="15126061" address="1800 block Greenleaf St" type="OFFENSE" age="" gender="" description="*********************************************** &lt;br/&gt;3922, Theft by Deception.&lt;br/&gt;4101, Forgery.&lt;br/&gt;903, Criminal Conspiracy.&lt;br/&gt;"/><marker lat="40.4210608" lng="-79.9000431" zone="Zone 4" incidentdate="2015-07-09" incidenttime="16:57:00" incidentnumber="15126110" address="200 block Satyr Way" type="OFFENSE" age="" gender="" description="*********************************************** &lt;br/&gt;13(a)(16), Possession of Controlled Substance&lt;br/&gt;13(a)(30), Possession w/ Intent to Del. Controlled Substance&lt;br/&gt;7512, Criminal Use of Communication&lt;br/&gt;4914, False Identification to Law Enforcement Authorities&lt;br/&gt;9501, Bench Warrant&lt;br/&gt;5123, Contraband.&lt;br/&gt;"/><marker lat="40.451630119397493" lng="-79.982783961109106" zone="Zone 2" incidentdate="2015-07-09" incidenttime="02:30:00" incidentnumber="15125853" address="2100 block Penn Ave" type="OFFENSE" age="" gender="" description="*********************************************** &lt;br/&gt;3921, Theft by Unlawful Taking or Disposition.&lt;br/&gt;"/><marker lat="40.425371808712953" lng="-79.94216631853314" zone="Zone 4" incidentdate="2015-07-09" incidenttime="11:35:00" incidentnumber="15125922" address="500 block Greenfield Ave" type="OFFENSE" age="" gender="" description="*********************************************** &lt;br/&gt;9504, Lost Property&lt;br/&gt;"/><marker lat="40.457500201213662" lng="-80.05119906622879" zone="Zone 6" incidentdate="2015-07-09" incidenttime="18:45:00" incidentnumber="15126170" address="Stafford St &amp; Minton St" type="OFFENSE" age="" gender="" description="*********************************************** &lt;br/&gt;3701, Robbery.&lt;br/&gt;"/><marker lat="40.417757711260535" lng="-79.941394347908002" zone="Zone 4" incidentdate="2015-07-09" incidenttime="13:30:00" incidentnumber="15126017" address="4500 block Parade St" type="OFFENSE" age="" gender="" description="*********************************************** &lt;br/&gt;3934, Theft from Vehicle&lt;br/&gt;"/><marker lat="40.454805394016809" lng="-79.89936146663365" zone="Zone 5" incidentdate="2015-07-09" incidenttime="05:55:00" incidentnumber="15125771" address="7100 block Hamilton Ave" type="OFFENSE" age="" gender="" description="*********************************************** &lt;br/&gt;9123, Miscellaneous Fire Other Investigation to Continue&lt;br/&gt;"/><marker lat="40.488834962976625" lng="-80.01416060055206" zone="Zone 1" incidentdate="2015-07-09" incidenttime="08:05:00" incidentnumber="15125799" address="3700 block Baytree St" type="OFFENSE" age="" gender="" description="*********************************************** &lt;br/&gt;9488, False  Burglar Alarm&lt;br/&gt;"/><marker lat="40.460268383400177" lng="-79.991521549865112" zone="Zone 1" incidentdate="2015-07-09" incidenttime="14:25:00" incidentnumber="15126023" address="1200 block Spring Garden Ave" type="OFFENSE" age="" gender="" description="*********************************************** &lt;br/&gt;3304, Criminal Mischief.&lt;br/&gt;"/><marker lat="40.450643107602708" lng="-80.013459947155624" zone="Zone 1" incidentdate="2015-07-09" incidenttime="07:30:00" incidentnumber="15125795" address="800 block Ridge Ave" type="OFFENSE" age="" gender="" description="*********************************************** &lt;br/&gt;9490, Missing Persons (18 and Over)&lt;br/&gt;"/><marker lat="40.459220430259037" lng="-79.910881573554278" zone="Zone 5" incidentdate="2015-07-09" incidenttime="09:35:00" incidentnumber="15125840" address="6600 block Frankstown Ave" type="OFFENSE" age="" gender="" description="*********************************************** &lt;br/&gt;9999, 9999 - (Misc. Incident):&lt;br/&gt;"/><marker lat="40.443712988547588" lng="-79.998407127865718" zone="Zone 3" incidentdate="2015-07-09" incidenttime="15:00:00" incidentnumber="15126040" address="200 block S 9th St" type="OFFENSE" age="" gender="" description="*********************************************** &lt;br/&gt;9490, Missing Persons (18 and Over)&lt;br/&gt;"/><marker lat="40.453360717234645" lng="-80.003927241484959" zone="Zone 1" incidentdate="2015-07-09" incidenttime="15:15:00" incidentnumber="15126035" address="allegheny Sq E" type="OFFENSE" age="" gender="" description="*********************************************** &lt;br/&gt;3921(a), Theft by Unlawful Taking or Disposition - Movable item&lt;br/&gt;"/><marker lat="40.472345294594255" lng="-79.889120311509416" zone="Zone 5" incidentdate="2015-07-09" incidenttime="15:22:00" incidentnumber="15126032" address="7200 block Verona Blvd" type="OFFENSE" age="" gender="" description="*********************************************** &lt;br/&gt;9497, Aided Case&lt;br/&gt;"/><marker lat="40.426666138172813" lng="-79.966892407610601" zone="Zone 3" incidentdate="2015-07-09" incidenttime="11:45:00" incidentnumber="15125937" address="2700 block E Carson St" type="OFFENSE" age="" gender="" description="*********************************************** &lt;br/&gt;3929, Retail Theft.&lt;br/&gt;"/><marker lat="40.4642764" lng="-79.9802776" zone="Zone 1" incidentdate="2015-07-09" incidenttime="01:30:00" incidentnumber="15125721" address="200 block East Ohio St" type="OFFENSE" age="" gender="" description="*********************************************** &lt;br/&gt;2902, Unlawful Restraint.&lt;br/&gt;2701, Simple Assault.&lt;br/&gt;"/><marker lat="40.47255775872658" lng="-80.036468546929001" zone="Zone 1" incidentdate="2015-07-09" incidenttime="22:30:00" incidentnumber="15126306" address="3100 block Mc Clure Ave" type="OFFENSE" age="" gender="" description="*********************************************** &lt;br/&gt;13(a)(31), Marijuana: Possession Small Amount&lt;br/&gt;13(a)(16), Possession of Controlled Substance&lt;br/&gt;1543, Driving While Operating Privilege is Suspended or Revoked.&lt;br/&gt;13(a)(30), Possession w/ Intent to Del. Controlled Substance&lt;br/&gt;3354, Additional Parking Regulations.&lt;br/&gt;13(a)(32), Paraphernalia - Use or Possession&lt;br/&gt;3301, Arson&lt;br/&gt;"/><marker lat="40.450892721440539" lng="-80.000843891836467" zone="Zone 1" incidentdate="2015-07-09" incidenttime="04:15:00" incidentnumber="15125749" address="300 block Cedar Ave" type="OFFENSE" age="" gender="" description="*********************************************** &lt;br/&gt;3929(a)(3), Retail Theft; transfers merchandise from container&lt;br/&gt;"/><marker lat="40.475991792684219" lng="-79.998237934488159" zone="Zone 1" incidentdate="2015-07-09" incidenttime="13:30:00" incidentnumber="15125999" address="700 block Mt Pleasant Rd" type="OFFENSE" age="" gender="" description="*********************************************** &lt;br/&gt;2701, Simple Assault.&lt;br/&gt;"/><marker lat="40.418379717437553" lng="-79.975956393829009" zone="Zone 3" incidentdate="2015-07-09" incidenttime="07:00:00" incidentnumber="15125748" address="1500 block Fernleaf St" type="OFFENSE" age="" gender="" description="*********************************************** &lt;br/&gt;3921, Theft by Unlawful Taking or Disposition.&lt;br/&gt;"/><marker lat="40.436710339874303" lng="-79.923175759491755" zone="Zone 4" incidentdate="2015-07-09" incidenttime="13:34:00" incidentnumber="15125984" address="1800 block Murray Ave" type="OFFENSE" age="" gender="" description="*********************************************** &lt;br/&gt;13(a)(31), Marijuana: Possession Small Amount&lt;br/&gt;4910, Tampering with or Fabricating Physical Evidence.&lt;br/&gt;13(a)(16), Possession of Controlled Substance&lt;br/&gt;13(a)(32), Paraphernalia - Use or Possession&lt;br/&gt;9501, Bench Warrant&lt;br/&gt;4914(A), False Identification to Law Enforcement&lt;br/&gt;5104, Resisting Arrest or Other Law Enforcement.&lt;br/&gt;"/><marker lat="40.470143524632661" lng="-80.028426326254063" zone="Zone 1" incidentdate="2015-07-09" incidenttime="11:42:00" incidentnumber="15125916" address="2800 block Wadlow St" type="OFFENSE" age="" gender="" description="*********************************************** &lt;br/&gt;9488, False  Burglar Alarm&lt;br/&gt;"/><marker lat="40.399784011292638" lng="-79.98647982998807" zone="Zone 3" incidentdate="2015-07-09" incidenttime="18:32:00" incidentnumber="15126173" address="Leolyn Park" type="OFFENSE" age="" gender="" description="*********************************************** &lt;br/&gt;5503(a)(1), DISORDERLY CONDUCT - ENGAGE IN FIGHTING&lt;br/&gt;"/><marker lat="40.418244507623783" lng="-80.025200951649097" zone="Zone 6" incidentdate="2015-07-09" incidenttime="19:59:00" incidentnumber="15126204" address="Tropical Ave &amp; Risby Ave" type="OFFENSE" age="" gender="" description="*********************************************** &lt;br/&gt;13(a)(16), Possession of Controlled Substance&lt;br/&gt;4523, Exhaust Systems, Mufflers and Noise Control.&lt;br/&gt;13(a)(32), Paraphernalia - Use or Possession&lt;br/&gt;3323, Stop Signs and Yield Signs.&lt;br/&gt;"/><marker lat="40.438169441142144" lng="-79.996063267425882" zone="Zone 2" incidentdate="2015-07-09" incidenttime="14:30:00" incidentnumber="15126076" address="500 block FORBES Ave" type="OFFENSE" age="" gender="" description="*********************************************** &lt;br/&gt;3745, Accidents Involving Damage to Unattended Veh.or Prop.&lt;br/&gt;"/><marker lat="40.420802057856356" lng="-79.986283411817084" zone="Zone 3" incidentdate="2015-07-09" incidenttime="00:47:00" incidentnumber="15125712" address="200 block Wachter St" type="OFFENSE" age="" gender="" description="*********************************************** &lt;br/&gt;3921(a), Theft by Unlawful Taking or Disposition - Movable item&lt;br/&gt;4106, Access Device Fraud&lt;br/&gt;"/><marker lat="40.47255775872658" lng="-80.036468546929001" zone="Zone 1" incidentdate="2015-07-09" incidenttime="22:30:00" incidentnumber="15126306" address="3100 block Mc Clure Ave" type="ARREST" age="32" gender="M" description="*********************************************** &lt;br/&gt;13(a)(31), Marijuana: Possession Small Amount&lt;br/&gt;13(a)(16), Possession of Controlled Substance&lt;br/&gt;1543, Driving While Operating Privilege is Suspended or Revoked.&lt;br/&gt;13(a)(30), Possession w/ Intent to Del. Controlled Substance&lt;br/&gt;3354, Additional Parking Regulations.&lt;br/&gt;13(a)(32), Paraphernalia - Use or Possession&lt;br/&gt;3301, Arson&lt;br/&gt;"/><marker lat="40.475991792684219" lng="-79.998237934488159" zone="Zone 1" incidentdate="2015-07-09" incidenttime="13:30:00" incidentnumber="15125999" address="700 block Mt Pleasant Rd" type="ARREST" age="11" gender="F" description="*********************************************** &lt;br/&gt;2701, Simple Assault.&lt;br/&gt;"/><marker lat="40.434696587775576" lng="-79.996300985228572" zone="Zone 2" incidentdate="2015-07-09" incidenttime="13:11:00" incidentnumber="15105216" address="600 block 1st Ave" type="ARREST" age="29" gender="M" description="*********************************************** &lt;br/&gt;3929, Retail Theft.&lt;br/&gt;3929(a)(1), Retail Theft; takes possession of, carries away, or transfers displayed merchandise&lt;br/&gt;"/><marker lat="40.435095503606554" lng="-79.993077686753679" zone="Zone 2" incidentdate="2015-07-09" incidenttime="11:20:00" incidentnumber="15112829" address="900 block 2ND Ave" type="ARREST" age="18" gender="M" description="*********************************************** &lt;br/&gt;2706, Terroristic Threats.&lt;br/&gt;"/><marker lat="40.475243138053401" lng="-80.027385031391674" zone="Zone 1" incidentdate="2015-07-09" incidenttime="07:15:00" incidentnumber="15123682" address="3200 block Central Ave" type="ARREST" age="22" gender="M" description="*********************************************** &lt;br/&gt;3921, Theft by Unlawful Taking or Disposition.&lt;br/&gt;"/><marker lat="40.45235120150376" lng="-79.960240045529005" zone="Zone 2" incidentdate="2015-07-09" incidenttime="02:00:00" incidentnumber="15125700" address="800 block Bryn Mawr Rd" type="ARREST" age="43" gender="M" description="*********************************************** &lt;br/&gt;9015, Failure To Appear/Arrest on Attachment Order&lt;br/&gt;"/><marker lat="40.465157804159951" lng="-79.922171643415098" zone="Zone 5" incidentdate="2015-07-09" incidenttime="09:30:00" incidentnumber="15112229" address="400 block N Highland Ave" type="ARREST" age="29" gender="M" description="*********************************************** &lt;br/&gt;3929, Retail Theft.&lt;br/&gt;3922, Theft by Deception.&lt;br/&gt;"/><marker lat="40.419609213008243" lng="-79.972382318806652" zone="Zone 3" incidentdate="2015-07-09" incidenttime="06:00:00" incidentnumber="15125777" address="2400 block Berg St" type="ARREST" age="28" gender="F" description="*********************************************** &lt;br/&gt;903, Criminal Conspiracy.&lt;br/&gt;13(a)(30), Possession w/ Intent to Del. Controlled Substance&lt;br/&gt;13(a)(31)(i), Marijuana - Possess Small Amt for Personal Use&lt;br/&gt;13(a)(32), Paraphernalia - Use or Possession&lt;br/&gt;"/><marker lat="40.435095503606554" lng="-79.993077686753679" zone="Zone 2" incidentdate="2015-07-09" incidenttime="08:00:00" incidentnumber="15117112" address="900 block 2ND Ave" type="ARREST" age="22" gender="F" description="*********************************************** &lt;br/&gt;2702, Aggravated Assault.&lt;br/&gt;3701, Robbery.&lt;br/&gt;3502, Burglary.&lt;br/&gt;903, Criminal Conspiracy.&lt;br/&gt;"/><marker lat="40.441406159731216" lng="-80.002873255548053" zone="Zone 2" incidentdate="2015-07-09" incidenttime="03:35:00" incidentnumber="15124961" address="100 block 5th Ave" type="ARREST" age="44" gender="F" description="*********************************************** &lt;br/&gt;4105(a)(1), Bad Checks&lt;br/&gt;"/><marker lat="40.435095503606554" lng="-79.993077686753679" zone="Zone 2" incidentdate="2015-07-09" incidenttime="11:40:00" incidentnumber="15097636" address="900 block 2ND Ave" type="ARREST" age="39" gender="M" description="*********************************************** &lt;br/&gt;2701(a)(1), Simple Assault - Intent., Know., Reckless.Cause Bod. Injury&lt;br/&gt;"/><marker lat="40.467765210673555" lng="-79.934311888042416" zone="Zone 5" incidentdate="2015-07-09" incidenttime="22:14:00" incidentnumber="15126289" address="400 block N Aiken Ave" type="ARREST" age="34" gender="M" description="*********************************************** &lt;br/&gt;2702, Aggravated Assault.&lt;br/&gt;13(a)(16), Possession of Controlled Substance&lt;br/&gt;5104, Resisting Arrest or Other Law Enforcement.&lt;br/&gt;3502, Burglary.&lt;br/&gt;13(a)(30), Possession w/ Intent to Del. Controlled Substance&lt;br/&gt;"/><marker lat="40.471774763172014" lng="-80.03743610964851" zone="Zone 1" incidentdate="2015-07-09" incidenttime="18:20:00" incidentnumber="15126165" address="Mc Clure Ave &amp; Eckert St" type="ARREST" age="23" gender="F" description="*********************************************** &lt;br/&gt;1543, Driving While Operating Privilege is Suspended or Revoked.&lt;br/&gt;3714, Careless Driving&lt;br/&gt;5507, Obstructing Highways and Passages.&lt;br/&gt;4914, False Identification to Law Enforcement Authorities&lt;br/&gt;"/><marker lat="40.463944552788249" lng="-79.982653498433706" zone="Zone 1" incidentdate="2015-07-09" incidenttime="16:05:00" incidentnumber="15126064" address="1700 block Lowrie St" type="ARREST" age="32" gender="M" description="*********************************************** &lt;br/&gt;13(a)(16), Possession of Controlled Substance&lt;br/&gt;4910, Tampering with or Fabricating Physical Evidence.&lt;br/&gt;13(a)(30), Possession w/ Intent to Del. Controlled Substance&lt;br/&gt;"/><marker lat="40.419609213008243" lng="-79.972382318806652" zone="Zone 3" incidentdate="2015-07-09" incidenttime="06:00:00" incidentnumber="15125777" address="2400 block Berg St" type="ARREST" age="30" gender="M" description="*********************************************** &lt;br/&gt;903, Criminal Conspiracy.&lt;br/&gt;13(a)(30), Possession w/ Intent to Del. Controlled Substance&lt;br/&gt;13(a)(31)(i), Marijuana - Possess Small Amt for Personal Use&lt;br/&gt;13(a)(32), Paraphernalia - Use or Possession&lt;br/&gt;"/><marker lat="40.435095503606554" lng="-79.993077686753679" zone="Zone 2" incidentdate="2015-07-09" incidenttime="11:30:00" incidentnumber="15102223" address="900 block 2ND Ave" type="ARREST" age="18" gender="M" description="*********************************************** &lt;br/&gt;2702, Aggravated Assault.&lt;br/&gt;3701, Robbery.&lt;br/&gt;903, Criminal Conspiracy.&lt;br/&gt;901, Criminal Attempt&lt;br/&gt;2705, Recklessly Endangering Another Person.&lt;br/&gt;3502, Burglary.&lt;br/&gt;"/><marker lat="40.447305035049212" lng="-79.973087427401282" zone="Zone 2" incidentdate="2015-07-09" incidenttime="16:30:00" incidentnumber="15126186" address="2400 block Wylie Ave" type="ARREST" age="48" gender="M" description="*********************************************** &lt;br/&gt;9501, Bench Warrant&lt;br/&gt;"/><marker lat="40.4550203" lng="-80.0558082" zone="Zone 6" incidentdate="2015-07-09" incidenttime="13:38:00" incidentnumber="15125986" address="700 block Sherwood Ave" type="ARREST" age="52" gender="F" description="*********************************************** &lt;br/&gt;13(a)(31), Marijuana: Possession Small Amount&lt;br/&gt;13(a)(32), Paraphernalia - Use or Possession&lt;br/&gt;"/><marker lat="40.456969199290526" lng="-79.898818806307872" zone="Zone 5" incidentdate="2015-07-09" incidenttime="11:00:00" incidentnumber="15022468" address="800 block Collins Ave" type="ARREST" age="24" gender="F" description="*********************************************** &lt;br/&gt;3503(b)(1)(ii), Defiant Trespass Notice Posted by Sign(s)&lt;br/&gt;3304(a)(5), CRIMINAL MISCHIEF - Intentionally Damages Real Or Personal Property Of Another&lt;br/&gt;3503(b.1), Criminal Trespass - Simple Trespasser&lt;br/&gt;2701(a)(1), Simple Assault - Intent., Know., Reckless.Cause Bod. Injury&lt;br/&gt;"/><marker lat="40.421545693486237" lng="-80.024682613402248" zone="Zone 6" incidentdate="2015-07-09" incidenttime="19:59:00" incidentnumber="15126218" address="Tropical Ave &amp; Hollyford Pl" type="ARREST" age="38" gender="M" description="*********************************************** &lt;br/&gt;13(a)(16), Possession of Controlled Substance&lt;br/&gt;4101, Forgery.&lt;br/&gt;13(a)(30), Possession w/ Intent to Del. Controlled Substance&lt;br/&gt;13(a)(30)*, Delivery of Controlled Substance&lt;br/&gt;5123, Contraband.&lt;br/&gt;"/><marker lat="40.47255775872658" lng="-80.036468546929001" zone="Zone 1" incidentdate="2015-07-09" incidenttime="22:30:00" incidentnumber="15126306" address="3100 block Mc Clure Ave" type="ARREST" age="26" gender="M" description="*********************************************** &lt;br/&gt;13(a)(31), Marijuana: Possession Small Amount&lt;br/&gt;13(a)(16), Possession of Controlled Substance&lt;br/&gt;1543, Driving While Operating Privilege is Suspended or Revoked.&lt;br/&gt;13(a)(30), Possession w/ Intent to Del. Controlled Substance&lt;br/&gt;3354, Additional Parking Regulations.&lt;br/&gt;13(a)(32), Paraphernalia - Use or Possession&lt;br/&gt;3301, Arson&lt;br/&gt;"/><marker lat="40.4550203" lng="-80.0558082" zone="Zone 6" incidentdate="2015-07-09" incidenttime="13:38:00" incidentnumber="15125986" address="700 block Sherwood Ave" type="ARREST" age="27" gender="M" description="*********************************************** &lt;br/&gt;13(a)(31), Marijuana: Possession Small Amount&lt;br/&gt;13(a)(32), Paraphernalia - Use or Possession&lt;br/&gt;"/><marker lat="40.447502334719239" lng="-80.051783949854453" zone="Zone 6" incidentdate="2015-07-09" incidenttime="08:00:00" incidentnumber="12165695" address="1600 block Crucible St" type="ARREST" age="32" gender="F" description="*********************************************** &lt;br/&gt;2702, Aggravated Assault.&lt;br/&gt;"/><marker lat="40.399798282486785" lng="-79.98914686757854" zone="Zone 3" incidentdate="2015-07-09" incidenttime="01:30:00" incidentnumber="15125693" address="600 block Brownsville Rd" type="ARREST" age="38" gender="F" description="*********************************************** &lt;br/&gt;3743, Accidents Involving Damage to Attended Veh. or Property&lt;br/&gt;3802(a)(1), DUI - General Impairment&lt;br/&gt;3802(c), DUI - Highest Rate of Alcohol - BAC &gt;= .16%&lt;br/&gt;"/><marker lat="40.441406159731216" lng="-80.002873255548053" zone="Zone 2" incidentdate="2015-07-09" incidenttime="09:40:00" incidentnumber="15106182" address="100 block 5th Ave" type="ARREST" age="32" gender="M" description="*********************************************** &lt;br/&gt;2701(a)(1), Simple Assault - Intent., Know., Reckless.Cause Bod. Injury&lt;br/&gt;"/><marker lat="40.420699231172108" lng="-79.969085767788584" zone="Zone 3" incidentdate="2015-07-09" incidenttime="00:24:00" incidentnumber="15099481" address="2800 block Burham St" type="ARREST" age="52" gender="M" description="*********************************************** &lt;br/&gt;517.8, Home Improvement Fraud&lt;br/&gt;"/><marker lat="40.483270355988473" lng="-80.043063625648642" zone="Zone 1" incidentdate="2015-07-09" incidenttime="11:00:00" incidentnumber="15074585" address="1900 block Morrell St" type="ARREST" age="26" gender="M" description="*********************************************** &lt;br/&gt;3925, Receiving Stolen Property.&lt;br/&gt;"/><marker lat="40.418244507623783" lng="-80.025200951649097" zone="Zone 6" incidentdate="2015-07-09" incidenttime="19:35:00" incidentnumber="15126204" address="Tropical Ave &amp; Risby Ave" type="ARREST" age="26" gender="M" description="*********************************************** &lt;br/&gt;13(a)(16), Possession of Controlled Substance&lt;br/&gt;4523, Exhaust Systems, Mufflers and Noise Control.&lt;br/&gt;13(a)(32), Paraphernalia - Use or Possession&lt;br/&gt;3323, Stop Signs and Yield Signs.&lt;br/&gt;"/><marker lat="40.448876851644656" lng="-79.946623919148294" zone="Zone 4" incidentdate="2015-07-09" incidenttime="10:10:00" incidentnumber="15095090" address="4800 block Ellsworth Ave" type="ARREST" age="45" gender="M" description="*********************************************** &lt;br/&gt;2701(a)(1), Simple Assault - Intent., Know., Reckless.Cause Bod. Injury&lt;br/&gt;"/><marker lat="40.47255775872658" lng="-80.036468546929001" zone="Zone 1" incidentdate="2015-07-09" incidenttime="22:30:00" incidentnumber="15126306" address="3100 block Mc Clure Ave" type="ARREST" age="39" gender="M" description="*********************************************** &lt;br/&gt;13(a)(31), Marijuana: Possession Small Amount&lt;br/&gt;13(a)(16), Possession of Controlled Substance&lt;br/&gt;1543, Driving While Operating Privilege is Suspended or Revoked.&lt;br/&gt;13(a)(30), Possession w/ Intent to Del. Controlled Substance&lt;br/&gt;3354, Additional Parking Regulations.&lt;br/&gt;13(a)(32), Paraphernalia - Use or Possession&lt;br/&gt;3301, Arson&lt;br/&gt;"/><marker lat="40.434696587775576" lng="-79.996300985228572" zone="Zone 2" incidentdate="2015-07-09" incidenttime="12:30:00" incidentnumber="15111216" address="600 block First Ave" type="ARREST" age="50" gender="M" description="*********************************************** &lt;br/&gt;3921(a), Theft by Unlawful Taking or Disposition - Movable item&lt;br/&gt;3925, Receiving Stolen Property.&lt;br/&gt;3921, Theft by Unlawful Taking or Disposition.&lt;br/&gt;903, Criminal Conspiracy.&lt;br/&gt;"/><marker lat="40.394957985423687" lng="-79.986864420495252" zone="Zone 3" incidentdate="2015-07-09" incidenttime="02:48:00" incidentnumber="15125714" address="2000 block Brownsville Rd" type="ARREST" age="60" gender="M" description="*********************************************** &lt;br/&gt;1543, Driving While Operating Privilege is Suspended or Revoked.&lt;br/&gt;3802(b), DUI - High Rate of Alchol - BAC &gt;=.10% &lt;.16%&lt;br/&gt;3802(a)(1), DUI - General Impairment&lt;br/&gt;3304, Criminal Mischief.&lt;br/&gt;"/><marker lat="40.428990235576741" lng="-79.99836059977649" zone="Zone 3" incidentdate="2015-07-09" incidenttime="14:00:00" incidentnumber="15125946" address="Arlington Ave &amp; P J Mc Ardle Rdwy" type="ARREST" age="39" gender="M" description="*********************************************** &lt;br/&gt;9501, Bench Warrant&lt;br/&gt;"/><marker lat="40.436710339874303" lng="-79.923175759491755" zone="Zone 4" incidentdate="2015-07-09" incidenttime="13:34:00" incidentnumber="15125984" address="1800 block Murray Ave" type="ARREST" age="31" gender="M" description="*********************************************** &lt;br/&gt;13(a)(31), Marijuana: Possession Small Amount&lt;br/&gt;4910, Tampering with or Fabricating Physical Evidence.&lt;br/&gt;13(a)(16), Possession of Controlled Substance&lt;br/&gt;13(a)(32), Paraphernalia - Use or Possession&lt;br/&gt;9501, Bench Warrant&lt;br/&gt;4914(A), False Identification to Law Enforcement&lt;br/&gt;5104, Resisting Arrest or Other Law Enforcement.&lt;br/&gt;"/><marker lat="40.441700152964565" lng="-80.033112383367452" zone="Zone 6" incidentdate="2015-07-09" incidenttime="16:40:00" incidentnumber="15109716" address="400 block S Main St" type="ARREST" age="39" gender="M" description="*********************************************** &lt;br/&gt;2706, Terroristic Threats.&lt;br/&gt;"/><marker lat="40.421531877189601" lng="-79.993577564166102" zone="Zone 3" incidentdate="2015-07-09" incidenttime="11:00:00" incidentnumber="14219678" address="800 block E Warrington Ave" type="ARREST" age="41" gender="F" description="*********************************************** &lt;br/&gt;4910, Tampering with or Fabricating Physical Evidence.&lt;br/&gt;5101, Obstructing Admin. of Law&lt;br/&gt;5105, Hindering Apprehension or Prosecution.&lt;br/&gt;7512, Criminal Use of Communication&lt;br/&gt;902, Criminal Solicitation.&lt;br/&gt;903, Criminal Conspiracy.&lt;br/&gt;901, Criminal Attempt&lt;br/&gt;9124, Drug Investigation&lt;br/&gt;"/><marker lat="40.465157804159951" lng="-79.922171643415098" zone="Zone 5" incidentdate="2015-07-09" incidenttime="18:20:00" incidentnumber="15116326" address="400 block N Highland Ave" type="ARREST" age="19" gender="F" description="*********************************************** &lt;br/&gt;903, Criminal Conspiracy.&lt;br/&gt;3929, Retail Theft.&lt;br/&gt;"/><marker lat="40.439675229418853" lng="-79.970424221863752" zone="Zone 2" incidentdate="2015-07-09" incidenttime="16:30:00" incidentnumber="15013061" address="2000 block Bentley Dr" type="ARREST" age="48" gender="M" description="*********************************************** &lt;br/&gt;9501, Bench Warrant&lt;br/&gt;3502, Burglary.&lt;br/&gt;903, Criminal Conspiracy.&lt;br/&gt;907, Possessing Instruments of Crime.&lt;br/&gt;"/><marker lat="40.417627041456356" lng="-80.009889438915522" zone="Zone 3" incidentdate="2015-07-09" incidenttime="16:30:00" incidentnumber="15126090" address="Climax St" type="ARREST" age="20" gender="M" description="*********************************************** &lt;br/&gt;4910, Tampering with or Fabricating Physical Evidence.&lt;br/&gt;13(a)(16), Possession of Controlled Substance&lt;br/&gt;13(a)(30), Possession w/ Intent to Del. Controlled Substance&lt;br/&gt;6110.2, Possesion of Firearm with Altered Mfg. Number&lt;br/&gt;3503, Criminal Trespass&lt;br/&gt;3925, Receiving Stolen Property.&lt;br/&gt;"/><marker lat="40.46249179673049" lng="-80.005474487351108" zone="Zone 1" incidentdate="2015-07-09" incidenttime="03:00:00" incidentnumber="15089224" address="Television Hill St" type="ARREST" age="33" gender="M" description="*********************************************** &lt;br/&gt;3304, Criminal Mischief.&lt;br/&gt;9015, Failure To Appear/Arrest on Attachment Order&lt;br/&gt;3503(b)(1)(ii), Defiant Trespass Notice Posted by Sign(s)&lt;br/&gt;907, Possessing Instruments of Crime.&lt;br/&gt;"/><marker lat="40.4210608" lng="-79.9000431" zone="Zone 4" incidentdate="2015-07-09" incidenttime="16:57:00" incidentnumber="15126110" address="200 block Satyr Way" type="ARREST" age="28" gender="M" description="*********************************************** &lt;br/&gt;13(a)(16), Possession of Controlled Substance&lt;br/&gt;13(a)(30), Possession w/ Intent to Del. Controlled Substance&lt;br/&gt;7512, Criminal Use of Communication&lt;br/&gt;4914, False Identification to Law Enforcement Authorities&lt;br/&gt;9501, Bench Warrant&lt;br/&gt;5123, Contraband.&lt;br/&gt;"/><marker lat="40.462471314719117" lng="-79.899507688408946" zone="Zone 5" incidentdate="2015-07-09" incidenttime="08:30:00" incidentnumber="15114235" address="7000 block Mount Vernon St" type="ARREST" age="42" gender="M" description="*********************************************** &lt;br/&gt;4915, Failure to Comply with Megans Law&lt;br/&gt;"/><marker lat="40.475991792684219" lng="-79.998237934488159" zone="Zone 1" incidentdate="2015-07-09" incidenttime="13:30:00" incidentnumber="15125999" address="700 block Mt Pleasant Rd" type="ARREST" age="12" gender="F" description="*********************************************** &lt;br/&gt;2701, Simple Assault.&lt;br/&gt;"/><marker lat="40.428310737985385" lng="-79.973109967204991" zone="Zone 3" incidentdate="2015-07-09" incidenttime="16:40:00" incidentnumber="15126088" address="100 block S 23rd St" type="ARREST" age="28" gender="F" description="*********************************************** &lt;br/&gt;6301, Corruption of Minors.&lt;br/&gt;"/><marker lat="40.439534165811146" lng="-79.99836772444668" zone="Zone 2" incidentdate="2015-07-09" incidenttime="11:15:00" incidentnumber="15125893" address="400 block 5th Ave" type="ARREST" age="26" gender="M" description="*********************************************** &lt;br/&gt;3929, Retail Theft.&lt;br/&gt;"/><marker lat="40.435095503606554" lng="-79.993077686753679" zone="Zone 2" incidentdate="2015-07-09" incidenttime="07:40:00" incidentnumber="15117112" address="900 block 2ND Ave" type="ARREST" age="46" gender="M" description="*********************************************** &lt;br/&gt;2702, Aggravated Assault.&lt;br/&gt;3701, Robbery.&lt;br/&gt;3502, Burglary.&lt;br/&gt;903, Criminal Conspiracy.&lt;br/&gt;"/><marker lat="40.4550203" lng="-80.0558082" zone="Zone 6" incidentdate="2015-07-09" incidenttime="13:38:00" incidentnumber="15116405" address="700 block Sherwood Ave" type="ARREST" age="27" gender="M" description="*********************************************** &lt;br/&gt;607.03, Discharging Firearm or Airgun&lt;br/&gt;4952, Intimidation of Witnesses or Victims&lt;br/&gt;"/><marker lat="40.425465950130466" lng="-80.004495099725489" zone="Zone 3" incidentdate="2015-07-09" incidenttime="20:24:00" incidentnumber="15126249" address="Cushman St" type="ARREST" age="35" gender="F" description="*********************************************** &lt;br/&gt;13(a)(32), Paraphernalia - Use or Possession&lt;br/&gt;"/><marker lat="40.454074811291946" lng="-80.021051277011892" zone="Zone 1" incidentdate="2015-07-09" incidenttime="11:30:00" incidentnumber="15123838" address="1000 block Sheffield St" type="ARREST" age="27" gender="F" description="*********************************************** &lt;br/&gt;2701, Simple Assault.&lt;br/&gt;2709, Harassment (Non-Specific)&lt;br/&gt;"/></markers>
