<?xml version="1.0"?>
<markers><marker lat="40.420679890353824" lng="-79.997348911125997" zone="Zone 3" incidentdate="2014-11-27" incidenttime="00:01:00" incidentnumber="14234157" address="600 block Industry St" type="OFFENSE" age="" gender="" description="*********************************************** &lt;br/&gt;2701, Simple Assault.&lt;br/&gt;"/><marker lat="40.404487339870677" lng="-79.946265215754067" zone="Zone 4" incidentdate="2014-11-27" incidenttime="11:10:00" incidentnumber="14234393" address="200 block Courtland St" type="OFFENSE" age="" gender="" description="*********************************************** &lt;br/&gt;3502, Burglary.&lt;br/&gt;"/><marker lat="40.45899077804593" lng="-80.054865409853733" zone="Zone 6" incidentdate="2014-11-27" incidenttime="08:15:00" incidentnumber="14234567" address="500 block Wyncotte St" type="OFFENSE" age="" gender="" description="*********************************************** &lt;br/&gt;3304, Criminal Mischief.&lt;br/&gt;"/><marker lat="40.42838021085327" lng="-79.982097222120814" zone="Zone 3" incidentdate="2014-11-27" incidenttime="00:20:00" incidentnumber="14234105" address="Carey Way &amp; S 17th St" type="OFFENSE" age="" gender="" description="*********************************************** &lt;br/&gt;601.16(b)(1)(a), Any Person who urinates or defecates in, on, or about any public place&lt;br/&gt;"/><marker lat="40.456938679070994" lng="-79.999947636278463" zone="Zone 5" incidentdate="2014-11-27" incidenttime="13:05:00" incidentnumber="14234502" address="600 block N.Braddock Ave" type="OFFENSE" age="" gender="" description="*********************************************** &lt;br/&gt;2701(a)(1), Simple Assault - Intent., Know., Reckless.Cause Bod. Injury&lt;br/&gt;3701, Robbery.&lt;br/&gt;3921(a), Theft by Unlawful Taking or Disposition - Movable item&lt;br/&gt;"/><marker lat="40.447085888939448" lng="-80.051208100096417" zone="Zone 6" incidentdate="2014-11-27" incidenttime="17:35:00" incidentnumber="14234534" address="1500 block Crucible St" type="OFFENSE" age="" gender="" description="*********************************************** &lt;br/&gt;3304, Criminal Mischief.&lt;br/&gt;3502, Burglary.&lt;br/&gt;3921(a), Theft by Unlawful Taking or Disposition - Movable item&lt;br/&gt;"/><marker lat="40.428799178836528" lng="-79.984145739682731" zone="Zone 3" incidentdate="2014-11-27" incidenttime="01:09:00" incidentnumber="14234204" address="S 14th St &amp; E Carson St" type="OFFENSE" age="" gender="" description="*********************************************** &lt;br/&gt;5503, Disorderly Conduct.&lt;br/&gt;"/><marker lat="40.429479578090266" lng="-79.982684256549106" zone="Zone 3" incidentdate="2014-11-27" incidenttime="03:52:00" incidentnumber="14234304" address="S 16th St &amp; Bingham St" type="OFFENSE" age="" gender="" description="*********************************************** &lt;br/&gt;13(a)(31), Marijuana: Possession Small Amount&lt;br/&gt;5123, Contraband.&lt;br/&gt;5503, Disorderly Conduct.&lt;br/&gt;5505, Public Drunkenness&lt;br/&gt;"/><marker lat="40.429228381173026" lng="-79.980513714480466" zone="Zone 3" incidentdate="2014-11-27" incidenttime="01:10:00" incidentnumber="14234214" address="S 18th St &amp; Wrights Way" type="OFFENSE" age="" gender="" description="*********************************************** &lt;br/&gt;5901, Open Lewdness.&lt;br/&gt;"/><marker lat="40.390301010687921" lng="-80.01859620759565" zone="Zone 6" incidentdate="2014-11-27" incidenttime="17:03:00" incidentnumber="14234521" address="1000 block Woodbourne Ave" type="OFFENSE" age="" gender="" description="*********************************************** &lt;br/&gt;3745, Accidents Involving Damage to Unattended Veh.or Prop.&lt;br/&gt;"/><marker lat="40.449619397024108" lng="-79.972523022615846" zone="Zone 2" incidentdate="2014-11-27" incidenttime="17:50:00" incidentnumber="14119766" address="Webster Ave &amp; Junilla St" type="OFFENSE" age="" gender="" description="*********************************************** &lt;br/&gt;2501, Criminal Homicide.&lt;br/&gt;3701, Robbery.&lt;br/&gt;6110.1, Possesion of Firearm by Minor&lt;br/&gt;903, Criminal Conspiracy.&lt;br/&gt;"/><marker lat="40.459072925316747" lng="-79.901471013116861" zone="Zone 5" incidentdate="2014-11-27" incidenttime="01:50:00" incidentnumber="14234233" address="Forest Way &amp; Amity Way" type="OFFENSE" age="" gender="" description="*********************************************** &lt;br/&gt;3925, Receiving Stolen Property.&lt;br/&gt;"/><marker lat="40.455023520372684" lng="-79.885909186300637" zone="Zone 5" incidentdate="2014-11-27" incidenttime="03:30:00" incidentnumber="14234296" address="7900 block FRANKSTOWN Ave" type="OFFENSE" age="" gender="" description="*********************************************** &lt;br/&gt;3921(a), Theft by Unlawful Taking or Disposition - Movable item&lt;br/&gt;"/><marker lat="40.475743982324708" lng="-79.999473074803177" zone="Zone 1" incidentdate="2014-11-27" incidenttime="03:50:00" incidentnumber="14199160" address="800 block Mt Pleasant Rd" type="OFFENSE" age="" gender="" description="*********************************************** &lt;br/&gt;2701, Simple Assault.&lt;br/&gt;3701, Robbery.&lt;br/&gt;"/><marker lat="40.434374123283895" lng="-80.006255329791585" zone="Zone 3" incidentdate="2014-11-27" incidenttime="01:35:00" incidentnumber="14234223" address="Station Square Dr W &amp; Commerce St" type="OFFENSE" age="" gender="" description="*********************************************** &lt;br/&gt;3503(b)(1)(i), Actual Communication&lt;br/&gt;5503(a)(1), DISORDERLY CONDUCT - ENGAGE IN FIGHTING&lt;br/&gt;5104, Resisting Arrest or Other Law Enforcement.&lt;br/&gt;5505, Public Drunkenness&lt;br/&gt;"/><marker lat="40.447791383449896" lng="-80.003763673123132" zone="Zone 1" incidentdate="2014-11-27" incidenttime="13:20:00" incidentnumber="14234445" address="100 block Federal St S" type="OFFENSE" age="" gender="" description="*********************************************** &lt;br/&gt;9488, False  Burglar Alarm&lt;br/&gt;"/><marker lat="40.44956618746032" lng="-79.987646691015016" zone="Zone 2" incidentdate="2014-11-27" incidenttime="00:23:00" incidentnumber="14234170" address="1600 block Smallman St" type="OFFENSE" age="" gender="" description="*********************************************** &lt;br/&gt;2701, Simple Assault.&lt;br/&gt;"/><marker lat="40.446346164512178" lng="-79.994318011299683" zone="Zone 2" incidentdate="2014-11-27" incidenttime="22:17:00" incidentnumber="14234619" address="11th St" type="OFFENSE" age="" gender="" description="*********************************************** &lt;br/&gt;5503(a)(3), DISORDERLY CONDUCT - OBSCENE LANG/GEST&lt;br/&gt;3503.B1I, DEF. TRESPASS ACTUAL COMMUNICATION&lt;br/&gt;"/><marker lat="40.423671322859391" lng="-80.081806457847165" zone="Zone 6" incidentdate="2014-11-27" incidenttime="06:40:00" incidentnumber="14234341" address="2900 block Chartiers Ave" type="OFFENSE" age="" gender="" description="*********************************************** &lt;br/&gt;2701, Simple Assault.&lt;br/&gt;3928, Unauthorized Use of Automobile and Other Vehicles.&lt;br/&gt;"/><marker lat="40.450284391121954" lng="-79.986503782715374" zone="Zone 2" incidentdate="2014-11-27" incidenttime="02:45:00" incidentnumber="14234271" address="1700 block Smallman St" type="OFFENSE" age="" gender="" description="*********************************************** &lt;br/&gt;3802(a)(1), DUI - General Impairment&lt;br/&gt;3802(c), DUI - Highest Rate of Alcohol - BAC &gt;= .16%&lt;br/&gt;"/><marker lat="40.45036032854815" lng="-79.937842794835817" zone="Zone 4" incidentdate="2014-11-27" incidenttime="03:18:00" incidentnumber="14234290" address="Vonlent Pl" type="OFFENSE" age="" gender="" description="*********************************************** &lt;br/&gt;5506, Loitering and Prowling at Night&lt;br/&gt;3503(b)(1)(iii), Defiant Trespass - Fencing or Other Enclosure&lt;br/&gt;5505, Public Drunkenness&lt;br/&gt;6310.3(a), Carrying a False Identification Card; under 21 to obtain liquor&lt;br/&gt;901, Criminal Attempt&lt;br/&gt;3304, Criminal Mischief.&lt;br/&gt;6308(a), Underage Purchase, Consume, Possessed or Transport Liquor&lt;br/&gt;"/><marker lat="40.427838355756052" lng="-79.980651909136142" zone="Zone 3" incidentdate="2014-11-27" incidenttime="09:30:00" incidentnumber="14234383" address="S 18th St &amp; Sarah St" type="OFFENSE" age="" gender="" description="*********************************************** &lt;br/&gt;3304, Criminal Mischief.&lt;br/&gt;"/><marker lat="40.456542939615126" lng="-79.887664136937502" zone="Zone 5" incidentdate="2014-11-27" incidenttime="15:20:00" incidentnumber="14234484" address="1000 block Brushton Ave" type="OFFENSE" age="" gender="" description="*********************************************** &lt;br/&gt;3922, Theft by Deception.&lt;br/&gt;"/><marker lat="40.423409088442163" lng="-79.939139146230119" zone="Zone 4" incidentdate="2014-11-27" incidenttime="07:53:00" incidentnumber="14234358" address="600 block Greer St" type="OFFENSE" age="" gender="" description="*********************************************** &lt;br/&gt;9488, False  Burglar Alarm&lt;br/&gt;"/><marker lat="40.482879021356389" lng="-80.04453300763744" zone="Zone 1" incidentdate="2014-11-27" incidenttime="21:45:00" incidentnumber="14234608" address="2000 block Termon Ave" type="OFFENSE" age="" gender="" description="*********************************************** &lt;br/&gt;029, Missing Juvenile&lt;br/&gt;"/><marker lat="40.385442305756953" lng="-79.978801061800922" zone="Zone 3" incidentdate="2014-11-27" incidenttime="01:35:00" incidentnumber="14234209" address="2600 block Brownsville Rd" type="OFFENSE" age="" gender="" description="*********************************************** &lt;br/&gt;2702, Aggravated Assault.&lt;br/&gt;5503(a)(1), DISORDERLY CONDUCT - ENGAGE IN FIGHTING&lt;br/&gt;5505, Public Drunkenness&lt;br/&gt;"/><marker lat="40.465099369144312" lng="-80.010043539784363" zone="Zone 1" incidentdate="2014-11-27" incidenttime="04:13:00" incidentnumber="14234303" address="Federal Ext N &amp; Lafayette Ave" type="OFFENSE" age="" gender="" description="*********************************************** &lt;br/&gt;1543, Driving While Operating Privilege is Suspended or Revoked.&lt;br/&gt;3736, Reckless Driving&lt;br/&gt;1501, Drivers Required to be Licensed.&lt;br/&gt;3733, Fleeing or Attempting to Elude Police Officer&lt;br/&gt;5123, Contraband.&lt;br/&gt;"/><marker lat="40.479788497376717" lng="-79.953670472150208" zone="Zone 2" incidentdate="2014-11-27" incidenttime="09:30:00" incidentnumber="14234380" address="400 block 52nd St" type="OFFENSE" age="" gender="" description="*********************************************** &lt;br/&gt;3921(a), Theft by Unlawful Taking or Disposition - Movable item&lt;br/&gt;"/><marker lat="40.429319862415177" lng="-79.981997147629315" zone="Zone 3" incidentdate="2014-11-27" incidenttime="01:50:00" incidentnumber="14234239" address="Wrights Way &amp; S 17th St" type="OFFENSE" age="" gender="" description="*********************************************** &lt;br/&gt;5505, Public Drunkenness&lt;br/&gt;"/><marker lat="40.440733669223235" lng="-80.018909139928851" zone="Zone 6" incidentdate="2014-11-27" incidenttime="02:34:00" incidentnumber="14234267" address="W Carson St &amp; W Station Square Dr" type="OFFENSE" age="" gender="" description="*********************************************** &lt;br/&gt;3714, Careless Driving&lt;br/&gt;3325, Duty of Driver on Approach of Emergency Vehicle.&lt;br/&gt;3802(a)(1), DUI - General Impairment&lt;br/&gt;3802(b), DUI - High Rate of Alchol - BAC &gt;=.10% &lt;.16%&lt;br/&gt;"/><marker lat="40.476377925537506" lng="-80.039721353393048" zone="Zone 1" incidentdate="2014-11-27" incidenttime="01:25:00" incidentnumber="14234211" address="3400 block California Ave" type="OFFENSE" age="" gender="" description="*********************************************** &lt;br/&gt;5503, Disorderly Conduct.&lt;br/&gt;"/><marker lat="40.449235901494198" lng="-79.985743331673092" zone="Zone 6" incidentdate="2014-11-27" incidenttime="09:19:00" incidentnumber="14234371" address="1600 block West Liberty Ave" type="OFFENSE" age="" gender="" description="*********************************************** &lt;br/&gt;9488, False  Burglar Alarm&lt;br/&gt;"/><marker lat="40.427908148048772" lng="-79.970792974138448" zone="Zone 3" incidentdate="2014-11-27" incidenttime="02:30:00" incidentnumber="14234285" address="2400 block E Carson St" type="OFFENSE" age="" gender="" description="*********************************************** &lt;br/&gt;3304, Criminal Mischief.&lt;br/&gt;"/><marker lat="40.476447831821446" lng="-79.989463800526309" zone="Zone 1" incidentdate="2014-11-27" incidenttime="19:30:00" incidentnumber="14234565" address="2900 block Spring Garden Ave" type="OFFENSE" age="" gender="" description="*********************************************** &lt;br/&gt;3304, Criminal Mischief.&lt;br/&gt;2705, Recklessly Endangering Another Person.&lt;br/&gt;"/><marker lat="40.391579872568094" lng="-80.015378713407102" zone="Zone 6" incidentdate="2014-11-27" incidenttime="01:00:00" incidentnumber="14234283" address="1100 block Brookline Blvd" type="OFFENSE" age="" gender="" description="*********************************************** &lt;br/&gt;3921(a), Theft by Unlawful Taking or Disposition - Movable item&lt;br/&gt;"/><marker lat="40.457038376535593" lng="-80.004840527895169" zone="Zone 1" incidentdate="2014-11-27" incidenttime="02:45:00" incidentnumber="14234273" address="1300 block Sandusky St N" type="OFFENSE" age="" gender="" description="*********************************************** &lt;br/&gt;3351, Stop, Stand and Park Outside Bus. and Res.&lt;br/&gt;3802(a)(1), DUI - General Impairment&lt;br/&gt;3802(c), DUI - Highest Rate of Alcohol - BAC &gt;= .16%&lt;br/&gt;"/><marker lat="40.454104315913447" lng="-80.019684162408282" zone="Zone 1" incidentdate="2014-11-27" incidenttime="15:49:00" incidentnumber="14234490" address="1300 block Allegheny Ave" type="OFFENSE" age="" gender="" description="*********************************************** &lt;br/&gt;2701, Simple Assault.&lt;br/&gt;"/><marker lat="40.466452324342562" lng="-79.903215509017841" zone="Zone 5" incidentdate="2014-11-27" incidenttime="02:00:00" incidentnumber="14234261" address="6600 block Apple Ave" type="OFFENSE" age="" gender="" description="*********************************************** &lt;br/&gt;3745, Accidents Involving Damage to Unattended Veh.or Prop.&lt;br/&gt;"/><marker lat="40.428799178836528" lng="-79.984145739682731" zone="Zone 3" incidentdate="2014-11-27" incidenttime="02:00:00" incidentnumber="14234238" address="E Carson St &amp; S 14th St" type="OFFENSE" age="" gender="" description="*********************************************** &lt;br/&gt;5503, Disorderly Conduct.&lt;br/&gt;"/><marker lat="40.428567965192009" lng="-79.987317884623508" zone="Zone 3" incidentdate="2014-11-27" incidenttime="00:22:00" incidentnumber="14234171" address="1100 block E Carson St" type="OFFENSE" age="" gender="" description="*********************************************** &lt;br/&gt;2701, Simple Assault.&lt;br/&gt;5505, Public Drunkenness&lt;br/&gt;"/><marker lat="40.483041135050279" lng="-80.003896194315018" zone="Zone 1" incidentdate="2014-11-27" incidenttime="08:25:00" incidentnumber="14234365" address="500 block Mt Pleasant Rd" type="OFFENSE" age="" gender="" description="*********************************************** &lt;br/&gt;9488, False  Burglar Alarm&lt;br/&gt;"/><marker lat="40.39512114848344" lng="-79.991336756605349" zone="Zone 3" incidentdate="2014-11-27" incidenttime="16:03:00" incidentnumber="14234495" address="300 block Copperfield Ave" type="OFFENSE" age="" gender="" description="*********************************************** &lt;br/&gt;029, Missing Juvenile&lt;br/&gt;"/><marker lat="40.429448653413388" lng="-79.984142090707195" zone="Zone 3" incidentdate="2014-11-27" incidenttime="02:32:00" incidentnumber="14234269" address="S 14th St &amp; Bingham St" type="OFFENSE" age="" gender="" description="*********************************************** &lt;br/&gt;13(a)(31), Marijuana: Possession Small Amount&lt;br/&gt;13(a)(32), Paraphernalia - Use or Possession&lt;br/&gt;"/><marker lat="40.428211233151075" lng="-79.97116747592402" zone="Zone 3" incidentdate="2014-11-27" incidenttime="00:31:00" incidentnumber="14234301" address="S 24th St &amp; E Carson St" type="OFFENSE" age="" gender="" description="*********************************************** &lt;br/&gt;9489, Found Property&lt;br/&gt;"/><marker lat="40.47156270663875" lng="-79.899377820646421" zone="Zone 5" incidentdate="2014-11-27" incidenttime="18:41:00" incidentnumber="14234549" address="1300 block Chaney Ct" type="OFFENSE" age="" gender="" description="*********************************************** &lt;br/&gt;9999, 9999 - (Misc. Incident):&lt;br/&gt;"/><marker lat="40.471846093379909" lng="-80.027025287370407" zone="Zone 1" incidentdate="2014-11-27" incidenttime="20:45:00" incidentnumber="14234591" address="2900 block Brighton Rd" type="OFFENSE" age="" gender="" description="*********************************************** &lt;br/&gt;3701, Robbery.&lt;br/&gt;"/><marker lat="40.426147284858189" lng="-79.986356382097398" zone="Zone 3" incidentdate="2014-11-27" incidenttime="02:45:00" incidentnumber="14234278" address="S 12th St" type="OFFENSE" age="" gender="" description="*********************************************** &lt;br/&gt;601.16, Public Urination And Defecation&lt;br/&gt;"/><marker lat="40.475991792684219" lng="-79.998237934488159" zone="Zone 1" incidentdate="2014-11-27" incidenttime="03:50:00" incidentnumber="14180997" address="700 block Mt Pleasant Rd" type="OFFENSE" age="" gender="" description="*********************************************** &lt;br/&gt;2701, Simple Assault.&lt;br/&gt;3701, Robbery.&lt;br/&gt;"/><marker lat="40.418280954692698" lng="-80.013849083874248" zone="Zone 3" incidentdate="2014-11-27" incidenttime="04:18:00" incidentnumber="14234312" address="Southern Ave" type="OFFENSE" age="" gender="" description="*********************************************** &lt;br/&gt;2709(a), Harassment.&lt;br/&gt;2706, Terroristic Threats.&lt;br/&gt;3503.B1I, DEF. TRESPASS ACTUAL COMMUNICATION&lt;br/&gt;"/><marker lat="40.468609630966043" lng="-79.934012777539834" zone="Zone 5" incidentdate="2014-11-27" incidenttime="18:29:00" incidentnumber="14234543" address="5400 block Columbo St" type="OFFENSE" age="" gender="" description="*********************************************** &lt;br/&gt;2702, Aggravated Assault.&lt;br/&gt;3503.B1I, DEF. TRESPASS ACTUAL COMMUNICATION&lt;br/&gt;5104, Resisting Arrest or Other Law Enforcement.&lt;br/&gt;5503(a)(3), DISORDERLY CONDUCT - OBSCENE LANG/GEST&lt;br/&gt;5505, Public Drunkenness&lt;br/&gt;"/><marker lat="40.472050810162742" lng="-80.008204601171315" zone="Zone 1" incidentdate="2014-11-27" incidenttime="12:20:00" incidentnumber="14234426" address="Maple Ave &amp; Pusey St" type="OFFENSE" age="" gender="" description="*********************************************** &lt;br/&gt;9488, False  Burglar Alarm&lt;br/&gt;"/><marker lat="40.438219522469147" lng="-80.034614263575634" zone="Zone 6" incidentdate="2014-11-27" incidenttime="04:00:00" incidentnumber="14234379" address="100 block Wabash St" type="OFFENSE" age="" gender="" description="*********************************************** &lt;br/&gt;3745, Accidents Involving Damage to Unattended Veh.or Prop.&lt;br/&gt;"/><marker lat="40.424138257551306" lng="-79.997243463044384" zone="Zone 3" incidentdate="2014-11-27" incidenttime="18:19:00" incidentnumber="14234538" address="600 block Mclain St" type="OFFENSE" age="" gender="" description="*********************************************** &lt;br/&gt;2701, Simple Assault.&lt;br/&gt;"/><marker lat="40.451157723858437" lng="-79.933848831107525" zone="Zone 4" incidentdate="2014-11-27" incidenttime="02:38:00" incidentnumber="14234253" address="Bellefonte St &amp; Walnut St" type="OFFENSE" age="" gender="" description="*********************************************** &lt;br/&gt;5503(a)(1), DISORDERLY CONDUCT - ENGAGE IN FIGHTING&lt;br/&gt;2701, Simple Assault.&lt;br/&gt;5505, Public Drunkenness&lt;br/&gt;6310.3(a), Carrying a False Identification Card; under 21 to obtain liquor&lt;br/&gt;4914, False Identification to Law Enforcement Authorities&lt;br/&gt;6308(a), Underage Purchase, Consume, Possessed or Transport Liquor&lt;br/&gt;2709, Harassment (Non-Specific)&lt;br/&gt;"/><marker lat="40.451157723858437" lng="-79.933848831107525" zone="Zone 4" incidentdate="2014-11-27" incidenttime="02:30:00" incidentnumber="14234253" address="Bellefonte St &amp; Walnut St" type="ARREST" age="20" gender="M" description="*********************************************** &lt;br/&gt;5503(a)(1), DISORDERLY CONDUCT - ENGAGE IN FIGHTING&lt;br/&gt;2701, Simple Assault.&lt;br/&gt;5505, Public Drunkenness&lt;br/&gt;6310.3(a), Carrying a False Identification Card; under 21 to obtain liquor&lt;br/&gt;4914, False Identification to Law Enforcement Authorities&lt;br/&gt;6308(a), Underage Purchase, Consume, Possessed or Transport Liquor&lt;br/&gt;2709, Harassment (Non-Specific)&lt;br/&gt;"/><marker lat="40.468609630966043" lng="-79.934012777539834" zone="Zone 5" incidentdate="2014-11-27" incidenttime="18:29:00" incidentnumber="14234543" address="5400 block Columbo St" type="ARREST" age="28" gender="F" description="*********************************************** &lt;br/&gt;2702, Aggravated Assault.&lt;br/&gt;3503.B1I, DEF. TRESPASS ACTUAL COMMUNICATION&lt;br/&gt;5104, Resisting Arrest or Other Law Enforcement.&lt;br/&gt;5503(a)(3), DISORDERLY CONDUCT - OBSCENE LANG/GEST&lt;br/&gt;5505, Public Drunkenness&lt;br/&gt;"/><marker lat="40.450284391121954" lng="-79.986503782715374" zone="Zone 2" incidentdate="2014-11-27" incidenttime="02:45:00" incidentnumber="14234271" address="1700 block Smallman St" type="ARREST" age="40" gender="M" description="*********************************************** &lt;br/&gt;3802(a)(1), DUI - General Impairment&lt;br/&gt;3802(c), DUI - Highest Rate of Alcohol - BAC &gt;= .16%&lt;br/&gt;"/><marker lat="40.385442305756953" lng="-79.978801061800922" zone="Zone 3" incidentdate="2014-11-27" incidenttime="01:35:00" incidentnumber="14234209" address="2600 block Brownsville Rd" type="ARREST" age="23" gender="M" description="*********************************************** &lt;br/&gt;2702, Aggravated Assault.&lt;br/&gt;5503(a)(1), DISORDERLY CONDUCT - ENGAGE IN FIGHTING&lt;br/&gt;5505, Public Drunkenness&lt;br/&gt;"/><marker lat="40.435095503606554" lng="-79.993077686753679" zone="Zone 2" incidentdate="2014-11-27" incidenttime="15:50:00" incidentnumber="14110050" address="900 block Second Ave" type="ARREST" age="21" gender="M" description="*********************************************** &lt;br/&gt;3502, Burglary.&lt;br/&gt;"/><marker lat="40.418280954692698" lng="-80.013849083874248" zone="Zone 3" incidentdate="2014-11-27" incidenttime="04:22:00" incidentnumber="14234312" address="Southern Ave" type="ARREST" age="41" gender="M" description="*********************************************** &lt;br/&gt;2709(a), Harassment.&lt;br/&gt;2706, Terroristic Threats.&lt;br/&gt;3503.B1I, DEF. TRESPASS ACTUAL COMMUNICATION&lt;br/&gt;"/><marker lat="40.475991792684219" lng="-79.998237934488159" zone="Zone 1" incidentdate="2014-11-27" incidenttime="04:13:00" incidentnumber="14180997" address="700 block Mt Pleasant Rd" type="ARREST" age="25" gender="M" description="*********************************************** &lt;br/&gt;2701, Simple Assault.&lt;br/&gt;3701, Robbery.&lt;br/&gt;"/><marker lat="40.434374123283895" lng="-80.006255329791585" zone="Zone 3" incidentdate="2014-11-27" incidenttime="01:35:00" incidentnumber="14234223" address="Station Square Dr W &amp; Commerce St" type="ARREST" age="26" gender="M" description="*********************************************** &lt;br/&gt;3503(b)(1)(i), Actual Communication&lt;br/&gt;5503(a)(1), DISORDERLY CONDUCT - ENGAGE IN FIGHTING&lt;br/&gt;5104, Resisting Arrest or Other Law Enforcement.&lt;br/&gt;5505, Public Drunkenness&lt;br/&gt;"/><marker lat="40.429479578090266" lng="-79.982684256549106" zone="Zone 3" incidentdate="2014-11-27" incidenttime="03:53:00" incidentnumber="14234304" address="S 16th St &amp; Bingham St" type="ARREST" age="29" gender="M" description="*********************************************** &lt;br/&gt;13(a)(31), Marijuana: Possession Small Amount&lt;br/&gt;5123, Contraband.&lt;br/&gt;5503, Disorderly Conduct.&lt;br/&gt;5505, Public Drunkenness&lt;br/&gt;"/><marker lat="40.475743982324708" lng="-79.999473074803177" zone="Zone 1" incidentdate="2014-11-27" incidenttime="04:13:00" incidentnumber="14199160" address="800 block Mt Pleasant Rd" type="ARREST" age="25" gender="M" description="*********************************************** &lt;br/&gt;2701, Simple Assault.&lt;br/&gt;3701, Robbery.&lt;br/&gt;"/><marker lat="40.475991792684219" lng="-79.998237934488159" zone="Zone 1" incidentdate="2014-11-27" incidenttime="09:30:00" incidentnumber="14162130" address="700 block Mt Pleasant Rd" type="ARREST" age="25" gender="M" description="*********************************************** &lt;br/&gt;2701(a)(1), Simple Assault - Intent., Know., Reckless.Cause Bod. Injury&lt;br/&gt;"/><marker lat="40.429448653413388" lng="-79.984142090707195" zone="Zone 3" incidentdate="2014-11-27" incidenttime="02:42:00" incidentnumber="14234269" address="S 14th St &amp; Bingham St" type="ARREST" age="23" gender="M" description="*********************************************** &lt;br/&gt;13(a)(31), Marijuana: Possession Small Amount&lt;br/&gt;13(a)(32), Paraphernalia - Use or Possession&lt;br/&gt;"/><marker lat="40.457038376535593" lng="-80.004840527895169" zone="Zone 1" incidentdate="2014-11-27" incidenttime="02:45:00" incidentnumber="14234273" address="1300 block Sandusky St N" type="ARREST" age="61" gender="M" description="*********************************************** &lt;br/&gt;3351, Stop, Stand and Park Outside Bus. and Res.&lt;br/&gt;3802(a)(1), DUI - General Impairment&lt;br/&gt;3802(c), DUI - Highest Rate of Alcohol - BAC &gt;= .16%&lt;br/&gt;"/><marker lat="40.420679890353824" lng="-79.997348911125997" zone="Zone 3" incidentdate="2014-11-27" incidenttime="00:20:00" incidentnumber="14234157" address="600 block Industry St" type="ARREST" age="40" gender="M" description="*********************************************** &lt;br/&gt;2701, Simple Assault.&lt;br/&gt;"/><marker lat="40.459072925316747" lng="-79.901471013116861" zone="Zone 5" incidentdate="2014-11-27" incidenttime="01:50:00" incidentnumber="14234233" address="Forest Way &amp; Amity Way" type="ARREST" age="23" gender="M" description="*********************************************** &lt;br/&gt;3925, Receiving Stolen Property.&lt;br/&gt;"/><marker lat="40.449619397024108" lng="-79.972523022615846" zone="Zone 2" incidentdate="2014-11-27" incidenttime="17:00:00" incidentnumber="14119766" address="Webster Ave &amp; Junilla St" type="ARREST" age="17" gender="M" description="*********************************************** &lt;br/&gt;2501, Criminal Homicide.&lt;br/&gt;3701, Robbery.&lt;br/&gt;6110.1, Possesion of Firearm by Minor&lt;br/&gt;903, Criminal Conspiracy.&lt;br/&gt;"/><marker lat="40.440733669223235" lng="-80.018909139928851" zone="Zone 6" incidentdate="2014-11-27" incidenttime="02:34:00" incidentnumber="14234267" address="W Carson St &amp; W Station Square Dr" type="ARREST" age="34" gender="M" description="*********************************************** &lt;br/&gt;3714, Careless Driving&lt;br/&gt;3325, Duty of Driver on Approach of Emergency Vehicle.&lt;br/&gt;3802(a)(1), DUI - General Impairment&lt;br/&gt;3802(b), DUI - High Rate of Alchol - BAC &gt;=.10% &lt;.16%&lt;br/&gt;"/><marker lat="40.446346164512178" lng="-79.994318011299683" zone="Zone 2" incidentdate="2014-11-27" incidenttime="22:30:00" incidentnumber="14234619" address="11th St" type="ARREST" age="37" gender="F" description="*********************************************** &lt;br/&gt;5503(a)(3), DISORDERLY CONDUCT - OBSCENE LANG/GEST&lt;br/&gt;3503.B1I, DEF. TRESPASS ACTUAL COMMUNICATION&lt;br/&gt;"/><marker lat="40.465099369144312" lng="-80.010043539784363" zone="Zone 1" incidentdate="2014-11-27" incidenttime="04:13:00" incidentnumber="14234303" address="Federal Ext N &amp; Lafayette Ave" type="ARREST" age="26" gender="M" description="*********************************************** &lt;br/&gt;1543, Driving While Operating Privilege is Suspended or Revoked.&lt;br/&gt;3736, Reckless Driving&lt;br/&gt;1501, Drivers Required to be Licensed.&lt;br/&gt;3733, Fleeing or Attempting to Elude Police Officer&lt;br/&gt;5123, Contraband.&lt;br/&gt;"/><marker lat="40.424138257551306" lng="-79.997243463044384" zone="Zone 3" incidentdate="2014-11-27" incidenttime="18:19:00" incidentnumber="14234538" address="600 block Mclain St" type="ARREST" age="30" gender="M" description="*********************************************** &lt;br/&gt;2701, Simple Assault.&lt;br/&gt;"/><marker lat="40.45036032854815" lng="-79.937842794835817" zone="Zone 4" incidentdate="2014-11-27" incidenttime="03:30:00" incidentnumber="14234290" address="Vonlent Pl" type="ARREST" age="20" gender="M" description="*********************************************** &lt;br/&gt;5506, Loitering and Prowling at Night&lt;br/&gt;3503(b)(1)(iii), Defiant Trespass - Fencing or Other Enclosure&lt;br/&gt;5505, Public Drunkenness&lt;br/&gt;6310.3(a), Carrying a False Identification Card; under 21 to obtain liquor&lt;br/&gt;901, Criminal Attempt&lt;br/&gt;3304, Criminal Mischief.&lt;br/&gt;6308(a), Underage Purchase, Consume, Possessed or Transport Liquor&lt;br/&gt;"/><marker lat="40.469211705906105" lng="-79.937858416743794" zone="Zone 5" incidentdate="2014-11-27" incidenttime="00:50:00" incidentnumber="14227605" address="700 block N Atlantic Ave" type="ARREST" age="30" gender="M" description="*********************************************** &lt;br/&gt;9093, Indirect Criminal Contempt&lt;br/&gt;3503, Criminal Trespass&lt;br/&gt;3503(a), Criminal Trespass&lt;br/&gt;"/></markers>
