<?xml version="1.0"?>
<markers><marker lat="40.441700152964565" lng="-80.033112383367452" zone="Zone 6" incidentdate="2016-07-05" incidenttime="12:15:00" incidentnumber="16124775" address="400 block S Main St" type="OFFENSE" age="" gender="" description="*********************************************** &lt;br/&gt;9489, Found Property&lt;br/&gt;"/><marker lat="40.470410050613673" lng="-79.892607631958555" zone="Zone 5" incidentdate="2016-07-05" incidenttime="10:36:00" incidentnumber="16124734" address="1600 block Lincoln Ave" type="OFFENSE" age="" gender="" description="*********************************************** &lt;br/&gt;9496, Dead on Arrival (DOA)&lt;br/&gt;"/><marker lat="40.462061632288147" lng="-80.032131114209037" zone="Zone 1" incidentdate="2016-07-05" incidenttime="03:20:00" incidentnumber="16124586" address="Beaver Ave &amp; Chateau St" type="OFFENSE" age="" gender="" description="*********************************************** &lt;br/&gt;3502, Burglary.&lt;br/&gt;"/><marker lat="40.385864795251649" lng="-79.981919725888744" zone="Zone 3" incidentdate="2016-07-05" incidenttime="01:24:00" incidentnumber="16124553" address="2500 block Edgar St" type="OFFENSE" age="" gender="" description="*********************************************** &lt;br/&gt;2701, Simple Assault.&lt;br/&gt;"/><marker lat="40.454628098407937" lng="-79.897524448015091" zone="Zone 5" incidentdate="2016-07-05" incidenttime="19:00:00" incidentnumber="16125018" address="Hamilton Ave &amp; N Homewood Ave" type="OFFENSE" age="" gender="" description="*********************************************** &lt;br/&gt;13(a)(16), Possession of Controlled Substance&lt;br/&gt;13(a)(32), Paraphernalia - Use or Possession&lt;br/&gt;3324, Vehicle Entering or Crossing Roadway.&lt;br/&gt;"/><marker lat="40.456515048695316" lng="-80.016515559088219" zone="Zone 1" incidentdate="2016-07-05" incidenttime="00:15:00" incidentnumber="16124505" address="1500 block Brighton Rd" type="OFFENSE" age="" gender="" description="*********************************************** &lt;br/&gt;9017, Found Drugs&lt;br/&gt;"/><marker lat="40.478335242248448" lng="-79.958696545179237" zone="Zone 2" incidentdate="2016-07-05" incidenttime="08:00:00" incidentnumber="16125042" address="100 block 49th St" type="OFFENSE" age="" gender="" description="*********************************************** &lt;br/&gt;3934, Theft from Vehicle&lt;br/&gt;"/><marker lat="40.464222661803049" lng="-79.939792129159841" zone="Zone 5" incidentdate="2016-07-05" incidenttime="15:10:00" incidentnumber="16124930" address="5200 block Penn Ave" type="OFFENSE" age="" gender="" description="*********************************************** &lt;br/&gt;3745, Accidents Involving Damage to Unattended Veh.or Prop.&lt;br/&gt;"/><marker lat="40.441652930044143" lng="-79.992034174465672" zone="Zone 2" incidentdate="2016-07-05" incidenttime="17:30:00" incidentnumber="16125005" address="Bedford Ave &amp; Washington Pl" type="OFFENSE" age="" gender="" description="*********************************************** &lt;br/&gt;3743, Accidents Involving Damage to Attended Veh. or Property&lt;br/&gt;"/><marker lat="40.468497634696611" lng="-79.941878881562516" zone="Zone 5" incidentdate="2016-07-05" incidenttime="03:50:00" incidentnumber="16124609" address="5100 block Hillcrest St" type="OFFENSE" age="" gender="" description="*********************************************** &lt;br/&gt;2702, Aggravated Assault.&lt;br/&gt;"/><marker lat="40.482879021356389" lng="-80.04453300763744" zone="Zone 1" incidentdate="2016-07-05" incidenttime="01:25:00" incidentnumber="16124548" address="2000 block Termon Ave" type="OFFENSE" age="" gender="" description="*********************************************** &lt;br/&gt;029, Missing Juvenile&lt;br/&gt;"/><marker lat="40.391789582982071" lng="-80.015844713271548" zone="Zone 6" incidentdate="2016-07-05" incidenttime="11:41:00" incidentnumber="16124755" address="Brookline Blvd &amp; Creedmoor Ave" type="OFFENSE" age="" gender="" description="*********************************************** &lt;br/&gt;3304, Criminal Mischief.&lt;br/&gt;2705, Recklessly Endangering Another Person.&lt;br/&gt;"/><marker lat="40.431578568334153" lng="-80.006698505861038" zone="Zone 3" incidentdate="2016-07-05" incidenttime="09:00:00" incidentnumber="16124686" address="100 block Shiloh St" type="OFFENSE" age="" gender="" description="*********************************************** &lt;br/&gt;9999, 9999 - (Misc. Incident):&lt;br/&gt;"/><marker lat="40.474950003578549" lng="-80.01124837592549" zone="Zone 1" incidentdate="2016-07-05" incidenttime="07:47:00" incidentnumber="16124655" address="Perrysville Ave &amp; Marshall Ave" type="OFFENSE" age="" gender="" description="*********************************************** &lt;br/&gt;1786, Required Financial Responsibility.&lt;br/&gt;1543, Driving While Operating Privilege is Suspended or Revoked.&lt;br/&gt;4703, Operation of Vehicle without Official Certif. of Inspection&lt;br/&gt;7122, Altered, Forged or Counterfeit Documents and Plates&lt;br/&gt;"/><marker lat="40.443580942147605" lng="-79.979979097296493" zone="Zone 2" incidentdate="2016-07-05" incidenttime="10:00:00" incidentnumber="16124950" address="2000 block Centre Ave" type="OFFENSE" age="" gender="" description="*********************************************** &lt;br/&gt;9124, Drug Investigation&lt;br/&gt;"/><marker lat="40.427454597996189" lng="-79.98762519176347" zone="Zone 3" incidentdate="2016-07-05" incidenttime="09:30:00" incidentnumber="16124801" address="100 block S 11th St" type="OFFENSE" age="" gender="" description="*********************************************** &lt;br/&gt;3745, Accidents Involving Damage to Unattended Veh.or Prop.&lt;br/&gt;"/><marker lat="40.385442305756953" lng="-79.978801061800922" zone="Zone 3" incidentdate="2016-07-05" incidenttime="17:05:00" incidentnumber="16124973" address="2600 block Brownsville Rd" type="OFFENSE" age="" gender="" description="*********************************************** &lt;br/&gt;2709, Harassment (Non-Specific)&lt;br/&gt;"/><marker lat="40.440995381257942" lng="-79.938052743316064" zone="Zone 4" incidentdate="2016-07-05" incidenttime="12:00:00" incidentnumber="16124941" address="200 block Gladstone Rd" type="OFFENSE" age="" gender="" description="*********************************************** &lt;br/&gt;3921(a), Theft by Unlawful Taking or Disposition - Movable item&lt;br/&gt;"/><marker lat="40.466575061745516" lng="-79.911227616539364" zone="Zone 5" incidentdate="2016-07-05" incidenttime="02:37:00" incidentnumber="16124585" address="Larimer Ave &amp; Joseph St" type="OFFENSE" age="" gender="" description="*********************************************** &lt;br/&gt;3301, Arson&lt;br/&gt;"/><marker lat="40.449646657025653" lng="-79.892798110797884" zone="Zone 4" incidentdate="2016-07-05" incidenttime="18:00:00" incidentnumber="16124998" address="300 block N Braddock Ave" type="OFFENSE" age="" gender="" description="*********************************************** &lt;br/&gt;029, Missing Juvenile&lt;br/&gt;"/><marker lat="40.423782922202541" lng="-80.005228578428458" zone="Zone 3" incidentdate="2016-07-05" incidenttime="19:30:00" incidentnumber="16125088" address="100 block Ruth St" type="OFFENSE" age="" gender="" description="*********************************************** &lt;br/&gt;3922, Theft by Deception.&lt;br/&gt;"/><marker lat="40.47754547838678" lng="-80.036482582341762" zone="Zone 1" incidentdate="2016-07-05" incidenttime="19:23:00" incidentnumber="16125064" address="3400 block Mc Clure Ave" type="OFFENSE" age="" gender="" description="*********************************************** &lt;br/&gt;029, Missing Juvenile&lt;br/&gt;"/><marker lat="40.486307209227547" lng="-80.043447242593288" zone="Zone 1" incidentdate="2016-07-05" incidenttime="08:29:00" incidentnumber="16124670" address="4000 block California Ave" type="OFFENSE" age="" gender="" description="*********************************************** &lt;br/&gt;3934, Theft from Vehicle&lt;br/&gt;"/><marker lat="40.473529227782564" lng="-80.01009974796672" zone="Zone 1" incidentdate="2016-07-05" incidenttime="17:15:00" incidentnumber="16125003" address="2800 block Perrysville Ave" type="OFFENSE" age="" gender="" description="*********************************************** &lt;br/&gt;3921, Theft by Unlawful Taking or Disposition.&lt;br/&gt;"/><marker lat="40.4124342" lng="-80.0104664" zone="Zone 6" incidentdate="2016-07-05" incidenttime="02:30:00" incidentnumber="16124578" address="200 block Dawn Ave" type="OFFENSE" age="" gender="" description="*********************************************** &lt;br/&gt;5503, Disorderly Conduct.&lt;br/&gt;5505, Public Drunkenness&lt;br/&gt;9498, 302 (Mental)&lt;br/&gt;"/><marker lat="40.432542791990649" lng="-79.92435381355665" zone="Zone 4" incidentdate="2016-07-05" incidenttime="23:44:00" incidentnumber="16125099" address="5700 block Hobart St" type="OFFENSE" age="" gender="" description="*********************************************** &lt;br/&gt;9999, 9999 - (Misc. Incident):&lt;br/&gt;"/><marker lat="40.461880027299699" lng="-79.909978069923781" zone="Zone 5" incidentdate="2016-07-05" incidenttime="01:16:00" incidentnumber="16124543" address="6500 block Llewellyn Pl" type="OFFENSE" age="" gender="" description="*********************************************** &lt;br/&gt;2701, Simple Assault.&lt;br/&gt;"/><marker lat="40.453221410655409" lng="-79.906933010556244" zone="Zone 4" incidentdate="2016-07-05" incidenttime="17:15:00" incidentnumber="16125063" address="Thomas St &amp; N Dallas Ave" type="OFFENSE" age="" gender="" description="*********************************************** &lt;br/&gt;3304, Criminal Mischief.&lt;br/&gt;"/><marker lat="40.428131277738437" lng="-79.980832811884397" zone="Zone 3" incidentdate="2016-07-05" incidenttime="15:39:00" incidentnumber="16124895" address="100 block S 18th St" type="OFFENSE" age="" gender="" description="*********************************************** &lt;br/&gt;3743, Accidents Involving Damage to Attended Veh. or Property&lt;br/&gt;"/><marker lat="40.437801695240545" lng="-79.972791491902257" zone="Zone 4" incidentdate="2016-07-05" incidenttime="10:00:00" incidentnumber="16124764" address="2300 block 5th Ave" type="OFFENSE" age="" gender="" description="*********************************************** &lt;br/&gt;3921, Theft by Unlawful Taking or Disposition.&lt;br/&gt;"/><marker lat="40.375222106712251" lng="-80.003875652669691" zone="Zone 3" incidentdate="2016-07-05" incidenttime="17:00:00" incidentnumber="16125019" address="2900 block Homehurst Ave" type="OFFENSE" age="" gender="" description="*********************************************** &lt;br/&gt;2709, Harassment (Non-Specific)&lt;br/&gt;4912, Impersonating a Public Servant.&lt;br/&gt;"/><marker lat="40.4765967" lng="-79.9280880" zone="Zone 5" incidentdate="2016-07-05" incidenttime="18:48:00" incidentnumber="16125055" address="1100 block Heths Ave" type="OFFENSE" age="" gender="" description="*********************************************** &lt;br/&gt;3503(b.1), Criminal Trespass - Simple Trespasser&lt;br/&gt;"/><marker lat="40.482276168976519" lng="-79.934583805957587" zone="Zone 5" incidentdate="2016-07-05" incidenttime="00:01:00" incidentnumber="16124972" address="100 block Stanton Ct W" type="OFFENSE" age="" gender="" description="*********************************************** &lt;br/&gt;4120, Identity Theft&lt;br/&gt;"/><marker lat="40.473908709566494" lng="-80.002529986434709" zone="Zone 1" incidentdate="2016-07-05" incidenttime="02:00:00" incidentnumber="16124864" address="200 block Lamar St" type="OFFENSE" age="" gender="" description="*********************************************** &lt;br/&gt;3304, Criminal Mischief.&lt;br/&gt;3921, Theft by Unlawful Taking or Disposition.&lt;br/&gt;"/><marker lat="40.425744638749933" lng="-79.967667783552642" zone="Zone 3" incidentdate="2016-07-05" incidenttime="13:40:00" incidentnumber="16124819" address="2700 block Larkins Way" type="OFFENSE" age="" gender="" description="*********************************************** &lt;br/&gt;2701, Simple Assault.&lt;br/&gt;3934, Theft from Vehicle&lt;br/&gt;"/><marker lat="40.465157804159951" lng="-79.922171643415098" zone="Zone 5" incidentdate="2016-07-05" incidenttime="10:05:00" incidentnumber="16124707" address="400 block N Highland Ave" type="OFFENSE" age="" gender="" description="*********************************************** &lt;br/&gt;3929(a)(1), Retail Theft; takes possession of, carries away, or transfers displayed merchandise&lt;br/&gt;"/><marker lat="40.485523467094538" lng="-80.039233606887478" zone="Zone 1" incidentdate="2016-07-05" incidenttime="14:22:00" incidentnumber="16124841" address="1800 block Kleber St" type="OFFENSE" age="" gender="" description="*********************************************** &lt;br/&gt;3921, Theft by Unlawful Taking or Disposition.&lt;br/&gt;3925, Receiving Stolen Property.&lt;br/&gt;6105(c)(9), Persons Not To Possess Use Manuf, Control Firearm&lt;br/&gt;"/><marker lat="40.474325242573443" lng="-80.035259791120851" zone="Zone 1" incidentdate="2016-07-05" incidenttime="19:41:00" incidentnumber="16125087" address="3200 block Richardson Ave" type="OFFENSE" age="" gender="" description="*********************************************** &lt;br/&gt;3502, Burglary.&lt;br/&gt;2701, Simple Assault.&lt;br/&gt;3925, Receiving Stolen Property.&lt;br/&gt;"/><marker lat="40.429568428667658" lng="-79.914784883363154" zone="Zone 4" incidentdate="2016-07-05" incidenttime="20:30:00" incidentnumber="16125119" address="English Ln" type="OFFENSE" age="" gender="" description="*********************************************** &lt;br/&gt;3304, Criminal Mischief.&lt;br/&gt;"/><marker lat="40.454811442501736" lng="-80.051955549671305" zone="Zone 6" incidentdate="2016-07-05" incidenttime="18:45:00" incidentnumber="16125051" address="2900 block Zephyr Ave" type="OFFENSE" age="" gender="" description="*********************************************** &lt;br/&gt;029, Missing Juvenile&lt;br/&gt;"/><marker lat="40.450892721440539" lng="-80.000843891836467" zone="Zone 1" incidentdate="2016-07-05" incidenttime="15:17:00" incidentnumber="16124873" address="300 block Cedar Ave" type="OFFENSE" age="" gender="" description="*********************************************** &lt;br/&gt;3929, Retail Theft.&lt;br/&gt;2701(a)(1), Simple Assault - Intent., Know., Reckless.Cause Bod. Injury&lt;br/&gt;"/><marker lat="40.439672430457314" lng="-80.023720617604027" zone="Zone 3" incidentdate="2016-07-05" incidenttime="00:10:00" incidentnumber="16124489" address="1600 block Rutledge St" type="OFFENSE" age="" gender="" description="*********************************************** &lt;br/&gt;3701, Robbery.&lt;br/&gt;2706, Terroristic Threats.&lt;br/&gt;2701(a)(3), Simple Assault - Attempts by Physical Menace&lt;br/&gt;"/><marker lat="40.44144383856586" lng="-80.055364839913167" zone="Zone 6" incidentdate="2016-07-05" incidenttime="08:00:00" incidentnumber="16124746" address="Norwalk St" type="OFFENSE" age="" gender="" description="*********************************************** &lt;br/&gt;3921(a), Theft by Unlawful Taking or Disposition - Movable item&lt;br/&gt;4106, Access Device Fraud&lt;br/&gt;"/><marker lat="40.447439406132609" lng="-80.081293202290169" zone="Zone 6" incidentdate="2016-07-05" incidenttime="15:25:00" incidentnumber="16124883" address="Escolta St &amp; W Prospect Ave" type="OFFENSE" age="" gender="" description="*********************************************** &lt;br/&gt;3304, Criminal Mischief.&lt;br/&gt;"/><marker lat="40.384981582091967" lng="-79.993635290679819" zone="Zone 3" incidentdate="2016-07-05" incidenttime="02:51:00" incidentnumber="16124593" address="2400 block Fairland St" type="OFFENSE" age="" gender="" description="*********************************************** &lt;br/&gt;2701, Simple Assault.&lt;br/&gt;"/><marker lat="40.400295745470693" lng="-80.018008243959343" zone="Zone 6" incidentdate="2016-07-05" incidenttime="13:20:00" incidentnumber="16125007" address="300 block Lamarido St" type="OFFENSE" age="" gender="" description="*********************************************** &lt;br/&gt;3304(a)(5), CRIMINAL MISCHIEF - Intentionally Damages Real Or Personal Property Of Another&lt;br/&gt;2709(a)(1), Harassment by Physical Contact, or Attempts or Threats&lt;br/&gt;"/><marker lat="40.449469284796763" lng="-79.975556473583893" zone="Zone 2" incidentdate="2016-07-05" incidenttime="14:30:00" incidentnumber="16124843" address="2300 block Bedford Ave" type="OFFENSE" age="" gender="" description="*********************************************** &lt;br/&gt;2709(a), Harassment.&lt;br/&gt;"/><marker lat="40.460425931184275" lng="-79.913790490191914" zone="Zone 5" incidentdate="2016-07-05" incidenttime="16:00:00" incidentnumber="16124958" address="Frankstown Ave &amp; Enterprise St" type="OFFENSE" age="" gender="" description="*********************************************** &lt;br/&gt;3934, Theft from Vehicle&lt;br/&gt;"/><marker lat="40.441569295747946" lng="-80.040474475526466" zone="Zone 6" incidentdate="2016-07-05" incidenttime="18:13:00" incidentnumber="16125026" address="800 block Steuben St" type="OFFENSE" age="" gender="" description="*********************************************** &lt;br/&gt;13(a)(16), Possession of Controlled Substance&lt;br/&gt;13(a)(31), Marijuana: Possession Small Amount&lt;br/&gt;"/><marker lat="40.42235132534023" lng="-79.988434891435489" zone="Zone 3" incidentdate="2016-07-05" incidenttime="15:00:00" incidentnumber="16125024" address="1000 block St Martin St" type="OFFENSE" age="" gender="" description="*********************************************** &lt;br/&gt;3934, Theft from Vehicle&lt;br/&gt;"/><marker lat="40.450496053299034" lng="-80.065400619016998" zone="Zone 6" incidentdate="2016-07-05" incidenttime="02:00:00" incidentnumber="16124568" address="3100 block Middletown Rd" type="OFFENSE" age="" gender="" description="*********************************************** &lt;br/&gt;3745, Accidents Involving Damage to Unattended Veh.or Prop.&lt;br/&gt;"/><marker lat="40.437440915250725" lng="-79.993100773269362" zone="Zone 2" incidentdate="2016-07-05" incidenttime="00:01:00" incidentnumber="16124862" address="700 block Forbes Ave" type="OFFENSE" age="" gender="" description="*********************************************** &lt;br/&gt;9999, 9999 - (Misc. Incident):&lt;br/&gt;"/><marker lat="40.405342585589878" lng="-79.937082651746778" zone="Zone 4" incidentdate="2016-07-05" incidenttime="00:22:00" incidentnumber="16124460" address="Mansion St &amp; Johnston Ave" type="OFFENSE" age="" gender="" description="*********************************************** &lt;br/&gt;9498, 302 (Mental)&lt;br/&gt;"/><marker lat="40.449646657025653" lng="-79.892798110797884" zone="Zone 4" incidentdate="2016-07-05" incidenttime="01:19:00" incidentnumber="16124509" address="300 block N Braddock Ave" type="OFFENSE" age="" gender="" description="*********************************************** &lt;br/&gt;9498, 302 (Mental)&lt;br/&gt;"/><marker lat="40.442626750088195" lng="-79.998926919030637" zone="Zone 2" incidentdate="2016-07-05" incidenttime="10:00:00" incidentnumber="16124947" address="800 block Liberty Ave" type="OFFENSE" age="" gender="" description="*********************************************** &lt;br/&gt;9999, 9999 - (Misc. Incident):&lt;br/&gt;"/><marker lat="40.416601714943965" lng="-79.997457819781587" zone="Zone 3" incidentdate="2016-07-05" incidenttime="11:30:00" incidentnumber="16124739" address="700 block Beltzhoover Ave" type="OFFENSE" age="" gender="" description="*********************************************** &lt;br/&gt;9490, Missing Persons (18 and Over)&lt;br/&gt;"/><marker lat="40.447070656722659" lng="-79.895151948393476" zone="Zone 4" incidentdate="2016-07-05" incidenttime="09:20:00" incidentnumber="16124688" address="7600 block Penn Ave" type="OFFENSE" age="" gender="" description="*********************************************** &lt;br/&gt;3929, Retail Theft.&lt;br/&gt;"/><marker lat="40.425371808712953" lng="-79.94216631853314" zone="Zone 4" incidentdate="2016-07-05" incidenttime="21:45:00" incidentnumber="16125161" address="500 block Greenfield Ave" type="OFFENSE" age="" gender="" description="*********************************************** &lt;br/&gt;3304, Criminal Mischief.&lt;br/&gt;"/><marker lat="40.431452440345801" lng="-80.05354381600165" zone="Zone 6" incidentdate="2016-07-05" incidenttime="20:14:00" incidentnumber="16125103" address="2100 block Noblestown Rd" type="OFFENSE" age="" gender="" description="*********************************************** &lt;br/&gt;13(a)(16), Possession of Controlled Substance&lt;br/&gt;13(a)(32), Paraphernalia - Use or Possession&lt;br/&gt;"/><marker lat="40.5613902" lng="-80.2065183" zone="Zone 1" incidentdate="2016-07-05" incidenttime="10:25:00" incidentnumber="16124789" address="Ohio River Blvd &amp; Marshall Avenue Ramp" type="OFFENSE" age="" gender="" description="*********************************************** &lt;br/&gt;3743, Accidents Involving Damage to Attended Veh. or Property&lt;br/&gt;"/><marker lat="40.45419849568632" lng="-80.0136708120816" zone="Zone 1" incidentdate="2016-07-05" incidenttime="17:36:00" incidentnumber="16125001" address="700 block W North Ave" type="OFFENSE" age="" gender="" description="*********************************************** &lt;br/&gt;1543, Driving While Operating Privilege is Suspended or Revoked.&lt;br/&gt;3802(a)(1), DUI - General Impairment&lt;br/&gt;3928, Unauthorized Use of Automobile and Other Vehicles.&lt;br/&gt;"/><marker lat="40.404822944398759" lng="-79.934938582152668" zone="Zone 4" incidentdate="2016-07-05" incidenttime="12:45:00" incidentnumber="16124885" address="600 block Johnston Ave" type="OFFENSE" age="" gender="" description="*********************************************** &lt;br/&gt;3304(a)(5), CRIMINAL MISCHIEF - Intentionally Damages Real Or Personal Property Of Another&lt;br/&gt;"/><marker lat="40.435512543109617" lng="-79.927205030233949" zone="Zone 4" incidentdate="2016-07-05" incidenttime="00:01:00" incidentnumber="16125017" address="5600 block Bartlett St" type="OFFENSE" age="" gender="" description="*********************************************** &lt;br/&gt;3934, Theft from Vehicle&lt;br/&gt;"/><marker lat="40.418228962951112" lng="-79.974281891386966" zone="Zone 3" incidentdate="2016-07-05" incidenttime="00:01:00" incidentnumber="16124491" address="1600 block Sterling St" type="OFFENSE" age="" gender="" description="*********************************************** &lt;br/&gt;3502, Burglary.&lt;br/&gt;3701, Robbery.&lt;br/&gt;"/><marker lat="40.466301368364185" lng="-80.011090311070006" zone="Zone 1" incidentdate="2016-07-05" incidenttime="15:11:00" incidentnumber="16124869" address="2300 block Perrysville Ave" type="OFFENSE" age="" gender="" description="*********************************************** &lt;br/&gt;3928, Unauthorized Use of Automobile and Other Vehicles.&lt;br/&gt;"/><marker lat="40.473927946275474" lng="-80.028829566091972" zone="Zone 1" incidentdate="2016-07-05" incidenttime="15:52:00" incidentnumber="16124903" address="3100 block Brighton Rd" type="OFFENSE" age="" gender="" description="*********************************************** &lt;br/&gt;3929, Retail Theft.&lt;br/&gt;"/><marker lat="40.410544917991331" lng="-80.023751492195728" zone="Zone 6" incidentdate="2016-07-05" incidenttime="13:00:00" incidentnumber="16124817" address="1000 block Hampshire Ave" type="OFFENSE" age="" gender="" description="*********************************************** &lt;br/&gt;9504, Lost Property&lt;br/&gt;"/><marker lat="40.465681986780268" lng="-79.948036429790648" zone="Zone 5" incidentdate="2016-07-05" incidenttime="15:45:00" incidentnumber="16124906" address="Penn Ave &amp; Pearl St" type="OFFENSE" age="" gender="" description="*********************************************** &lt;br/&gt;9093, Indirect Criminal Contempt&lt;br/&gt;"/><marker lat="40.445748880216051" lng="-79.956336727542634" zone="Zone 4" incidentdate="2016-07-05" incidenttime="08:00:00" incidentnumber="16124649" address="200 block Parkman Ave" type="OFFENSE" age="" gender="" description="*********************************************** &lt;br/&gt;3502, Burglary.&lt;br/&gt;"/><marker lat="40.477720583405798" lng="-79.950590289785978" zone="Zone 2" incidentdate="2016-07-05" incidenttime="02:25:00" incidentnumber="16124581" address="5200 block Wickliff St" type="OFFENSE" age="" gender="" description="*********************************************** &lt;br/&gt;9497, Aided Case&lt;br/&gt;"/><marker lat="40.469641696554454" lng="-79.903687926502812" zone="Zone 5" incidentdate="2016-07-05" incidenttime="12:17:00" incidentnumber="16124078" address="6400 block Navarro St" type="OFFENSE" age="" gender="" description="*********************************************** &lt;br/&gt;4915, Failure to Comply with Megans Law&lt;br/&gt;"/><marker lat="40.453470511792048" lng="-80.001533243378148" zone="Zone 1" incidentdate="2016-07-05" incidenttime="09:42:00" incidentnumber="16124697" address="400 block East Ohio St" type="OFFENSE" age="" gender="" description="*********************************************** &lt;br/&gt;9496, Dead on Arrival (DOA)&lt;br/&gt;"/><marker lat="40.440696417919249" lng="-79.954591082015028" zone="Zone 4" incidentdate="2016-07-05" incidenttime="00:33:00" incidentnumber="16124520" address="300 block S Bouquet St" type="OFFENSE" age="" gender="" description="*********************************************** &lt;br/&gt;3502, Burglary.&lt;br/&gt;"/><marker lat="40.473349600095005" lng="-80.002822219962013" zone="Zone 1" incidentdate="2016-07-05" incidenttime="16:00:00" incidentnumber="16124912" address="100 block Penfort St" type="OFFENSE" age="" gender="" description="*********************************************** &lt;br/&gt;2709(a)(1), Harassment by Physical Contact, or Attempts or Threats&lt;br/&gt;"/><marker lat="40.392365478702068" lng="-80.007850102574906" zone="Zone 6" incidentdate="2016-07-05" incidenttime="18:33:00" incidentnumber="16090938" address="1400 block BROOKLINE Blvd" type="ARREST" age="36" gender="M" description="*********************************************** &lt;br/&gt;3921(a), Theft by Unlawful Taking or Disposition - Movable item&lt;br/&gt;4106, Access Device Fraud&lt;br/&gt;3928, Unauthorized Use of Automobile and Other Vehicles.&lt;br/&gt;"/><marker lat="40.450892721440539" lng="-80.000843891836467" zone="Zone 1" incidentdate="2016-07-05" incidenttime="15:17:00" incidentnumber="16124873" address="300 block Cedar Ave" type="ARREST" age="28" gender="F" description="*********************************************** &lt;br/&gt;3929, Retail Theft.&lt;br/&gt;2701(a)(1), Simple Assault - Intent., Know., Reckless.Cause Bod. Injury&lt;br/&gt;"/><marker lat="40.439672430457314" lng="-80.023720617604027" zone="Zone 3" incidentdate="2016-07-05" incidenttime="00:39:00" incidentnumber="16124489" address="1600 block Rutledge St" type="ARREST" age="22" gender="M" description="*********************************************** &lt;br/&gt;3701, Robbery.&lt;br/&gt;2706, Terroristic Threats.&lt;br/&gt;2701(a)(3), Simple Assault - Attempts by Physical Menace&lt;br/&gt;"/><marker lat="40.385864795251649" lng="-79.981919725888744" zone="Zone 3" incidentdate="2016-07-05" incidenttime="01:38:00" incidentnumber="16124553" address="2500 block Edgar St" type="ARREST" age="34" gender="M" description="*********************************************** &lt;br/&gt;2701, Simple Assault.&lt;br/&gt;"/><marker lat="40.431452440345801" lng="-80.05354381600165" zone="Zone 6" incidentdate="2016-07-05" incidenttime="20:16:00" incidentnumber="16125103" address="2100 block Noblestown Rd" type="ARREST" age="47" gender="F" description="*********************************************** &lt;br/&gt;13(a)(16), Possession of Controlled Substance&lt;br/&gt;13(a)(32), Paraphernalia - Use or Possession&lt;br/&gt;"/><marker lat="40.474950003578549" lng="-80.01124837592549" zone="Zone 1" incidentdate="2016-07-05" incidenttime="08:02:00" incidentnumber="16124655" address="Perrysville Ave &amp; Marshall Ave" type="ARREST" age="65" gender="M" description="*********************************************** &lt;br/&gt;1786, Required Financial Responsibility.&lt;br/&gt;1543, Driving While Operating Privilege is Suspended or Revoked.&lt;br/&gt;4703, Operation of Vehicle without Official Certif. of Inspection&lt;br/&gt;7122, Altered, Forged or Counterfeit Documents and Plates&lt;br/&gt;"/><marker lat="40.479581343492164" lng="-79.953268501641176" zone="Zone 2" incidentdate="2016-07-05" incidenttime="09:00:00" incidentnumber="16077992" address="Natrona Way &amp; 52nd St" type="ARREST" age="23" gender="M" description="*********************************************** &lt;br/&gt;13(a)(16), Possession of Controlled Substance&lt;br/&gt;13(a)(30), Possession w/ Intent to Del. Controlled Substance&lt;br/&gt;13(a)(30)*, Delivery of Controlled Substance&lt;br/&gt;903, Criminal Conspiracy.&lt;br/&gt;7512, Criminal Use of Communication&lt;br/&gt;"/><marker lat="40.454628098407937" lng="-79.897524448015091" zone="Zone 5" incidentdate="2016-07-05" incidenttime="17:57:00" incidentnumber="16125018" address="Hamilton Ave &amp; N Homewood Ave" type="ARREST" age="40" gender="M" description="*********************************************** &lt;br/&gt;13(a)(16), Possession of Controlled Substance&lt;br/&gt;13(a)(32), Paraphernalia - Use or Possession&lt;br/&gt;3324, Vehicle Entering or Crossing Roadway.&lt;br/&gt;"/><marker lat="40.474325242573443" lng="-80.035259791120851" zone="Zone 1" incidentdate="2016-07-05" incidenttime="21:10:00" incidentnumber="16125087" address="3200 block Richardson Ave" type="ARREST" age="45" gender="M" description="*********************************************** &lt;br/&gt;3502, Burglary.&lt;br/&gt;2701, Simple Assault.&lt;br/&gt;3925, Receiving Stolen Property.&lt;br/&gt;"/><marker lat="40.454628098407937" lng="-79.897524448015091" zone="Zone 5" incidentdate="2016-07-05" incidenttime="17:57:00" incidentnumber="16125018" address="Hamilton Ave &amp; N Homewood Ave" type="ARREST" age="32" gender="F" description="*********************************************** &lt;br/&gt;13(a)(16), Possession of Controlled Substance&lt;br/&gt;13(a)(32), Paraphernalia - Use or Possession&lt;br/&gt;3324, Vehicle Entering or Crossing Roadway.&lt;br/&gt;"/><marker lat="40.457496250609658" lng="-79.893780813635146" zone="Zone 5" incidentdate="2016-07-05" incidenttime="16:00:00" incidentnumber="16122262" address="7300 block Idlewild St" type="ARREST" age="23" gender="F" description="*********************************************** &lt;br/&gt;2701(a)(1), Simple Assault - Intent., Know., Reckless.Cause Bod. Injury&lt;br/&gt;"/><marker lat="40.454948691850667" lng="-80.009640272832598" zone="Zone 1" incidentdate="2016-07-05" incidenttime="20:50:00" incidentnumber="16006620" address="300 block E North Ave" type="ARREST" age="25" gender="M" description="*********************************************** &lt;br/&gt;5503, Disorderly Conduct.&lt;br/&gt;2702, Aggravated Assault.&lt;br/&gt;2706, Terroristic Threats.&lt;br/&gt;"/><marker lat="40.461880027299699" lng="-79.909978069923781" zone="Zone 5" incidentdate="2016-07-05" incidenttime="01:20:00" incidentnumber="16124543" address="6500 block Llewellyn Pl" type="ARREST" age="49" gender="F" description="*********************************************** &lt;br/&gt;2701, Simple Assault.&lt;br/&gt;"/><marker lat="40.438721756509537" lng="-79.999466085108594" zone="Zone 2" incidentdate="2016-07-05" incidenttime="08:58:00" incidentnumber="16067196" address="400 block Smithfield St" type="ARREST" age="34" gender="F" description="*********************************************** &lt;br/&gt;3921(a), Theft by Unlawful Taking or Disposition - Movable item&lt;br/&gt;7611, Unlawful Use of Computer&lt;br/&gt;"/><marker lat="40.44511004552583" lng="-80.039246537687731" zone="Zone 6" incidentdate="2016-07-05" incidenttime="04:50:00" incidentnumber="16082911" address="700 block Lorenz Ave" type="ARREST" age="36" gender="F" description="*********************************************** &lt;br/&gt;2701, Simple Assault.&lt;br/&gt;2701(a)(1), Simple Assault - Intent., Know., Reckless.Cause Bod. Injury&lt;br/&gt;"/><marker lat="40.425744638749933" lng="-79.967667783552642" zone="Zone 3" incidentdate="2016-07-05" incidenttime="13:40:00" incidentnumber="16124819" address="2700 block Larkins Way" type="ARREST" age="31" gender="M" description="*********************************************** &lt;br/&gt;2701, Simple Assault.&lt;br/&gt;3934, Theft from Vehicle&lt;br/&gt;"/><marker lat="40.468497634696611" lng="-79.941878881562516" zone="Zone 5" incidentdate="2016-07-05" incidenttime="03:58:00" incidentnumber="16124609" address="5100 block Hillcrest St" type="ARREST" age="27" gender="M" description="*********************************************** &lt;br/&gt;2702, Aggravated Assault.&lt;br/&gt;"/><marker lat="40.467375034401172" lng="-79.957944364123122" zone="Zone 6" incidentdate="2016-07-05" incidenttime="11:30:00" incidentnumber="16021969" address="300 block S Main St" type="ARREST" age="22" gender="M" description="*********************************************** &lt;br/&gt;13(a)(16), Possession of Controlled Substance&lt;br/&gt;13(a)(30), Possession w/ Intent to Del. Controlled Substance&lt;br/&gt;13(a)(30)*, Delivery of Controlled Substance&lt;br/&gt;"/><marker lat="40.392365478702068" lng="-80.007850102574906" zone="Zone 6" incidentdate="2016-07-05" incidenttime="18:33:00" incidentnumber="16104516" address="1400 block Brookline Blvd" type="ARREST" age="36" gender="M" description="*********************************************** &lt;br/&gt;3921, Theft by Unlawful Taking or Disposition.&lt;br/&gt;"/><marker lat="40.45419849568632" lng="-80.0136708120816" zone="Zone 1" incidentdate="2016-07-05" incidenttime="17:45:00" incidentnumber="16125001" address="700 block W North Ave" type="ARREST" age="46" gender="M" description="*********************************************** &lt;br/&gt;1543, Driving While Operating Privilege is Suspended or Revoked.&lt;br/&gt;3802(a)(1), DUI - General Impairment&lt;br/&gt;3928, Unauthorized Use of Automobile and Other Vehicles.&lt;br/&gt;"/><marker lat="40.42749877927298" lng="-79.985129780195464" zone="Zone 3" incidentdate="2016-07-05" incidenttime="13:40:00" incidentnumber="16085300" address="1300 block Sarah St" type="ARREST" age="31" gender="M" description="*********************************************** &lt;br/&gt;3934, Theft from Vehicle&lt;br/&gt;"/><marker lat="40.441569295747946" lng="-80.040474475526466" zone="Zone 6" incidentdate="2016-07-05" incidenttime="18:20:00" incidentnumber="16125026" address="800 block Steuben St" type="ARREST" age="38" gender="F" description="*********************************************** &lt;br/&gt;13(a)(16), Possession of Controlled Substance&lt;br/&gt;13(a)(31), Marijuana: Possession Small Amount&lt;br/&gt;"/><marker lat="40.465157804159951" lng="-79.922171643415098" zone="Zone 5" incidentdate="2016-07-05" incidenttime="10:13:00" incidentnumber="16124707" address="400 block N Highland Ave" type="ARREST" age="29" gender="M" description="*********************************************** &lt;br/&gt;3929(a)(1), Retail Theft; takes possession of, carries away, or transfers displayed merchandise&lt;br/&gt;"/></markers>
