<?xml version="1.0"?>
<markers><marker lat="40.431011201998153" lng="-79.980332793025241" zone="Zone 3" incidentdate="2016-09-20" incidenttime="13:30:00" incidentnumber="16178106" address="S 18th St &amp; Merriman St" type="OFFENSE" age="" gender="" description="*********************************************** &lt;br/&gt;2709, Harassment (Non-Specific)&lt;br/&gt;"/><marker lat="40.383772549126533" lng="-79.978223841878759" zone="Zone 3" incidentdate="2016-09-20" incidenttime="16:15:00" incidentnumber="16178244" address="Merritt Ave &amp; Windfall Way" type="OFFENSE" age="" gender="" description="*********************************************** &lt;br/&gt;3743, Accidents Involving Damage to Attended Veh. or Property&lt;br/&gt;"/><marker lat="40.4540551" lng="-79.9544073" zone="Zone 2" incidentdate="2016-09-20" incidenttime="16:15:00" incidentnumber="16178202" address="3900 block bigelow Blvd" type="OFFENSE" age="" gender="" description="*********************************************** &lt;br/&gt;3743, Accidents Involving Damage to Attended Veh. or Property&lt;br/&gt;"/><marker lat="40.455560971447973" lng="-80.0505056301633" zone="Zone 6" incidentdate="2016-09-20" incidenttime="07:48:00" incidentnumber="16177902" address="Hammond St &amp; Merwyn Ave" type="OFFENSE" age="" gender="" description="*********************************************** &lt;br/&gt;3304, Criminal Mischief.&lt;br/&gt;2709, Harassment (Non-Specific)&lt;br/&gt;"/><marker lat="40.475243138053401" lng="-80.027385031391674" zone="Zone 1" incidentdate="2016-09-20" incidenttime="18:31:00" incidentnumber="16178300" address="3200 block Central Ave" type="OFFENSE" age="" gender="" description="*********************************************** &lt;br/&gt;9490, Missing Persons (18 and Over)&lt;br/&gt;"/><marker lat="40.480830649612678" lng="-79.939697951744861" zone="Zone 5" incidentdate="2016-09-20" incidenttime="16:30:00" incidentnumber="16178289" address="4500 block Coleridge St" type="OFFENSE" age="" gender="" description="*********************************************** &lt;br/&gt;3921, Theft by Unlawful Taking or Disposition.&lt;br/&gt;"/><marker lat="40.4400455" lng="-80.0047334" zone="Zone 2" incidentdate="2016-09-20" incidenttime="18:40:00" incidentnumber="16178706" address="600 block Stanwix St" type="OFFENSE" age="" gender="" description="*********************************************** &lt;br/&gt;9489, Found Property&lt;br/&gt;"/><marker lat="40.440514946221782" lng="-79.964826501760243" zone="Zone 4" incidentdate="2016-09-20" incidenttime="11:00:00" incidentnumber="16178069" address="200 block Dunseith St" type="OFFENSE" age="" gender="" description="*********************************************** &lt;br/&gt;3304, Criminal Mischief.&lt;br/&gt;"/><marker lat="40.453360717234645" lng="-80.003927241484959" zone="Zone 1" incidentdate="2016-09-20" incidenttime="07:20:00" incidentnumber="16177896" address="Allegheny Sq E" type="OFFENSE" age="" gender="" description="*********************************************** &lt;br/&gt;3934, Theft from Vehicle&lt;br/&gt;"/><marker lat="40.433064780152158" lng="-80.003714134161328" zone="Zone 3" incidentdate="2016-09-20" incidenttime="08:55:00" incidentnumber="16178267" address="100 block Station Square Dr W" type="OFFENSE" age="" gender="" description="*********************************************** &lt;br/&gt;3745, Accidents Involving Damage to Unattended Veh.or Prop.&lt;br/&gt;"/><marker lat="40.468693075773288" lng="-79.961677392158549" zone="Zone 2" incidentdate="2016-09-20" incidenttime="16:20:00" incidentnumber="16178183" address="4000 block Butler St" type="OFFENSE" age="" gender="" description="*********************************************** &lt;br/&gt;3921(a), Theft by Unlawful Taking or Disposition - Movable item&lt;br/&gt;"/><marker lat="40.385442305756953" lng="-79.978801061800922" zone="Zone 3" incidentdate="2016-09-20" incidenttime="19:58:00" incidentnumber="16178361" address="2600 block Brownsville Rd" type="OFFENSE" age="" gender="" description="*********************************************** &lt;br/&gt;3502, Burglary.&lt;br/&gt;"/><marker lat="40.415975725052654" lng="-79.938577745531404" zone="Zone 4" incidentdate="2016-09-20" incidenttime="12:15:00" incidentnumber="16178184" address="Hazelwood Ave &amp; Sabina St" type="OFFENSE" age="" gender="" description="*********************************************** &lt;br/&gt;3304, Criminal Mischief.&lt;br/&gt;3717, Trespass by Motor Vehicle&lt;br/&gt;"/><marker lat="40.462082342152954" lng="-79.897556904752165" zone="Zone 5" incidentdate="2016-09-20" incidenttime="10:30:00" incidentnumber="16178003" address="Mt Vernon St &amp; N Lang Ave" type="OFFENSE" age="" gender="" description="*********************************************** &lt;br/&gt;3736, Reckless Driving&lt;br/&gt;3742, Accidents Involving Death or Personal Injury&lt;br/&gt;3743, Accidents Involving Damage to Attended Veh. or Property&lt;br/&gt;3323, Stop Signs and Yield Signs.&lt;br/&gt;3746, Immediate Notice of Accident to Police Department&lt;br/&gt;1785, Proof of Financial Responsibility Following Accident.&lt;br/&gt;"/><marker lat="40.475956582720592" lng="-79.920692583769608" zone="Zone 5" incidentdate="2016-09-20" incidenttime="07:28:00" incidentnumber="16177893" address="5800 block Bryant St" type="OFFENSE" age="" gender="" description="*********************************************** &lt;br/&gt;9489, Found Property&lt;br/&gt;"/><marker lat="40.46971400192939" lng="-80.007940822494888" zone="Zone 1" incidentdate="2016-09-20" incidenttime="20:13:00" incidentnumber="16178367" address="2500 block Perrysville Ave" type="OFFENSE" age="" gender="" description="*********************************************** &lt;br/&gt;9488, False  Burglar Alarm&lt;br/&gt;"/><marker lat="40.438721756509537" lng="-79.999466085108594" zone="Zone 2" incidentdate="2016-09-20" incidenttime="12:55:00" incidentnumber="16178094" address="400 block Smithfield St" type="OFFENSE" age="" gender="" description="*********************************************** &lt;br/&gt;9093, Indirect Criminal Contempt&lt;br/&gt;"/><marker lat="40.453186513014479" lng="-79.932451577602478" zone="Zone 4" incidentdate="2016-09-20" incidenttime="07:45:00" incidentnumber="16177915" address="Elmer St &amp; Myrtle Way" type="OFFENSE" age="" gender="" description="*********************************************** &lt;br/&gt;3921, Theft by Unlawful Taking or Disposition.&lt;br/&gt;"/><marker lat="40.447502334719239" lng="-80.051783949854453" zone="Zone 6" incidentdate="2016-09-20" incidenttime="18:40:00" incidentnumber="16178323" address="1600 block Crucible St" type="OFFENSE" age="" gender="" description="*********************************************** &lt;br/&gt;3745, Accidents Involving Damage to Unattended Veh.or Prop.&lt;br/&gt;"/><marker lat="40.419107541785827" lng="-79.997313679378507" zone="Zone 3" incidentdate="2016-09-20" incidenttime="09:20:00" incidentnumber="16177950" address="Freeland St &amp; Beltzhoover Ave" type="OFFENSE" age="" gender="" description="*********************************************** &lt;br/&gt;3701, Robbery.&lt;br/&gt;"/><marker lat="40.449646657025653" lng="-79.892798110797884" zone="Zone 4" incidentdate="2016-09-20" incidenttime="02:05:00" incidentnumber="16177791" address="300 block N Braddock Ave" type="OFFENSE" age="" gender="" description="*********************************************** &lt;br/&gt;3503(b)(1)(i), Actual Communication&lt;br/&gt;"/><marker lat="40.428614279173594" lng="-79.959985285772632" zone="Zone 4" incidentdate="2016-09-20" incidenttime="16:30:00" incidentnumber="16178223" address="Hot Metal St. Brg" type="OFFENSE" age="" gender="" description="*********************************************** &lt;br/&gt;13(a)(31), Marijuana: Possession Small Amount&lt;br/&gt;1543, Driving While Operating Privilege is Suspended or Revoked.&lt;br/&gt;3743, Accidents Involving Damage to Attended Veh. or Property&lt;br/&gt;"/><marker lat="40.4283603" lng="-79.9656380" zone="Zone 3" incidentdate="2016-09-20" incidenttime="13:17:00" incidentnumber="16178098" address="400 block S 27th St" type="OFFENSE" age="" gender="" description="*********************************************** &lt;br/&gt;3924, Theft of Property Lost, Mislaid or Delivered by Mistake.&lt;br/&gt;"/><marker lat="40.47452965780257" lng="-80.028667696752336" zone="Zone 1" incidentdate="2016-09-20" incidenttime="08:17:00" incidentnumber="16177914" address="3100 block Sorento St" type="OFFENSE" age="" gender="" description="*********************************************** &lt;br/&gt;3701, Robbery.&lt;br/&gt;"/><marker lat="40.428027717038823" lng="-80.066420128286993" zone="Zone 6" incidentdate="2016-09-20" incidenttime="16:50:00" incidentnumber="16178224" address="Oakwood Rd" type="OFFENSE" age="" gender="" description="*********************************************** &lt;br/&gt;3304(a)(5), CRIMINAL MISCHIEF - Intentionally Damages Real Or Personal Property Of Another&lt;br/&gt;"/><marker lat="40.406771944309206" lng="-79.992185686246444" zone="Zone 3" incidentdate="2016-09-20" incidenttime="19:00:00" incidentnumber="16178393" address="Calhoun Ave" type="OFFENSE" age="" gender="" description="*********************************************** &lt;br/&gt;3304, Criminal Mischief.&lt;br/&gt;"/><marker lat="40.429737927441074" lng="-79.923485321015463" zone="Zone 4" incidentdate="2016-09-20" incidenttime="14:35:00" incidentnumber="16178199" address="Forward Ave &amp; Murray Ave" type="OFFENSE" age="" gender="" description="*********************************************** &lt;br/&gt;2701, Simple Assault.&lt;br/&gt;"/><marker lat="40.449754486679936" lng="-80.001012556177216" zone="Zone 1" incidentdate="2016-09-20" incidenttime="12:57:00" incidentnumber="16178084" address="Anderson St &amp; N I279 Hwy" type="OFFENSE" age="" gender="" description="*********************************************** &lt;br/&gt;9497, Aided Case&lt;br/&gt;"/><marker lat="40.421531877189601" lng="-79.993577564166102" zone="Zone 3" incidentdate="2016-09-20" incidenttime="18:59:00" incidentnumber="16178322" address="800 block E Warrington Ave" type="OFFENSE" age="" gender="" description="*********************************************** &lt;br/&gt;9999, 9999 - (Misc. Incident):&lt;br/&gt;"/><marker lat="40.455273086676286" lng="-80.008870414965187" zone="Zone 1" incidentdate="2016-09-20" incidenttime="20:55:00" incidentnumber="16178395" address="200 block N Shore Dr" type="OFFENSE" age="" gender="" description="*********************************************** &lt;br/&gt;3701, Robbery.&lt;br/&gt;"/><marker lat="40.458855146164019" lng="-80.007764552006336" zone="Zone 1" incidentdate="2016-09-20" incidenttime="22:28:00" incidentnumber="16178441" address="Federal St N &amp; Henderson St" type="OFFENSE" age="" gender="" description="*********************************************** &lt;br/&gt;13(a)(16), Possession of Controlled Substance&lt;br/&gt;13(a)(32), Paraphernalia - Use or Possession&lt;br/&gt;5123, Contraband.&lt;br/&gt;"/><marker lat="40.471846093379909" lng="-80.027025287370407" zone="Zone 1" incidentdate="2016-09-20" incidenttime="10:36:00" incidentnumber="16178054" address="2900 block Brighton Rd" type="OFFENSE" age="" gender="" description="*********************************************** &lt;br/&gt;3929, Retail Theft.&lt;br/&gt;"/><marker lat="40.45166155688208" lng="-80.04198127087345" zone="Zone 6" incidentdate="2016-09-20" incidenttime="08:34:00" incidentnumber="16177921" address="Corliss St &amp; Rudd St" type="OFFENSE" age="" gender="" description="*********************************************** &lt;br/&gt;9999, 9999 - (Misc. Incident):&lt;br/&gt;"/><marker lat="40.406771944309206" lng="-79.992185686246444" zone="Zone 3" incidentdate="2016-09-20" incidenttime="20:30:00" incidentnumber="16178375" address="Calhoun Ave" type="OFFENSE" age="" gender="" description="*********************************************** &lt;br/&gt;2709, Harassment (Non-Specific)&lt;br/&gt;"/><marker lat="40.5419025" lng="-79.9939593" zone="Zone OSC" incidentdate="2016-09-20" incidenttime="19:13:00" incidentnumber="16178328" address="White Oak" type="OFFENSE" age="" gender="" description="*********************************************** &lt;br/&gt;3925, Receiving Stolen Property.&lt;br/&gt;9094, Recovered Stolen Vehicle (OUTSIDE CITY)&lt;br/&gt;"/><marker lat="40.406778783117595" lng="-79.944345891874605" zone="Zone 4" incidentdate="2016-09-20" incidenttime="14:00:00" incidentnumber="16178194" address="5100 block Gloster St" type="OFFENSE" age="" gender="" description="*********************************************** &lt;br/&gt;3502, Burglary.&lt;br/&gt;"/><marker lat="40.47552329008731" lng="-79.961235877527827" zone="Zone 2" incidentdate="2016-09-20" incidenttime="10:00:00" incidentnumber="16178168" address="4700 block Hatfield St" type="OFFENSE" age="" gender="" description="*********************************************** &lt;br/&gt;3921, Theft by Unlawful Taking or Disposition.&lt;br/&gt;"/><marker lat="40.4603870" lng="-80.0180533" zone="Zone 1" incidentdate="2016-09-20" incidenttime="09:00:00" incidentnumber="16177959" address="1900 block Flocker St" type="OFFENSE" age="" gender="" description="*********************************************** &lt;br/&gt;3304, Criminal Mischief.&lt;br/&gt;"/><marker lat="40.470884211797234" lng="-80.029956033469873" zone="Zone 1" incidentdate="2016-09-20" incidenttime="15:17:00" incidentnumber="16178151" address="2900 block Frederick St" type="OFFENSE" age="" gender="" description="*********************************************** &lt;br/&gt;9496, Dead on Arrival (DOA)&lt;br/&gt;"/><marker lat="40.44039795774286" lng="-79.962793539098925" zone="Zone 4" incidentdate="2016-09-20" incidenttime="12:15:00" incidentnumber="16178072" address="200 block Chesterfield Rd" type="OFFENSE" age="" gender="" description="*********************************************** &lt;br/&gt;3745, Accidents Involving Damage to Unattended Veh.or Prop.&lt;br/&gt;"/><marker lat="40.465196942283349" lng="-80.015215418216528" zone="Zone 1" incidentdate="2016-09-20" incidenttime="17:25:00" incidentnumber="16178258" address="500 block Chautauqua St" type="OFFENSE" age="" gender="" description="*********************************************** &lt;br/&gt;9490, Missing Persons (18 and Over)&lt;br/&gt;"/><marker lat="40.472674190828158" lng="-80.009114668623639" zone="Zone 1" incidentdate="2016-09-20" incidenttime="13:45:00" incidentnumber="16178113" address="2700 block Veteran St" type="OFFENSE" age="" gender="" description="*********************************************** &lt;br/&gt;3502, Burglary.&lt;br/&gt;"/><marker lat="40.454383298867199" lng="-80.003075255125935" zone="Zone 1" incidentdate="2016-09-20" incidenttime="20:35:00" incidentnumber="16178376" address="800 block Union Pl" type="OFFENSE" age="" gender="" description="*********************************************** &lt;br/&gt;13(a)(31), Marijuana: Possession Small Amount&lt;br/&gt;13(a)(32), Paraphernalia - Use or Possession&lt;br/&gt;5104, Resisting Arrest or Other Law Enforcement.&lt;br/&gt;2702, Aggravated Assault.&lt;br/&gt;5505, Public Drunkenness&lt;br/&gt;"/><marker lat="40.431994061916427" lng="-79.93259446230023" zone="Zone 4" incidentdate="2016-09-20" incidenttime="00:01:00" incidentnumber="16178179" address="Hydin Rd" type="OFFENSE" age="" gender="" description="*********************************************** &lt;br/&gt;4120, Identity Theft&lt;br/&gt;"/><marker lat="40.446334024783283" lng="-79.894431687317905" zone="Zone 4" incidentdate="2016-09-20" incidenttime="05:30:00" incidentnumber="16177968" address="100 block East End Ave" type="OFFENSE" age="" gender="" description="*********************************************** &lt;br/&gt;3934, Theft from Vehicle&lt;br/&gt;"/><marker lat="40.456686952050369" lng="-80.000071164913123" zone="Zone 1" incidentdate="2016-09-20" incidenttime="09:25:00" incidentnumber="16177965" address="E North Ave &amp; Middle St" type="OFFENSE" age="" gender="" description="*********************************************** &lt;br/&gt;3743, Accidents Involving Damage to Attended Veh. or Property&lt;br/&gt;"/><marker lat="40.390772308539823" lng="-79.99481251123234" zone="Zone 3" incidentdate="2016-09-20" incidenttime="12:00:00" incidentnumber="16178213" address="2100 block Fairland St" type="OFFENSE" age="" gender="" description="*********************************************** &lt;br/&gt;2709(a)(3), Harassment No Legitimate Purpose&lt;br/&gt;"/><marker lat="40.442724908824246" lng="-79.895540642565052" zone="Zone 4" incidentdate="2016-09-20" incidenttime="04:30:00" incidentnumber="16177847" address="7700 block Edgerton Ave" type="OFFENSE" age="" gender="" description="*********************************************** &lt;br/&gt;3934, Theft from Vehicle&lt;br/&gt;901, Criminal Attempt&lt;br/&gt;"/><marker lat="40.473793884143078" lng="-80.011253653548863" zone="Zone 1" incidentdate="2016-09-20" incidenttime="18:30:00" incidentnumber="16178285" address="Ellis St &amp; Searles Way" type="OFFENSE" age="" gender="" description="*********************************************** &lt;br/&gt;3921, Theft by Unlawful Taking or Disposition.&lt;br/&gt;"/><marker lat="40.417594970280931" lng="-79.978561382443203" zone="Zone 1" incidentdate="2016-09-20" incidenttime="19:34:00" incidentnumber="16178342" address="2000 block Spring Garden Ave" type="OFFENSE" age="" gender="" description="*********************************************** &lt;br/&gt;3929, Retail Theft.&lt;br/&gt;"/><marker lat="40.396883812932934" lng="-79.989294689646186" zone="Zone 3" incidentdate="2016-09-20" incidenttime="19:00:00" incidentnumber="16178354" address="1800 block Westmont Ave" type="OFFENSE" age="" gender="" description="*********************************************** &lt;br/&gt;9124, Drug Investigation&lt;br/&gt;"/><marker lat="40.456572332747427" lng="-80.001487255429311" zone="Zone 5" incidentdate="2016-09-20" incidenttime="18:30:00" incidentnumber="16178307" address="500 block N Euclid Ave" type="OFFENSE" age="" gender="" description="*********************************************** &lt;br/&gt;3745, Accidents Involving Damage to Unattended Veh.or Prop.&lt;br/&gt;"/><marker lat="40.420392795828228" lng="-79.930105574240969" zone="Zone 4" incidentdate="2016-09-20" incidenttime="20:00:00" incidentnumber="16178379" address="700 block Exeter St" type="OFFENSE" age="" gender="" description="*********************************************** &lt;br/&gt;3304, Criminal Mischief.&lt;br/&gt;"/><marker lat="40.44399023304031" lng="-80.002630134211415" zone="Zone 2" incidentdate="2016-09-20" incidenttime="01:35:00" incidentnumber="16177767" address="100 block 6th St" type="OFFENSE" age="" gender="" description="*********************************************** &lt;br/&gt;9501, Bench Warrant&lt;br/&gt;"/><marker lat="40.446862802848507" lng="-79.946744974893107" zone="Zone 4" incidentdate="2016-09-20" incidenttime="13:00:00" incidentnumber="16178079" address="4700 block 5th Ave" type="OFFENSE" age="" gender="" description="*********************************************** &lt;br/&gt;3922, Theft by Deception.&lt;br/&gt;"/><marker lat="40.470774954335837" lng="-79.925892975055362" zone="Zone 5" incidentdate="2016-09-20" incidenttime="17:15:00" incidentnumber="16178248" address="Livery Way &amp; Portland Way" type="OFFENSE" age="" gender="" description="*********************************************** &lt;br/&gt;9122, Miscellaneous Fire Vehicle Investigation to Continue&lt;br/&gt;"/><marker lat="40.457837082647693" lng="-79.974199374629194" zone="Zone 2" incidentdate="2016-09-20" incidenttime="05:58:00" incidentnumber="16177862" address="Penn Ave &amp; 29th St" type="OFFENSE" age="" gender="" description="*********************************************** &lt;br/&gt;3736, Reckless Driving&lt;br/&gt;3743, Accidents Involving Damage to Attended Veh. or Property&lt;br/&gt;3323, Stop Signs and Yield Signs.&lt;br/&gt;"/><marker lat="40.45950159063711" lng="-79.973516205441641" zone="Zone 2" incidentdate="2016-09-20" incidenttime="19:45:00" incidentnumber="16178368" address="3000 block Smallman St" type="OFFENSE" age="" gender="" description="*********************************************** &lt;br/&gt;3745, Accidents Involving Damage to Unattended Veh.or Prop.&lt;br/&gt;"/><marker lat="40.426239520978015" lng="-79.927907558073457" zone="Zone 4" incidentdate="2016-09-20" incidenttime="01:45:00" incidentnumber="16177770" address="4000 block Murray Ave" type="OFFENSE" age="" gender="" description="*********************************************** &lt;br/&gt;1501, Drivers Required to be Licensed.&lt;br/&gt;3714, Careless Driving&lt;br/&gt;3301, Arson&lt;br/&gt;3802(b), DUI - High Rate of Alchol - BAC &gt;=.10% &lt;.16%&lt;br/&gt;3731, Driving Under Influence of Alcohol or Controlled Substance&lt;br/&gt;"/><marker lat="40.44514224954434" lng="-79.930433834559764" zone="Zone 4" incidentdate="2016-09-20" incidenttime="15:05:00" incidentnumber="16178191" address="Murdoch Rd &amp; Fair Oaks St" type="OFFENSE" age="" gender="" description="*********************************************** &lt;br/&gt;3745, Accidents Involving Damage to Unattended Veh.or Prop.&lt;br/&gt;"/><marker lat="40.417594970280931" lng="-79.978561382443203" zone="Zone 1" incidentdate="2016-09-20" incidenttime="15:13:00" incidentnumber="16178149" address="2000 block Spring Garden Ave" type="OFFENSE" age="" gender="" description="*********************************************** &lt;br/&gt;3701, Robbery.&lt;br/&gt;"/><marker lat="40.4436671" lng="-79.9516753" zone="Zone 4" incidentdate="2016-09-20" incidenttime="10:35:00" incidentnumber="16178000" address="7500 block Forbes Ave" type="OFFENSE" age="" gender="" description="*********************************************** &lt;br/&gt;9496, Dead on Arrival (DOA)&lt;br/&gt;"/><marker lat="40.459698164472066" lng="-80.017119091316204" zone="Zone 1" incidentdate="2016-09-20" incidenttime="03:05:00" incidentnumber="16177814" address="800 block California Ave" type="OFFENSE" age="" gender="" description="*********************************************** &lt;br/&gt;9497, Aided Case&lt;br/&gt;"/><marker lat="40.46661657932281" lng="-79.995544826762455" zone="Zone 1" incidentdate="2016-09-20" incidenttime="19:22:00" incidentnumber="16178333" address="1100 block Buente St" type="OFFENSE" age="" gender="" description="*********************************************** &lt;br/&gt;3502, Burglary.&lt;br/&gt;2701, Simple Assault.&lt;br/&gt;9093, Indirect Criminal Contempt&lt;br/&gt;"/><marker lat="40.445946056684924" lng="-80.040016959012945" zone="Zone 6" incidentdate="2016-09-20" incidenttime="08:36:00" incidentnumber="16178037" address="700 block Rudolph St" type="OFFENSE" age="" gender="" description="*********************************************** &lt;br/&gt;9093, Indirect Criminal Contempt&lt;br/&gt;"/><marker lat="40.460026581173167" lng="-80.055938795052612" zone="Zone 6" incidentdate="2016-09-20" incidenttime="04:00:00" incidentnumber="16177837" address="3300 block Christy St" type="OFFENSE" age="" gender="" description="*********************************************** &lt;br/&gt;9998, Overdose&lt;br/&gt;"/><marker lat="40.387451763422845" lng="-80.014841228459474" zone="Zone 6" incidentdate="2016-09-20" incidenttime="10:15:00" incidentnumber="16177993" address="1300 block Woodbourne Ave" type="OFFENSE" age="" gender="" description="*********************************************** &lt;br/&gt;9496, Dead on Arrival (DOA)&lt;br/&gt;"/><marker lat="40.462061632288147" lng="-80.032131114209037" zone="Zone 1" incidentdate="2016-09-20" incidenttime="17:08:00" incidentnumber="16178239" address="Beaver Ave &amp; Chateau St" type="OFFENSE" age="" gender="" description="*********************************************** &lt;br/&gt;5104, Resisting Arrest or Other Law Enforcement.&lt;br/&gt;3736, Reckless Driving&lt;br/&gt;3701, Robbery.&lt;br/&gt;1501, Drivers Required to be Licensed.&lt;br/&gt;903, Criminal Conspiracy.&lt;br/&gt;6106, Firearms not to be Carried without a License.&lt;br/&gt;3733, Fleeing or Attempting to Elude Police Officer&lt;br/&gt;6110.2, Possesion of Firearm with Altered Mfg. Number&lt;br/&gt;6105(a)(1), Persons not to possess, use, manufacture, control, sell or transfer firearms: Former convict enumerated in subsection (b)&lt;br/&gt;"/><marker lat="40.439220674862057" lng="-79.951551429906004" zone="Zone 4" incidentdate="2016-09-20" incidenttime="17:45:00" incidentnumber="16178283" address="Dawson St &amp; S Bouquet St" type="OFFENSE" age="" gender="" description="*********************************************** &lt;br/&gt;3921, Theft by Unlawful Taking or Disposition.&lt;br/&gt;"/><marker lat="40.459960660424144" lng="-79.897653899071486" zone="Zone 5" incidentdate="2016-09-20" incidenttime="08:15:00" incidentnumber="16177918" address="7100 block Monticello St" type="OFFENSE" age="" gender="" description="*********************************************** &lt;br/&gt;9490, Missing Persons (18 and Over)&lt;br/&gt;"/><marker lat="40.445899823505272" lng="-80.052204137456769" zone="Zone 6" incidentdate="2016-09-20" incidenttime="16:41:00" incidentnumber="16178295" address="900 block Woodlow St" type="OFFENSE" age="" gender="" description="*********************************************** &lt;br/&gt;3304, Criminal Mischief.&lt;br/&gt;3921, Theft by Unlawful Taking or Disposition.&lt;br/&gt;"/><marker lat="40.454038272737556" lng="-79.867341042290406" zone="Zone 5" incidentdate="2016-09-20" incidenttime="17:45:00" incidentnumber="16178276" address="2200 block Wilner Dr" type="OFFENSE" age="" gender="" description="*********************************************** &lt;br/&gt;029, Missing Juvenile&lt;br/&gt;"/><marker lat="40.468392049674968" lng="-80.025256332998723" zone="Zone 1" incidentdate="2016-09-20" incidenttime="11:08:00" incidentnumber="16178044" address="1100 block Highwood St" type="OFFENSE" age="" gender="" description="*********************************************** &lt;br/&gt;3921(a), Theft by Unlawful Taking or Disposition - Movable item&lt;br/&gt;"/><marker lat="40.421511012664602" lng="-79.995485385467873" zone="Zone 3" incidentdate="2016-09-20" incidenttime="18:36:00" incidentnumber="16178310" address="700 block E Warrington Ave" type="OFFENSE" age="" gender="" description="*********************************************** &lt;br/&gt;3929, Retail Theft.&lt;br/&gt;"/><marker lat="40.456564641128566" lng="-79.871361460228911" zone="Zone 5" incidentdate="2016-09-20" incidenttime="02:30:00" incidentnumber="16177804" address="2300 block East Hills Dr" type="OFFENSE" age="" gender="" description="*********************************************** &lt;br/&gt;029, Missing Juvenile&lt;br/&gt;"/><marker lat="40.4516983" lng="-79.9023728" zone="Zone 4" incidentdate="2016-09-20" incidenttime="06:00:00" incidentnumber="16177872" address="5800 block Thomas Blvd" type="OFFENSE" age="" gender="" description="*********************************************** &lt;br/&gt;3304(a)(5), CRIMINAL MISCHIEF - Intentionally Damages Real Or Personal Property Of Another&lt;br/&gt;"/><marker lat="40.388202244054021" lng="-79.976352842141608" zone="Zone 3" incidentdate="2016-09-20" incidenttime="09:00:00" incidentnumber="16178159" address="200 block Spencer Ave" type="OFFENSE" age="" gender="" description="*********************************************** &lt;br/&gt;3304, Criminal Mischief.&lt;br/&gt;"/><marker lat="40.4717173" lng="-79.9669065" zone="Zone 2" incidentdate="2016-09-20" incidenttime="19:00:00" incidentnumber="16178348" address="40th St Brg" type="OFFENSE" age="" gender="" description="*********************************************** &lt;br/&gt;3921(a), Theft by Unlawful Taking or Disposition - Movable item&lt;br/&gt;"/><marker lat="40.453467566430483" lng="-79.931791612786867" zone="Zone 4" incidentdate="2016-09-20" incidenttime="16:30:00" incidentnumber="16178211" address="5700 block Elmer St" type="OFFENSE" age="" gender="" description="*********************************************** &lt;br/&gt;3502, Burglary.&lt;br/&gt;"/><marker lat="40.42155201085292" lng="-79.99720376810096" zone="Zone 3" incidentdate="2016-09-20" incidenttime="07:00:00" incidentnumber="16178030" address="600 block E Warrington Ave" type="OFFENSE" age="" gender="" description="*********************************************** &lt;br/&gt;3745, Accidents Involving Damage to Unattended Veh.or Prop.&lt;br/&gt;"/><marker lat="40.3915472" lng="-79.9904251" zone="Zone 3" incidentdate="2016-09-20" incidenttime="18:15:00" incidentnumber="16178294" address="2200 block Spokane Ave" type="OFFENSE" age="" gender="" description="*********************************************** &lt;br/&gt;9999, 9999 - (Misc. Incident):&lt;br/&gt;"/><marker lat="40.462061632288147" lng="-80.032131114209037" zone="Zone 1" incidentdate="2016-09-20" incidenttime="17:08:00" incidentnumber="16178239" address="Beaver Ave &amp; Chateau St" type="ARREST" age="22" gender="M" description="*********************************************** &lt;br/&gt;5104, Resisting Arrest or Other Law Enforcement.&lt;br/&gt;3736, Reckless Driving&lt;br/&gt;3701, Robbery.&lt;br/&gt;1501, Drivers Required to be Licensed.&lt;br/&gt;903, Criminal Conspiracy.&lt;br/&gt;6106, Firearms not to be Carried without a License.&lt;br/&gt;3733, Fleeing or Attempting to Elude Police Officer&lt;br/&gt;6110.2, Possesion of Firearm with Altered Mfg. Number&lt;br/&gt;6105(a)(1), Persons not to possess, use, manufacture, control, sell or transfer firearms: Former convict enumerated in subsection (b)&lt;br/&gt;"/><marker lat="40.434696587775576" lng="-79.996300985228572" zone="Zone 2" incidentdate="2016-09-20" incidenttime="14:20:00" incidentnumber="16166811" address="600 block 1st Ave" type="ARREST" age="17" gender="F" description="*********************************************** &lt;br/&gt;1786, Required Financial Responsibility.&lt;br/&gt;1543, Driving While Operating Privilege is Suspended or Revoked.&lt;br/&gt;3743, Accidents Involving Damage to Attended Veh. or Property&lt;br/&gt;"/><marker lat="40.433693928572964" lng="-79.922813530566174" zone="Zone 4" incidentdate="2016-09-20" incidenttime="12:00:00" incidentnumber="16114230" address="5800 block Hobart St" type="ARREST" age="50" gender="M" description="*********************************************** &lt;br/&gt;13(a)(31), Marijuana: Possession Small Amount&lt;br/&gt;13(a)(32), Paraphernalia - Use or Possession&lt;br/&gt;"/><marker lat="40.458855146164019" lng="-80.007764552006336" zone="Zone 1" incidentdate="2016-09-20" incidenttime="22:37:00" incidentnumber="16178441" address="Federal St N &amp; Henderson St" type="ARREST" age="35" gender="F" description="*********************************************** &lt;br/&gt;13(a)(16), Possession of Controlled Substance&lt;br/&gt;13(a)(32), Paraphernalia - Use or Possession&lt;br/&gt;5123, Contraband.&lt;br/&gt;"/><marker lat="40.399229873573063" lng="-80.021382841648759" zone="Zone 6" incidentdate="2016-09-20" incidenttime="20:47:00" incidentnumber="16152938" address="2400 block Pioneer Aly" type="ARREST" age="26" gender="M" description="*********************************************** &lt;br/&gt;3503, Criminal Trespass&lt;br/&gt;3934, Theft from Vehicle&lt;br/&gt;3925, Receiving Stolen Property.&lt;br/&gt;903, Criminal Conspiracy.&lt;br/&gt;907, Possessing Instruments of Crime.&lt;br/&gt;5506, Loitering and Prowling at Night&lt;br/&gt;"/><marker lat="40.434696587775576" lng="-79.996300985228572" zone="Zone 2" incidentdate="2016-09-20" incidenttime="08:30:00" incidentnumber="16171559" address="600 block First Ave" type="ARREST" age="29" gender="M" description="*********************************************** &lt;br/&gt;2701, Simple Assault.&lt;br/&gt;"/><marker lat="40.458957206227886" lng="-80.006391866198967" zone="Zone 1" incidentdate="2016-09-20" incidenttime="19:25:00" incidentnumber="16177394" address="100 block Fountain St" type="ARREST" age="25" gender="M" description="*********************************************** &lt;br/&gt;13(a)(32), Paraphernalia - Use or Possession&lt;br/&gt;2705, Recklessly Endangering Another Person.&lt;br/&gt;3736, Reckless Driving&lt;br/&gt;3745, Accidents Involving Damage to Unattended Veh.or Prop.&lt;br/&gt;1543, Driving While Operating Privilege is Suspended or Revoked.&lt;br/&gt;3925, Receiving Stolen Property.&lt;br/&gt;3733, Fleeing or Attempting to Elude Police Officer&lt;br/&gt;3362, Maximum Speed Limits.&lt;br/&gt;8106, Shots Fired&lt;br/&gt;"/><marker lat="40.435211137595942" lng="-79.898134905010679" zone="Zone 4" incidentdate="2016-09-20" incidenttime="12:15:00" incidentnumber="16147782" address="900 block La Clair St" type="ARREST" age="52" gender="M" description="*********************************************** &lt;br/&gt;5505, Public Drunkenness&lt;br/&gt;6310.1, Selling Liquor to Minors&lt;br/&gt;493(1), Furnishing Liquor/Malt to Intox.Persons/Minors.Etc.&lt;br/&gt;"/><marker lat="40.428614279173594" lng="-79.959985285772632" zone="Zone 4" incidentdate="2016-09-20" incidenttime="17:00:00" incidentnumber="16178223" address="Hot Metal St. Brg" type="ARREST" age="45" gender="M" description="*********************************************** &lt;br/&gt;13(a)(31), Marijuana: Possession Small Amount&lt;br/&gt;1543, Driving While Operating Privilege is Suspended or Revoked.&lt;br/&gt;3743, Accidents Involving Damage to Attended Veh. or Property&lt;br/&gt;"/><marker lat="40.476616849610743" lng="-79.920229860004795" zone="Zone 5" incidentdate="2016-09-20" incidenttime="16:30:00" incidentnumber="16162286" address="5800 block Elgin St" type="ARREST" age="" gender="M" description="*********************************************** &lt;br/&gt;3502, Burglary.&lt;br/&gt;3921(a), Theft by Unlawful Taking or Disposition - Movable item&lt;br/&gt;3736, Reckless Driving&lt;br/&gt;1501, Drivers Required to be Licensed.&lt;br/&gt;3925, Receiving Stolen Property.&lt;br/&gt;3323, Stop Signs and Yield Signs.&lt;br/&gt;"/><marker lat="40.462061632288147" lng="-80.032131114209037" zone="Zone 1" incidentdate="2016-09-20" incidenttime="17:08:00" incidentnumber="16178239" address="Beaver Ave &amp; Chateau St" type="ARREST" age="24" gender="M" description="*********************************************** &lt;br/&gt;5104, Resisting Arrest or Other Law Enforcement.&lt;br/&gt;3736, Reckless Driving&lt;br/&gt;3701, Robbery.&lt;br/&gt;1501, Drivers Required to be Licensed.&lt;br/&gt;903, Criminal Conspiracy.&lt;br/&gt;6106, Firearms not to be Carried without a License.&lt;br/&gt;3733, Fleeing or Attempting to Elude Police Officer&lt;br/&gt;6110.2, Possesion of Firearm with Altered Mfg. Number&lt;br/&gt;6105(a)(1), Persons not to possess, use, manufacture, control, sell or transfer firearms: Former convict enumerated in subsection (b)&lt;br/&gt;"/><marker lat="40.42439485909847" lng="-80.007470229240923" zone="Zone 3" incidentdate="2016-09-20" incidenttime="09:35:00" incidentnumber="16176424" address="300 block Kramer Way" type="ARREST" age="20" gender="F" description="*********************************************** &lt;br/&gt;2702, Aggravated Assault.&lt;br/&gt;903, Criminal Conspiracy.&lt;br/&gt;2706, Terroristic Threats.&lt;br/&gt;5501, Riot.&lt;br/&gt;"/><marker lat="40.461263755824248" lng="-79.946362797859464" zone="Zone 5" incidentdate="2016-09-20" incidenttime="09:19:00" incidentnumber="16159651" address="4800 block Friendship Ave" type="ARREST" age="43" gender="M" description="*********************************************** &lt;br/&gt;3934, Theft from Vehicle&lt;br/&gt;4106, Access Device Fraud&lt;br/&gt;"/><marker lat="40.405045478340348" lng="-80.031799964863225" zone="Zone 6" incidentdate="2016-09-20" incidenttime="00:51:00" incidentnumber="16172085" address="2200 block Boustead St" type="ARREST" age="47" gender="M" description="*********************************************** &lt;br/&gt;2709, Harassment (Non-Specific)&lt;br/&gt;2709(a)(1), Harassment by Physical Contact, or Attempts or Threats&lt;br/&gt;2706, Terroristic Threats.&lt;br/&gt;"/><marker lat="40.434696587775576" lng="-79.996300985228572" zone="Zone 2" incidentdate="2016-09-20" incidenttime="10:25:00" incidentnumber="16166626" address="600 block 1ST Ave" type="ARREST" age="34" gender="M" description="*********************************************** &lt;br/&gt;4915, Failure to Comply with Megans Law&lt;br/&gt;"/><marker lat="40.434696587775576" lng="-79.996300985228572" zone="Zone 2" incidentdate="2016-09-20" incidenttime="10:50:00" incidentnumber="16177390" address="600 block 1st Ave" type="ARREST" age="11" gender="M" description="*********************************************** &lt;br/&gt;2702, Aggravated Assault.&lt;br/&gt;"/><marker lat="40.44399023304031" lng="-80.002630134211415" zone="Zone 2" incidentdate="2016-09-20" incidenttime="01:40:00" incidentnumber="16177767" address="100 block 6th St" type="ARREST" age="33" gender="M" description="*********************************************** &lt;br/&gt;9501, Bench Warrant&lt;br/&gt;"/><marker lat="40.426239520978015" lng="-79.927907558073457" zone="Zone 4" incidentdate="2016-09-20" incidenttime="02:14:00" incidentnumber="16177770" address="4000 block Murray Ave" type="ARREST" age="26" gender="M" description="*********************************************** &lt;br/&gt;1501, Drivers Required to be Licensed.&lt;br/&gt;3714, Careless Driving&lt;br/&gt;3301, Arson&lt;br/&gt;3802(b), DUI - High Rate of Alchol - BAC &gt;=.10% &lt;.16%&lt;br/&gt;3731, Driving Under Influence of Alcohol or Controlled Substance&lt;br/&gt;"/><marker lat="40.454383298867199" lng="-80.003075255125935" zone="Zone 1" incidentdate="2016-09-20" incidenttime="20:35:00" incidentnumber="16178376" address="800 block Union Pl" type="ARREST" age="51" gender="M" description="*********************************************** &lt;br/&gt;13(a)(31), Marijuana: Possession Small Amount&lt;br/&gt;13(a)(32), Paraphernalia - Use or Possession&lt;br/&gt;5104, Resisting Arrest or Other Law Enforcement.&lt;br/&gt;2702, Aggravated Assault.&lt;br/&gt;5505, Public Drunkenness&lt;br/&gt;"/><marker lat="40.462061632288147" lng="-80.032131114209037" zone="Zone 1" incidentdate="2016-09-20" incidenttime="17:08:00" incidentnumber="16178239" address="Beaver Ave &amp; Chateau St" type="ARREST" age="29" gender="M" description="*********************************************** &lt;br/&gt;5104, Resisting Arrest or Other Law Enforcement.&lt;br/&gt;3736, Reckless Driving&lt;br/&gt;3701, Robbery.&lt;br/&gt;1501, Drivers Required to be Licensed.&lt;br/&gt;903, Criminal Conspiracy.&lt;br/&gt;6106, Firearms not to be Carried without a License.&lt;br/&gt;3733, Fleeing or Attempting to Elude Police Officer&lt;br/&gt;6110.2, Possesion of Firearm with Altered Mfg. Number&lt;br/&gt;6105(a)(1), Persons not to possess, use, manufacture, control, sell or transfer firearms: Former convict enumerated in subsection (b)&lt;br/&gt;"/><marker lat="40.490597677167848" lng="-80.032742919048374" zone="Zone 1" incidentdate="2016-09-20" incidenttime="13:00:00" incidentnumber="16096508" address="1100 block Flora St" type="ARREST" age="38" gender="F" description="*********************************************** &lt;br/&gt;2709(a)(4), Harassment Communicates Prohibited Acts&lt;br/&gt;"/><marker lat="40.439353754070297" lng="-79.95623505278725" zone="Zone 4" incidentdate="2016-09-20" incidenttime="00:50:00" incidentnumber="16138185" address="300 block York Way" type="ARREST" age="54" gender="M" description="*********************************************** &lt;br/&gt;2709(a)(1), Harassment by Physical Contact, or Attempts or Threats&lt;br/&gt;2706, Terroristic Threats.&lt;br/&gt;5503(a)(1), DISORDERLY CONDUCT - ENGAGE IN FIGHTING&lt;br/&gt;"/><marker lat="40.449646657025653" lng="-79.892798110797884" zone="Zone 4" incidentdate="2016-09-20" incidenttime="02:15:00" incidentnumber="16177791" address="300 block N Braddock Ave" type="ARREST" age="24" gender="M" description="*********************************************** &lt;br/&gt;3503(b)(1)(i), Actual Communication&lt;br/&gt;"/><marker lat="40.4274771168228" lng="-79.969817626401067" zone="Zone 3" incidentdate="2016-09-20" incidenttime="15:43:00" incidentnumber="15107273" address="2500 block E Carson St" type="ARREST" age="24" gender="F" description="*********************************************** &lt;br/&gt;4304(a)(1), Endangering Welfare of Children - Course of Conduct Enhanced&lt;br/&gt;9015, Failure To Appear/Arrest on Attachment Order&lt;br/&gt;3701, Robbery.&lt;br/&gt;"/></markers>
