<?xml version="1.0"?>
<markers><marker lat="40.4520989" lng="-80.016762" zone="Zone 1" incidentdate="2014-09-16" incidenttime="00:01:00" incidentnumber="14185590" address="900 Western Avenue, Pittsburgh, PA 15233, USA" type="OFFENSE" description="*********************************************** &lt;br/&gt;4120, Identity Theft&lt;br/&gt;"/><marker lat="40.4398494" lng="-79.9674534" zone="Zone 4" incidentdate="2014-09-16" incidenttime="00:39:00" incidentnumber="14185162" address="3100 Terrace Street, Pittsburgh, PA 15213, USA" type="OFFENSE" description="*********************************************** &lt;br/&gt;3745, Accidents Involving Damage to Unattended Veh.or Prop.&lt;br/&gt;"/><marker lat="40.441098" lng="-79.9125629" zone="Zone 4" incidentdate="2014-09-16" incidenttime="01:09:00" incidentnumber="14184141" address="6600 Aylesboro Avenue, Pittsburgh, PA 15217, USA" type="OFFENSE" description="*********************************************** &lt;br/&gt;3921(a), Theft by Unlawful Taking or Disposition - Movable item&lt;br/&gt;3925, Receiving Stolen Property.&lt;br/&gt;"/><marker lat="40.4397415" lng="-79.9594394" zone="Zone 4" incidentdate="2014-09-16" incidenttime="03:55:00" incidentnumber="14185236" address="200 Mckee Place, Pittsburgh, PA 15213, USA" type="OFFENSE" description="*********************************************** &lt;br/&gt;3304, Criminal Mischief.&lt;br/&gt;3921, Theft by Unlawful Taking or Disposition.&lt;br/&gt;"/><marker lat="40.4481139" lng="-79.912079" zone="Zone 4" incidentdate="2014-09-16" incidenttime="04:00:00" incidentnumber="14185259" address="500 Glen Arden Drive, Pittsburgh, PA 15208, USA" type="OFFENSE" description="*********************************************** &lt;br/&gt;3921, Theft by Unlawful Taking or Disposition.&lt;br/&gt;"/><marker lat="40.451399" lng="-79.94951" zone="Zone 4" incidentdate="2014-09-16" incidenttime="06:30:00" incidentnumber="14185314" address="400 North Neville Street, Pittsburgh, PA 15213, USA" type="OFFENSE" description="*********************************************** &lt;br/&gt;3921, Theft by Unlawful Taking or Disposition.&lt;br/&gt;"/><marker lat="40.4409791" lng="-79.964935" zone="Zone 4" incidentdate="2014-09-16" incidenttime="07:30:00" incidentnumber="14185337" address="200 Dunseith Street, Pittsburgh, PA 15213, USA" type="OFFENSE" description="*********************************************** &lt;br/&gt;9093, Indirect Criminal Contempt&lt;br/&gt;"/><marker lat="40.4260056" lng="-79.9264814" zone="Zone 4" incidentdate="2014-09-16" incidenttime="08:25:00" incidentnumber="14185326" address="3600 Beechwood Boulevard, Pittsburgh, PA 15217, USA" type="OFFENSE" description="*********************************************** &lt;br/&gt;3745, Accidents Involving Damage to Unattended Veh.or Prop.&lt;br/&gt;"/><marker lat="40.432598" lng="-79.9274949" zone="Zone 4" incidentdate="2014-09-16" incidenttime="09:00:00" incidentnumber="14185380" address="5600 Hobart Street, Pittsburgh, PA 15217, USA" type="OFFENSE" description="*********************************************** &lt;br/&gt;3921, Theft by Unlawful Taking or Disposition.&lt;br/&gt;"/><marker lat="40.4360154" lng="-79.9228438" zone="Zone 4" incidentdate="2014-09-16" incidenttime="10:02:00" incidentnumber="14185381" address="5800 Bartlett Street, Pittsburgh, PA 15217, USA" type="OFFENSE" description="*********************************************** &lt;br/&gt;2709, Harassment (Non-Specific)&lt;br/&gt;"/><marker lat="40.4378235" lng="-79.9653494" zone="Zone 4" incidentdate="2014-09-16" incidenttime="15:15:00" incidentnumber="14185554" address="100 Robinson Street, Pittsburgh, PA 15213, USA" type="OFFENSE" description="*********************************************** &lt;br/&gt;3304(a)(5), CRIMINAL MISCHIEF - Intentionally Damages Real Or Personal Property Of Another&lt;br/&gt;3934, Theft from Vehicle&lt;br/&gt;"/><marker lat="40.4083917" lng="-79.9445984" zone="Zone 4" incidentdate="2014-09-16" incidenttime="15:30:00" incidentnumber="14185597" address="Tecumseh Street, Pittsburgh, PA 15207, USA" type="OFFENSE" description="*********************************************** &lt;br/&gt;2701(a)(1), Simple Assault - Intent., Know., Reckless.Cause Bod. Injury&lt;br/&gt;3921(a), Theft by Unlawful Taking or Disposition - Movable item&lt;br/&gt;903, Criminal Conspiracy.&lt;br/&gt;"/><marker lat="40.4101492" lng="-79.9424029" zone="Zone 4" incidentdate="2014-09-16" incidenttime="16:00:00" incidentnumber="14185633" address="200 Flowers Avenue, Pittsburgh, PA 15207, USA" type="OFFENSE" description="*********************************************** &lt;br/&gt;3502, Burglary.&lt;br/&gt;"/><marker lat="40.4526235" lng="-79.9103897" zone="Zone 4" incidentdate="2014-09-16" incidenttime="18:29:00" incidentnumber="14185667" address="100 South Linden Avenue, Pittsburgh, PA 15208, USA" type="OFFENSE" description="*********************************************** &lt;br/&gt;13(a)(31), Marijuana: Possession Small Amount&lt;br/&gt;13(a)(32), Paraphernalia - Use or Possession&lt;br/&gt;"/><marker lat="40.4541457" lng="-79.9488752" zone="Zone 5" incidentdate="2014-09-16" incidenttime="02:15:00" incidentnumber="14185467" address="4700 Baum Boulevard, Pittsburgh, PA 15213, USA" type="OFFENSE" description="*********************************************** &lt;br/&gt;3304, Criminal Mischief.&lt;br/&gt;"/><marker lat="40.4772001" lng="-79.9189393" zone="Zone 5" incidentdate="2014-09-16" incidenttime="07:30:00" incidentnumber="14185297" address="North Euclid Avenue &amp; Callowhill Street, Pittsburgh, PA 15206, USA" type="OFFENSE" description="*********************************************** &lt;br/&gt;13(a)(16), Possession of Controlled Substance&lt;br/&gt;13(a)(30), Possession w/ Intent to Del. Controlled Substance&lt;br/&gt;908, Prohibited Offensive Weapons.&lt;br/&gt;13(a)(32), Paraphernalia - Use or Possession&lt;br/&gt;3809(a), Restriction on Alcoholic Beverages in Vehicle&lt;br/&gt;"/><marker lat="40.465417" lng="-79.935795" zone="Zone 5" incidentdate="2014-09-16" incidenttime="09:40:00" incidentnumber="14185376" address="5400 Broad Street, Pittsburgh, PA 15206, USA" type="OFFENSE" description="*********************************************** &lt;br/&gt;2701(a)(1), Simple Assault - Intent., Know., Reckless.Cause Bod. Injury&lt;br/&gt;"/><marker lat="40.460957" lng="-79.916605" zone="Zone 5" incidentdate="2014-09-16" incidenttime="10:02:00" incidentnumber="14185426" address="400 Enright Court, Pittsburgh, PA 15206, USA" type="OFFENSE" description="*********************************************** &lt;br/&gt;2904, Interference with Custody of Children.&lt;br/&gt;"/><marker lat="40.4476599" lng="-79.8881619" zone="Zone 5" incidentdate="2014-09-16" incidenttime="15:00:00" incidentnumber="14185532" address="400 Rosedale Street, Pittsburgh, PA 15221, USA" type="OFFENSE" description="*********************************************** &lt;br/&gt;3502, Burglary.&lt;br/&gt;2701, Simple Assault.&lt;br/&gt;"/><marker lat="40.4669162" lng="-79.8937237" zone="Zone 5" incidentdate="2014-09-16" incidenttime="15:13:00" incidentnumber="14185541" address="7200 Lemington Avenue, Pittsburgh, PA 15206, USA" type="OFFENSE" description="*********************************************** &lt;br/&gt;9489, Found Property&lt;br/&gt;"/><marker lat="40.4471104" lng="-79.9674695" zone="Zone 5" incidentdate="2014-09-16" incidenttime="15:24:00" incidentnumber="14185547" address="Centre Avenue, Pittsburgh, PA, USA" type="OFFENSE" description="*********************************************** &lt;br/&gt;9489, Found Property&lt;br/&gt;"/><marker lat="40.4570239" lng="-79.933448" zone="Zone 5" incidentdate="2014-09-16" incidenttime="17:47:00" incidentnumber="14185666" address="5700 Centre Avenue, Pittsburgh, PA 15206, USA" type="OFFENSE" description="*********************************************** &lt;br/&gt;9497, Aided Case&lt;br/&gt;"/><marker lat="40.4536086" lng="-79.877823" zone="Zone 5" incidentdate="2014-09-16" incidenttime="18:22:00" incidentnumber="14185692" address="200 Rolfe Street, Pittsburgh, PA 15221, USA" type="OFFENSE" description="*********************************************** &lt;br/&gt;3503, Criminal Trespass&lt;br/&gt;"/><marker lat="40.4606459" lng="-79.9227644" zone="Zone 5" incidentdate="2014-09-16" incidenttime="18:50:00" incidentnumber="14185718" address="6200 Penn Avenue, Pittsburgh, PA 15206, USA" type="OFFENSE" description="*********************************************** &lt;br/&gt;13(a)(32), Paraphernalia - Use or Possession&lt;br/&gt;2705, Recklessly Endangering Another Person.&lt;br/&gt;3929, Retail Theft.&lt;br/&gt;"/><marker lat="40.4633282" lng="-79.9225919" zone="Zone 5" incidentdate="2014-09-16" incidenttime="21:00:00" incidentnumber="14185754" address="Station Street &amp; Aldino Street, Pittsburgh, PA 15206, USA" type="OFFENSE" description="*********************************************** &lt;br/&gt;9498, 302 (Mental)&lt;br/&gt;"/><marker lat="40.446803" lng="-80.046051" zone="Zone 6" incidentdate="2014-09-16" incidenttime="00:05:00" incidentnumber="14185135" address="1300 Crucible Street, Pittsburgh, PA 15220, USA" type="OFFENSE" description="*********************************************** &lt;br/&gt;2701, Simple Assault.&lt;br/&gt;"/><marker lat="40.4634639" lng="-80.0546265" zone="Zone 6" incidentdate="2014-09-16" incidenttime="06:20:00" incidentnumber="14184786" address="Sloan Street, Pittsburgh, PA 15204, USA" type="OFFENSE" description="*********************************************** &lt;br/&gt;13(a)(31), Marijuana: Possession Small Amount&lt;br/&gt;13(a)(16), Possession of Controlled Substance&lt;br/&gt;13(a)(30), Possession w/ Intent to Del. Controlled Substance&lt;br/&gt;13(a)(32), Paraphernalia - Use or Possession&lt;br/&gt;"/><marker lat="40.3941946" lng="-80.0271634" zone="Zone 6" incidentdate="2014-09-16" incidenttime="09:50:00" incidentnumber="14185374" address="500 Dorchester Avenue, Pittsburgh, PA 15226, USA" type="OFFENSE" description="*********************************************** &lt;br/&gt;9488, False  Burglar Alarm&lt;br/&gt;"/><marker lat="40.4321005" lng="-80.0492431" zone="Zone 6" incidentdate="2014-09-16" incidenttime="10:00:00" incidentnumber="14185385" address="1800 Warriors Road, Pittsburgh, PA 15205, USA" type="OFFENSE" description="*********************************************** &lt;br/&gt;9999, 9999 - (Misc. Incident):&lt;br/&gt;"/><marker lat="40.3967106" lng="-80.0249027" zone="Zone 6" incidentdate="2014-09-16" incidenttime="10:14:00" incidentnumber="14185388" address="2600 Plainview Avenue, Pittsburgh, PA 15226, USA" type="OFFENSE" description="*********************************************** &lt;br/&gt;2702, Aggravated Assault.&lt;br/&gt;2705, Recklessly Endangering Another Person.&lt;br/&gt;"/><marker lat="40.4387084" lng="-80.0554311" zone="Zone 6" incidentdate="2014-09-16" incidenttime="11:00:00" incidentnumber="14185462" address="Stratmore Street, Pittsburgh, PA 15205, USA" type="OFFENSE" description="*********************************************** &lt;br/&gt;3502, Burglary.&lt;br/&gt;901, Criminal Attempt&lt;br/&gt;"/><marker lat="40.4356841" lng="-80.0504785" zone="Zone 6" incidentdate="2014-09-16" incidenttime="12:45:00" incidentnumber="14185479" address="1400 Hartwell Street, Pittsburgh, PA 15205, USA" type="OFFENSE" description="*********************************************** &lt;br/&gt;2701, Simple Assault.&lt;br/&gt;"/><marker lat="40.4328322" lng="-80.0302417" zone="Zone 6" incidentdate="2014-09-16" incidenttime="13:00:00" incidentnumber="14185498" address="Woodville Avenue, Pittsburgh, PA 15220, USA" type="OFFENSE" description="*********************************************** &lt;br/&gt;3502, Burglary.&lt;br/&gt;"/><marker lat="40.4402302" lng="-80.0511627" zone="Zone 6" incidentdate="2014-09-16" incidenttime="14:00:00" incidentnumber="14185549" address="Arnold Street, Pittsburgh, PA, USA" type="OFFENSE" description="*********************************************** &lt;br/&gt;2709, Harassment (Non-Specific)&lt;br/&gt;"/><marker lat="40.421846" lng="-80.0255303" zone="Zone 6" incidentdate="2014-09-16" incidenttime="14:20:00" incidentnumber="14185518" address="1100 Shadycrest Place, Pittsburgh, PA 15216, USA" type="OFFENSE" description="*********************************************** &lt;br/&gt;9490, Missing Persons (18 and Over)&lt;br/&gt;"/><marker lat="40.4408261" lng="-80.0421254" zone="Zone 6" incidentdate="2014-09-16" incidenttime="14:40:00" incidentnumber="14185594" address="800 Wymore Street, Pittsburgh, PA 15220, USA" type="OFFENSE" description="*********************************************** &lt;br/&gt;3502, Burglary.&lt;br/&gt;"/><marker lat="40.4470526" lng="-80.0510609" zone="Zone 6" incidentdate="2014-09-16" incidenttime="16:00:00" incidentnumber="14185722" address="900 Woodlow Street, Pittsburgh, PA 15205, USA" type="OFFENSE" description="*********************************************** &lt;br/&gt;9490, Missing Persons (18 and Over)&lt;br/&gt;"/><marker lat="40.3912832" lng="-80.0174235" zone="Zone 6" incidentdate="2014-09-16" incidenttime="19:45:00" incidentnumber="14185771" address="Trelona Way, Pittsburgh, PA 15226, USA" type="OFFENSE" description="*********************************************** &lt;br/&gt;2709, Harassment (Non-Specific)&lt;br/&gt;"/><marker lat="40.4553436" lng="-79.9972224" zone="Zone 1" incidentdate="2014-09-16" incidenttime="01:40:00" incidentnumber="14185177" address="800 Peralta Street, Pittsburgh, PA 15212, USA" type="OFFENSE" description="*********************************************** &lt;br/&gt;3745, Accidents Involving Damage to Unattended Veh.or Prop.&lt;br/&gt;3802(a)(1), DUI - General Impairment&lt;br/&gt;3802(c), DUI - Highest Rate of Alcohol - BAC &gt;= .16%&lt;br/&gt;"/><marker lat="40.4565226" lng="-80.0154659" zone="Zone 1" incidentdate="2014-09-16" incidenttime="01:45:00" incidentnumber="14185209" address="1500 Brighton Road, Pittsburgh, PA 15212, USA" type="OFFENSE" description="*********************************************** &lt;br/&gt;2706, Terroristic Threats.&lt;br/&gt;"/><marker lat="40.4436916" lng="-80.0090397" zone="Zone 1" incidentdate="2014-09-16" incidenttime="06:30:00" incidentnumber="14185289" address="Fort Duquesne Bridge, Pittsburgh, PA, USA" type="OFFENSE" description="*********************************************** &lt;br/&gt;3743, Accidents Involving Damage to Attended Veh. or Property&lt;br/&gt;"/><marker lat="40.4681434" lng="-80.0351412" zone="Zone 1" incidentdate="2014-09-16" incidenttime="14:25:00" incidentnumber="14185521" address="2700 California Avenue, Pittsburgh, PA 15212, USA" type="OFFENSE" description="*********************************************** &lt;br/&gt;3502, Burglary.&lt;br/&gt;"/><marker lat="40.479681" lng="-80.0290969" zone="Zone 1" incidentdate="2014-09-16" incidenttime="16:00:00" incidentnumber="14185628" address="3500 Campus Street, Pittsburgh, PA 15212, USA" type="OFFENSE" description="*********************************************** &lt;br/&gt;3502, Burglary.&lt;br/&gt;"/><marker lat="40.459652" lng="-79.991321" zone="Zone 1" incidentdate="2014-09-16" incidenttime="16:18:00" incidentnumber="14185617" address="1200 Voskamp Street, Pittsburgh, PA 15212, USA" type="OFFENSE" description="*********************************************** &lt;br/&gt;9496, Dead on Arrival (DOA)&lt;br/&gt;"/><marker lat="40.4559152" lng="-80.0067824" zone="Zone 1" incidentdate="2014-09-16" incidenttime="16:30:00" incidentnumber="14185586" address="Federal Street &amp; Citron Way, Pittsburgh, PA 15212, USA" type="OFFENSE" description="*********************************************** &lt;br/&gt;13(a)(16), Possession of Controlled Substance&lt;br/&gt;5503, Disorderly Conduct.&lt;br/&gt;4914, False Identification to Law Enforcement Authorities&lt;br/&gt;9501, Bench Warrant&lt;br/&gt;5126, Flight to Avoid Apprehension, Trial or Punishment.&lt;br/&gt;5104, Resisting Arrest or Other Law Enforcement.&lt;br/&gt;"/><marker lat="40.4892736" lng="-80.01575" zone="Zone 1" incidentdate="2014-09-16" incidenttime="17:27:00" incidentnumber="14185646" address="3800 Baytree Street, Pittsburgh, PA 15214, USA" type="OFFENSE" description="*********************************************** &lt;br/&gt;2709, Harassment (Non-Specific)&lt;br/&gt;"/><marker lat="40.466752" lng="-79.982293" zone="Zone 1" incidentdate="2014-09-16" incidenttime="17:30:00" incidentnumber="14158731" address="1800 Rialto Street, Pittsburgh, PA 15212, USA" type="OFFENSE" description="*********************************************** &lt;br/&gt;9494, Summary Warrants&lt;br/&gt;"/><marker lat="40.452265" lng="-79.998701" zone="Zone 1" incidentdate="2014-09-16" incidenttime="18:20:00" incidentnumber="14185713" address="600 Pressley Street, Pittsburgh, PA 15212, USA" type="OFFENSE" description="*********************************************** &lt;br/&gt;2709(a), Harassment.&lt;br/&gt;"/><marker lat="40.4757746" lng="-80.0127816" zone="Zone 1" incidentdate="2014-09-16" incidenttime="20:30:00" incidentnumber="14158732" address="3000 Oak Park Road, Pittsburgh, PA 15214, USA" type="OFFENSE" description="*********************************************** &lt;br/&gt;9494, Summary Warrants&lt;br/&gt;"/><marker lat="40.4749872" lng="-80.0253023" zone="Zone 1" incidentdate="2014-09-16" incidenttime="21:00:00" incidentnumber="14185811" address="1000 Grand Avenue, Pittsburgh, PA 15212, USA" type="OFFENSE" description="*********************************************** &lt;br/&gt;3921(a), Theft by Unlawful Taking or Disposition - Movable item&lt;br/&gt;"/><marker lat="40.472812" lng="-79.9587965" zone="Zone 2" incidentdate="2014-09-16" incidenttime="07:30:00" incidentnumber="14185748" address="Butler Street &amp; 46th Street, Pittsburgh, PA 15201, USA" type="OFFENSE" description="*********************************************** &lt;br/&gt;2709(a), Harassment.&lt;br/&gt;"/><marker lat="40.4645722" lng="-79.9614588" zone="Zone 2" incidentdate="2014-09-16" incidenttime="08:00:00" incidentnumber="14185359" address="3800 Penn Avenue, Pittsburgh, PA 15201, USA" type="OFFENSE" description="*********************************************** &lt;br/&gt;3304, Criminal Mischief.&lt;br/&gt;"/><marker lat="40.4384089" lng="-80.0018784" zone="Zone 2" incidentdate="2014-09-16" incidenttime="12:30:00" incidentnumber="14185448" address="300 Boulevard of the Allies, Point Park University, Pittsburgh, PA 15222, USA" type="OFFENSE" description="*********************************************** &lt;br/&gt;5503, Disorderly Conduct.&lt;br/&gt;5123, Contraband.&lt;br/&gt;"/><marker lat="40.435467" lng="-79.996404" zone="Zone 2" incidentdate="2014-09-16" incidenttime="15:00:00" incidentnumber="14158724" address="600 1st Avenue, Pittsburgh, PA 15219, USA" type="OFFENSE" description="*********************************************** &lt;br/&gt;"/><marker lat="40.4579373" lng="-79.9682293" zone="Zone 2" incidentdate="2014-09-16" incidenttime="15:00:00" incidentnumber="14185593" address="Polish Hill, Pittsburgh, PA, USA" type="OFFENSE" description="*********************************************** &lt;br/&gt;3921(a), Theft by Unlawful Taking or Disposition - Movable item&lt;br/&gt;4106, Access Device Fraud&lt;br/&gt;"/><marker lat="40.435467" lng="-79.996404" zone="Zone 2" incidentdate="2014-09-16" incidenttime="15:00:00" incidentnumber="14158725" address="600 1st Avenue, Pittsburgh, PA 15219, USA" type="OFFENSE" description="*********************************************** &lt;br/&gt;9494, Summary Warrants&lt;br/&gt;"/><marker lat="40.435467" lng="-79.996404" zone="Zone 2" incidentdate="2014-09-16" incidenttime="15:00:00" incidentnumber="14158728" address="600 1st Avenue, Pittsburgh, PA 15219, USA" type="OFFENSE" description="*********************************************** &lt;br/&gt;9494, Summary Warrants&lt;br/&gt;"/><marker lat="40.435467" lng="-79.996404" zone="Zone 2" incidentdate="2014-09-16" incidenttime="15:00:00" incidentnumber="14158729" address="600 1st Avenue, Pittsburgh, PA 15219, USA" type="OFFENSE" description="*********************************************** &lt;br/&gt;9494, Summary Warrants&lt;br/&gt;"/><marker lat="40.435467" lng="-79.996404" zone="Zone 2" incidentdate="2014-09-16" incidenttime="15:00:00" incidentnumber="14158730" address="600 1st Avenue, Pittsburgh, PA 15219, USA" type="OFFENSE" description="*********************************************** &lt;br/&gt;9494, Summary Warrants&lt;br/&gt;"/><marker lat="40.441132" lng="-80.001989" zone="Zone 2" incidentdate="2014-09-16" incidenttime="16:40:00" incidentnumber="14185684" address="200 Fifth Avenue, Pittsburgh, PA 15222, USA" type="OFFENSE" description="*********************************************** &lt;br/&gt;3929, Retail Theft.&lt;br/&gt;"/><marker lat="40.4387143" lng="-79.9994904" zone="Zone 2" incidentdate="2014-09-16" incidenttime="17:13:00" incidentnumber="14185621" address="400 Smithfield Street, Pittsburgh, PA 15222, USA" type="OFFENSE" description="*********************************************** &lt;br/&gt;13(a)(31), Marijuana: Possession Small Amount&lt;br/&gt;13(a)(16), Possession of Controlled Substance&lt;br/&gt;1543, Driving While Operating Privilege is Suspended or Revoked.&lt;br/&gt;13(a)(30), Possession w/ Intent to Del. Controlled Substance&lt;br/&gt;3353, Prohibitions in Specified Places.&lt;br/&gt;5123, Contraband.&lt;br/&gt;5121, Escape.&lt;br/&gt;"/><marker lat="40.4396049" lng="-80.0050283" zone="Zone 2" incidentdate="2014-09-16" incidenttime="18:45:00" incidentnumber="14185711" address="Boulevard of the Allies &amp; Stanwix Street, Pittsburgh, PA 15222, USA" type="OFFENSE" description="*********************************************** &lt;br/&gt;2701, Simple Assault.&lt;br/&gt;5104, Resisting Arrest or Other Law Enforcement.&lt;br/&gt;5503, Disorderly Conduct.&lt;br/&gt;5505, Public Drunkenness&lt;br/&gt;"/><marker lat="40.4419631" lng="-79.9786532" zone="Zone 2" incidentdate="2014-09-16" incidenttime="20:33:00" incidentnumber="14185769" address="2000 Bentley Drive, Pittsburgh, PA 15219, USA" type="OFFENSE" description="*********************************************** &lt;br/&gt;2701(a)(3), Simple Assault - Attempts by Physical Menace&lt;br/&gt;907, Possessing Instruments of Crime.&lt;br/&gt;"/><marker lat="40.435467" lng="-79.996404" zone="Zone 2" incidentdate="2014-09-16" incidenttime="21:00:00" incidentnumber="14132630" address="600 1st Avenue, Pittsburgh, PA 15219, USA" type="OFFENSE" description="*********************************************** &lt;br/&gt;4304(a)(1), Endangering Welfare of Children.&lt;br/&gt;"/><marker lat="40.3929199" lng="-79.99658" zone="Zone 3" incidentdate="2014-09-16" incidenttime="01:35:00" incidentnumber="14038820" address="2000 Dartmore Street, Pittsburgh, PA 15210, USA" type="OFFENSE" description="*********************************************** &lt;br/&gt;4952, Intimidation of Witnesses or Victims&lt;br/&gt;"/><marker lat="40.4287113" lng="-79.9874901" zone="Zone 3" incidentdate="2014-09-16" incidenttime="02:14:00" incidentnumber="14185226" address="East Carson Street &amp; South 11th Street, Pittsburgh, PA 15203, USA" type="OFFENSE" description="*********************************************** &lt;br/&gt;4302, Periods for Requiring Lighted Lamps.&lt;br/&gt;3334, Turning Movements and Required Signals.&lt;br/&gt;3802(a)(1), DUI - General Impairment&lt;br/&gt;3802(a)(2), DUI - BAC &gt;.08% &lt;.10%&lt;br/&gt;"/><marker lat="40.4122179" lng="-79.9556307" zone="Zone 3" incidentdate="2014-09-16" incidenttime="02:18:00" incidentnumber="14185220" address="East Carson Street, Pennsylvania, USA" type="OFFENSE" description="*********************************************** &lt;br/&gt;5503(a)(1), DISORDERLY CONDUCT - ENGAGE IN FIGHTING&lt;br/&gt;5505, Public Drunkenness&lt;br/&gt;"/><marker lat="40.4312633" lng="-79.9732677" zone="Zone 3" incidentdate="2014-09-16" incidenttime="06:40:00" incidentnumber="14185653" address="Three Rivers Heritage Trail, Pennsylvania, USA" type="OFFENSE" description="*********************************************** &lt;br/&gt;9504, Lost Property&lt;br/&gt;"/><marker lat="40.4275995" lng="-79.9955291" zone="Zone 3" incidentdate="2014-09-16" incidenttime="11:43:00" incidentnumber="14185453" address="500 Arlington Avenue, Pittsburgh, PA 15203, USA" type="OFFENSE" description="*********************************************** &lt;br/&gt;9093, Indirect Criminal Contempt&lt;br/&gt;"/><marker lat="40.4288477" lng="-79.9820535" zone="Zone 3" incidentdate="2014-09-16" incidenttime="16:00:00" incidentnumber="14185629" address="100 South 17th Street, Pittsburgh, PA 15203, USA" type="OFFENSE" description="*********************************************** &lt;br/&gt;3921, Theft by Unlawful Taking or Disposition.&lt;br/&gt;"/><marker lat="40.4154719" lng="-79.9905754" zone="Zone 3" incidentdate="2014-09-16" incidenttime="16:04:00" incidentnumber="14185505" address="Knox Avenue, Pittsburgh, PA 15210, USA" type="OFFENSE" description="*********************************************** &lt;br/&gt;13(a)(16), Possession of Controlled Substance&lt;br/&gt;13(a)(30), Possession w/ Intent to Del. Controlled Substance&lt;br/&gt;903, Criminal Conspiracy.&lt;br/&gt;5101, Obstructing Admin. of Law&lt;br/&gt;13(a)(32), Paraphernalia - Use or Possession&lt;br/&gt;13(a)(30)*, Delivery of Controlled Substance&lt;br/&gt;Convict, enumerated in subsection (b)&lt;br/&gt;3925, Receiving Stolen Property.&lt;br/&gt;6105(a)(1), Persons not to possess, use, manufacture, control, sell or transfer firearms: Former&lt;br/&gt;"/><marker lat="40.412118" lng="-79.993018" zone="Zone 3" incidentdate="2014-09-16" incidenttime="17:00:00" incidentnumber="14185631" address="300 Arabella Street, Pittsburgh, PA 15210, USA" type="OFFENSE" description="*********************************************** &lt;br/&gt;3502, Burglary.&lt;br/&gt;"/><marker lat="40.4237575" lng="-79.9917697" zone="Zone 3" incidentdate="2014-09-16" incidenttime="20:00:00" incidentnumber="14185736" address="900 Eureka Street, Pittsburgh, PA 15210, USA" type="OFFENSE" description="*********************************************** &lt;br/&gt;029, Missing Juvenile&lt;br/&gt;"/><marker lat="40.3835451" lng="-79.9830551" zone="Zone 3" incidentdate="2014-09-16" incidenttime="20:00:00" incidentnumber="14185750" address="Merritt Avenue, Pittsburgh, PA 15227, USA" type="OFFENSE" description="*********************************************** &lt;br/&gt;9093, Indirect Criminal Contempt&lt;br/&gt;"/><marker lat="40.4538654" lng="-79.9443211" zone="Zone 4" incidentdate="2014-09-16" incidenttime="00:09:00" incidentnumber="14185132" address="300 Morewood Avenue, Pittsburgh, PA 15213, USA" type="OFFENSE" description="*********************************************** &lt;br/&gt;9999, 9999 - (Misc. Incident):&lt;br/&gt;"/><marker lat="40.4553436" lng="-79.9972224" zone="Zone 1" incidentdate="2014-09-16" incidenttime="01:40:00" incidentnumber="14185177" address="800 Peralta Street, Pittsburgh, PA 15212, USA" type="ARREST" description="*********************************************** &lt;br/&gt;3745, Accidents Involving Damage to Unattended Veh.or Prop.&lt;br/&gt;3802(a)(1), DUI - General Impairment&lt;br/&gt;3802(c), DUI - Highest Rate of Alcohol - BAC &gt;= .16%&lt;br/&gt;"/><marker lat="40.441098" lng="-79.9125629" zone="Zone 4" incidentdate="2014-09-16" incidenttime="02:00:00" incidentnumber="14184141" address="6600 Aylesboro Avenue, Pittsburgh, PA 15217, USA" type="ARREST" description="*********************************************** &lt;br/&gt;3921(a), Theft by Unlawful Taking or Disposition - Movable item&lt;br/&gt;3925, Receiving Stolen Property.&lt;br/&gt;"/><marker lat="40.435467" lng="-79.996404" zone="Zone 2" incidentdate="2014-09-16" incidenttime="21:00:00" incidentnumber="14132630" address="600 1st Avenue, Pittsburgh, PA 15219, USA" type="ARREST" description="*********************************************** &lt;br/&gt;4304(a)(1), Endangering Welfare of Children.&lt;br/&gt;"/><marker lat="40.3929199" lng="-79.99658" zone="Zone 3" incidentdate="2014-09-16" incidenttime="01:35:00" incidentnumber="14038820" address="2000 Dartmore Street, Pittsburgh, PA 15210, USA" type="ARREST" description="*********************************************** &lt;br/&gt;4952, Intimidation of Witnesses or Victims&lt;br/&gt;"/><marker lat="40.446803" lng="-80.046051" zone="Zone 6" incidentdate="2014-09-16" incidenttime="00:38:00" incidentnumber="14185135" address="1300 Crucible Street, Pittsburgh, PA 15220, USA" type="ARREST" description="*********************************************** &lt;br/&gt;2701, Simple Assault.&lt;br/&gt;"/><marker lat="40.4763535" lng="-79.9977654" zone="Zone 1" incidentdate="2014-09-16" incidenttime="16:00:00" incidentnumber="14185102" address="700 Mount Pleasant Road, Pittsburgh, PA 15214, USA" type="ARREST" description="*********************************************** &lt;br/&gt;9093, Indirect Criminal Contempt&lt;br/&gt;"/><marker lat="40.456937" lng="-79.8964789" zone="Zone 5" incidentdate="2014-09-16" incidenttime="04:15:00" incidentnumber="13221292" address="North Homewood Avenue &amp; Felicia Way, Pittsburgh, PA 15208, USA" type="ARREST" description="*********************************************** &lt;br/&gt;13(a)(16), Possession of Controlled Substance&lt;br/&gt;"/><marker lat="40.4772001" lng="-79.9189393" zone="Zone 5" incidentdate="2014-09-16" incidenttime="07:30:00" incidentnumber="14185297" address="North Euclid Avenue &amp; Callowhill Street, Pittsburgh, PA 15206, USA" type="ARREST" description="*********************************************** &lt;br/&gt;13(a)(16), Possession of Controlled Substance&lt;br/&gt;13(a)(30), Possession w/ Intent to Del. Controlled Substance&lt;br/&gt;908, Prohibited Offensive Weapons.&lt;br/&gt;13(a)(32), Paraphernalia - Use or Possession&lt;br/&gt;3809(a), Restriction on Alcoholic Beverages in Vehicle&lt;br/&gt;"/><marker lat="40.4122179" lng="-79.9556307" zone="Zone 3" incidentdate="2014-09-16" incidenttime="02:19:00" incidentnumber="14185220" address="East Carson Street, Pennsylvania, USA" type="ARREST" description="*********************************************** &lt;br/&gt;5503(a)(1), DISORDERLY CONDUCT - ENGAGE IN FIGHTING&lt;br/&gt;5505, Public Drunkenness&lt;br/&gt;"/><marker lat="40.4559152" lng="-80.0067824" zone="Zone 1" incidentdate="2014-09-16" incidenttime="16:30:00" incidentnumber="14185586" address="Federal Street &amp; Citron Way, Pittsburgh, PA 15212, USA" type="ARREST" description="*********************************************** &lt;br/&gt;13(a)(16), Possession of Controlled Substance&lt;br/&gt;5503, Disorderly Conduct.&lt;br/&gt;4914, False Identification to Law Enforcement Authorities&lt;br/&gt;9501, Bench Warrant&lt;br/&gt;5126, Flight to Avoid Apprehension, Trial or Punishment.&lt;br/&gt;5104, Resisting Arrest or Other Law Enforcement.&lt;br/&gt;"/><marker lat="40.4287113" lng="-79.9874901" zone="Zone 3" incidentdate="2014-09-16" incidenttime="02:19:00" incidentnumber="14185226" address="East Carson Street &amp; South 11th Street, Pittsburgh, PA 15203, USA" type="ARREST" description="*********************************************** &lt;br/&gt;4302, Periods for Requiring Lighted Lamps.&lt;br/&gt;3334, Turning Movements and Required Signals.&lt;br/&gt;3802(a)(1), DUI - General Impairment&lt;br/&gt;3802(a)(2), DUI - BAC &gt;.08% &lt;.10%&lt;br/&gt;"/><marker lat="40.4634639" lng="-80.0546265" zone="Zone 6" incidentdate="2014-09-16" incidenttime="06:20:00" incidentnumber="14184786" address="Sloan Street, Pittsburgh, PA 15204, USA" type="ARREST" description="*********************************************** &lt;br/&gt;13(a)(31), Marijuana: Possession Small Amount&lt;br/&gt;13(a)(16), Possession of Controlled Substance&lt;br/&gt;13(a)(30), Possession w/ Intent to Del. Controlled Substance&lt;br/&gt;13(a)(32), Paraphernalia - Use or Possession&lt;br/&gt;"/><marker lat="40.4020803" lng="-80.0007366" zone="Zone 3" incidentdate="2014-09-16" incidenttime="11:30:00" incidentnumber="14182006" address="Saw Mill Run Boulevard &amp; Edgebrook Avenue, Pittsburgh, PA 15226, USA" type="ARREST" description="*********************************************** &lt;br/&gt;3742.1, Accident Involv. Death/Inj. While not Licensed&lt;br/&gt;1543, Driving While Operating Privilege is Suspended or Revoked.&lt;br/&gt;3112, Traffic-Control Signals.&lt;br/&gt;1311, Registration Card to be Signed and Exhibited on Demand.&lt;br/&gt;1786, Required Financial Responsibility.&lt;br/&gt;"/><marker lat="40.4356841" lng="-80.0504785" zone="Zone 6" incidentdate="2014-09-16" incidenttime="13:31:00" incidentnumber="14185479" address="1400 Hartwell Street, Pittsburgh, PA 15205, USA" type="ARREST" description="*********************************************** &lt;br/&gt;2701, Simple Assault.&lt;br/&gt;"/><marker lat="40.4275995" lng="-79.9955291" zone="Zone 3" incidentdate="2014-09-16" incidenttime="11:43:00" incidentnumber="14185453" address="500 Arlington Avenue, Pittsburgh, PA 15203, USA" type="ARREST" description="*********************************************** &lt;br/&gt;9093, Indirect Criminal Contempt&lt;br/&gt;"/><marker lat="40.4763535" lng="-79.9977654" zone="Zone 1" incidentdate="2014-09-16" incidenttime="23:44:00" incidentnumber="14185057" address="700 Mount Pleasant Road, Pittsburgh, PA 15214, USA" type="ARREST" description="*********************************************** &lt;br/&gt;2706, Terroristic Threats.&lt;br/&gt;2904, Interference with Custody of Children.&lt;br/&gt;029, Missing Juvenile&lt;br/&gt;2909, Concealment of Whereabouts of a Child.&lt;br/&gt;"/><marker lat="40.4297763" lng="-80.0041737" zone="Zone 3" incidentdate="2014-09-16" incidenttime="14:35:00" incidentnumber="14176147" address="100 East Sycamore Street, Pittsburgh, PA 15211, USA" type="ARREST" description="*********************************************** &lt;br/&gt;2701, Simple Assault.&lt;br/&gt;4952, Intimidation of Witnesses or Victims&lt;br/&gt;"/><marker lat="40.4606459" lng="-79.9227644" zone="Zone 5" incidentdate="2014-09-16" incidenttime="19:10:00" incidentnumber="14185718" address="6200 Penn Avenue, Pittsburgh, PA 15206, USA" type="ARREST" description="*********************************************** &lt;br/&gt;13(a)(32), Paraphernalia - Use or Possession&lt;br/&gt;2705, Recklessly Endangering Another Person.&lt;br/&gt;3929, Retail Theft.&lt;br/&gt;"/><marker lat="40.4409791" lng="-79.964935" zone="Zone 4" incidentdate="2014-09-16" incidenttime="09:15:00" incidentnumber="14185337" address="200 Dunseith Street, Pittsburgh, PA 15213, USA" type="ARREST" description="*********************************************** &lt;br/&gt;9093, Indirect Criminal Contempt&lt;br/&gt;"/><marker lat="40.4359335" lng="-79.9971487" zone="Zone 2" incidentdate="2014-09-16" incidenttime="13:50:00" incidentnumber="14159828" address="600 First Avenue, Pittsburgh, PA 15219, USA" type="ARREST" description="*********************************************** &lt;br/&gt;2701(a)(1), Simple Assault - Intent., Know., Reckless.Cause Bod. Injury&lt;br/&gt;"/><marker lat="40.4359335" lng="-79.9971487" zone="Zone 2" incidentdate="2014-09-16" incidenttime="14:15:00" incidentnumber="14184317" address="600 First Avenue, Pittsburgh, PA 15219, USA" type="ARREST" description="*********************************************** &lt;br/&gt;1543, Driving While Operating Privilege is Suspended or Revoked.&lt;br/&gt;3743, Accidents Involving Damage to Attended Veh. or Property&lt;br/&gt;3802(a)(1), DUI - General Impairment&lt;br/&gt;3742, Accidents Involving Death or Personal Injury&lt;br/&gt;3802(b), DUI - High Rate of Alchol - BAC &gt;=.10% &lt;.16%&lt;br/&gt;3736, Reckless Driving&lt;br/&gt;3301, Arson&lt;br/&gt;"/><marker lat="40.4154719" lng="-79.9905754" zone="Zone 3" incidentdate="2014-09-16" incidenttime="16:04:00" incidentnumber="14185505" address="Knox Avenue, Pittsburgh, PA 15210, USA" type="ARREST" description="*********************************************** &lt;br/&gt;13(a)(16), Possession of Controlled Substance&lt;br/&gt;13(a)(30), Possession w/ Intent to Del. Controlled Substance&lt;br/&gt;903, Criminal Conspiracy.&lt;br/&gt;5101, Obstructing Admin. of Law&lt;br/&gt;13(a)(32), Paraphernalia - Use or Possession&lt;br/&gt;13(a)(30)*, Delivery of Controlled Substance&lt;br/&gt;Convict, enumerated in subsection (b)&lt;br/&gt;3925, Receiving Stolen Property.&lt;br/&gt;6105(a)(1), Persons not to possess, use, manufacture, control, sell or transfer firearms: Former&lt;br/&gt;"/><marker lat="40.4154719" lng="-79.9905754" zone="Zone 3" incidentdate="2014-09-16" incidenttime="16:04:00" incidentnumber="14185505" address="Knox Avenue, Pittsburgh, PA 15210, USA" type="ARREST" description="*********************************************** &lt;br/&gt;13(a)(16), Possession of Controlled Substance&lt;br/&gt;13(a)(30), Possession w/ Intent to Del. Controlled Substance&lt;br/&gt;903, Criminal Conspiracy.&lt;br/&gt;5101, Obstructing Admin. of Law&lt;br/&gt;13(a)(32), Paraphernalia - Use or Possession&lt;br/&gt;13(a)(30)*, Delivery of Controlled Substance&lt;br/&gt;Convict, enumerated in subsection (b)&lt;br/&gt;3925, Receiving Stolen Property.&lt;br/&gt;6105(a)(1), Persons not to possess, use, manufacture, control, sell or transfer firearms: Former&lt;br/&gt;"/><marker lat="40.4154719" lng="-79.9905754" zone="Zone 3" incidentdate="2014-09-16" incidenttime="16:04:00" incidentnumber="14185505" address="Knox Avenue, Pittsburgh, PA 15210, USA" type="ARREST" description="*********************************************** &lt;br/&gt;13(a)(16), Possession of Controlled Substance&lt;br/&gt;13(a)(30), Possession w/ Intent to Del. Controlled Substance&lt;br/&gt;903, Criminal Conspiracy.&lt;br/&gt;5101, Obstructing Admin. of Law&lt;br/&gt;13(a)(32), Paraphernalia - Use or Possession&lt;br/&gt;13(a)(30)*, Delivery of Controlled Substance&lt;br/&gt;Convict, enumerated in subsection (b)&lt;br/&gt;3925, Receiving Stolen Property.&lt;br/&gt;6105(a)(1), Persons not to possess, use, manufacture, control, sell or transfer firearms: Former&lt;br/&gt;"/><marker lat="40.4154719" lng="-79.9905754" zone="Zone 3" incidentdate="2014-09-16" incidenttime="16:04:00" incidentnumber="14185505" address="Knox Avenue, Pittsburgh, PA 15210, USA" type="ARREST" description="*********************************************** &lt;br/&gt;13(a)(16), Possession of Controlled Substance&lt;br/&gt;13(a)(30), Possession w/ Intent to Del. Controlled Substance&lt;br/&gt;903, Criminal Conspiracy.&lt;br/&gt;5101, Obstructing Admin. of Law&lt;br/&gt;13(a)(32), Paraphernalia - Use or Possession&lt;br/&gt;13(a)(30)*, Delivery of Controlled Substance&lt;br/&gt;Convict, enumerated in subsection (b)&lt;br/&gt;3925, Receiving Stolen Property.&lt;br/&gt;6105(a)(1), Persons not to possess, use, manufacture, control, sell or transfer firearms: Former&lt;br/&gt;"/><marker lat="40.474647" lng="-79.91829" zone="Zone 5" incidentdate="2014-09-16" incidenttime="12:00:00" incidentnumber="14136313" address="1200 North Highland Avenue, Pittsburgh, PA 15206, USA" type="ARREST" description="*********************************************** &lt;br/&gt;3304, Criminal Mischief.&lt;br/&gt;3502, Burglary.&lt;br/&gt;3921, Theft by Unlawful Taking or Disposition.&lt;br/&gt;"/><marker lat="40.460957" lng="-79.916605" zone="Zone 5" incidentdate="2014-09-16" incidenttime="12:00:00" incidentnumber="14185426" address="400 Enright Court, Pittsburgh, PA 15206, USA" type="ARREST" description="*********************************************** &lt;br/&gt;2904, Interference with Custody of Children.&lt;br/&gt;"/><marker lat="40.4237922" lng="-79.9521696" zone="Zone 2" incidentdate="2014-09-16" incidenttime="15:55:00" incidentnumber="13183073" address="900 Second Avenue, Pittsburgh, PA 15207, USA" type="ARREST" description="*********************************************** &lt;br/&gt;1543, Driving While Operating Privilege is Suspended or Revoked.&lt;br/&gt;908, Prohibited Offensive Weapons.&lt;br/&gt;3733, Fleeing or Attempting to Elude Police Officer&lt;br/&gt;3802(b), DUI - High Rate of Alchol - BAC &gt;=.10% &lt;.16%&lt;br/&gt;3334, Turning Movements and Required Signals.&lt;br/&gt;3112, Traffic-Control Signals.&lt;br/&gt;3736, Reckless Driving&lt;br/&gt;"/><marker lat="40.3967106" lng="-80.0249027" zone="Zone 6" incidentdate="2014-09-16" incidenttime="10:35:00" incidentnumber="14185388" address="2600 Plainview Avenue, Pittsburgh, PA 15226, USA" type="ARREST" description="*********************************************** &lt;br/&gt;2702, Aggravated Assault.&lt;br/&gt;2705, Recklessly Endangering Another Person.&lt;br/&gt;"/><marker lat="40.4387143" lng="-79.9994904" zone="Zone 2" incidentdate="2014-09-16" incidenttime="16:57:00" incidentnumber="14185621" address="400 Smithfield Street, Pittsburgh, PA 15222, USA" type="ARREST" description="*********************************************** &lt;br/&gt;13(a)(31), Marijuana: Possession Small Amount&lt;br/&gt;13(a)(16), Possession of Controlled Substance&lt;br/&gt;1543, Driving While Operating Privilege is Suspended or Revoked.&lt;br/&gt;13(a)(30), Possession w/ Intent to Del. Controlled Substance&lt;br/&gt;3353, Prohibitions in Specified Places.&lt;br/&gt;5123, Contraband.&lt;br/&gt;5121, Escape.&lt;br/&gt;"/><marker lat="40.4156606" lng="-80.0197172" zone="Zone 6" incidentdate="2014-09-16" incidenttime="19:00:00" incidentnumber="14143093" address="1200 Westfield Street, Pittsburgh, PA 15216, USA" type="ARREST" description="*********************************************** &lt;br/&gt;3502, Burglary.&lt;br/&gt;903, Criminal Conspiracy.&lt;br/&gt;3921, Theft by Unlawful Taking or Disposition.&lt;br/&gt;"/><marker lat="40.4237922" lng="-79.9521696" zone="Zone 2" incidentdate="2014-09-16" incidenttime="17:45:00" incidentnumber="14029631" address="900 Second Avenue, Pittsburgh, PA 15207, USA" type="ARREST" description="*********************************************** &lt;br/&gt;2701, Simple Assault.&lt;br/&gt;"/><marker lat="40.441132" lng="-80.001989" zone="Zone 2" incidentdate="2014-09-16" incidenttime="18:02:00" incidentnumber="14185684" address="200 Fifth Avenue, Pittsburgh, PA 15222, USA" type="ARREST" description="*********************************************** &lt;br/&gt;3929, Retail Theft.&lt;br/&gt;"/><marker lat="40.4526235" lng="-79.9103897" zone="Zone 4" incidentdate="2014-09-16" incidenttime="18:10:00" incidentnumber="14185667" address="100 South Linden Avenue, Pittsburgh, PA 15208, USA" type="ARREST" description="*********************************************** &lt;br/&gt;13(a)(31), Marijuana: Possession Small Amount&lt;br/&gt;13(a)(32), Paraphernalia - Use or Possession&lt;br/&gt;"/><marker lat="40.4396049" lng="-80.0050283" zone="Zone 2" incidentdate="2014-09-16" incidenttime="19:06:00" incidentnumber="14185711" address="Boulevard of the Allies &amp; Stanwix Street, Pittsburgh, PA 15222, USA" type="ARREST" description="*********************************************** &lt;br/&gt;2701, Simple Assault.&lt;br/&gt;5104, Resisting Arrest or Other Law Enforcement.&lt;br/&gt;5503, Disorderly Conduct.&lt;br/&gt;5505, Public Drunkenness&lt;br/&gt;"/><marker lat="40.446803" lng="-80.046051" zone="Zone 6" incidentdate="2014-09-16" incidenttime="00:38:00" incidentnumber="14185135" address="1300 Crucible Street, Pittsburgh, PA 15220, USA" type="ARREST" description="*********************************************** &lt;br/&gt;2701, Simple Assault.&lt;br/&gt;"/><marker lat="40.4419631" lng="-79.9786532" zone="Zone 2" incidentdate="2014-09-16" incidenttime="20:33:00" incidentnumber="14185769" address="2000 Bentley Drive, Pittsburgh, PA 15219, USA" type="ARREST" description="*********************************************** &lt;br/&gt;2701(a)(3), Simple Assault - Attempts by Physical Menace&lt;br/&gt;907, Possessing Instruments of Crime.&lt;br/&gt;"/></markers>
