<?xml version="1.0"?>
<markers><marker lat="40.46518256293681" lng="-79.957961556776254" zone="Zone 2" incidentdate="2015-10-13" incidenttime="15:20:00" incidentnumber="15196603" address="Penn Ave &amp; 40th St" type="OFFENSE" age="" gender="" description="*********************************************** &lt;br/&gt;3743, Accidents Involving Damage to Attended Veh. or Property&lt;br/&gt;"/><marker lat="40.414309475534907" lng="-79.990557634779719" zone="Zone 3" incidentdate="2015-10-13" incidenttime="13:30:00" incidentnumber="15196620" address="200 block Bausman St" type="OFFENSE" age="" gender="" description="*********************************************** &lt;br/&gt;3921, Theft by Unlawful Taking or Disposition.&lt;br/&gt;"/><marker lat="40.45603240287538" lng="-80.063311385591874" zone="Zone 6" incidentdate="2015-10-13" incidenttime="00:01:00" incidentnumber="15196758" address="1100 block Tweed St" type="OFFENSE" age="" gender="" description="*********************************************** &lt;br/&gt;2709(a), Harassment.&lt;br/&gt;"/><marker lat="40.444700495407965" lng="-79.970104160188043" zone="Zone 2" incidentdate="2015-10-13" incidenttime="16:20:00" incidentnumber="15196635" address="2500 block Brackenridge St" type="OFFENSE" age="" gender="" description="*********************************************** &lt;br/&gt;3304, Criminal Mischief.&lt;br/&gt;"/><marker lat="40.4415422" lng="-79.9569754" zone="Zone 4" incidentdate="2015-10-13" incidenttime="17:43:00" incidentnumber="15196690" address="200 block Oakland Ave" type="OFFENSE" age="" gender="" description="*********************************************** &lt;br/&gt;5505, Public Drunkenness&lt;br/&gt;"/><marker lat="40.4539247715024" lng="-79.997839351546148" zone="Zone 1" incidentdate="2015-10-13" incidenttime="19:28:00" incidentnumber="15196764" address="East St &amp; east Ohio St" type="OFFENSE" age="" gender="" description="*********************************************** &lt;br/&gt;5507, Obstructing Highways and Passages.&lt;br/&gt;"/><marker lat="40.440479716215464" lng="-79.965333815773448" zone="Zone 4" incidentdate="2015-10-13" incidenttime="12:00:00" incidentnumber="15196478" address="200 block ROBINSON St" type="OFFENSE" age="" gender="" description="*********************************************** &lt;br/&gt;4120, Identity Theft&lt;br/&gt;"/><marker lat="40.403711981483085" lng="-79.942309813347563" zone="Zone 4" incidentdate="2015-10-13" incidenttime="18:17:00" incidentnumber="15196706" address="2nd Ave &amp; Mansion St" type="OFFENSE" age="" gender="" description="*********************************************** &lt;br/&gt;13(a)(31), Marijuana: Possession Small Amount&lt;br/&gt;1543, Driving While Operating Privilege is Suspended or Revoked.&lt;br/&gt;4703, Operation of Vehicle without Official Certif. of Inspection&lt;br/&gt;"/><marker lat="40.457985769684555" lng="-80.025946714371727" zone="Zone 1" incidentdate="2015-10-13" incidenttime="20:44:00" incidentnumber="15196821" address="Columbus Ave &amp; Fulton St" type="OFFENSE" age="" gender="" description="*********************************************** &lt;br/&gt;13(a)(16), Possession of Controlled Substance&lt;br/&gt;13(a)(30), Possession w/ Intent to Del. Controlled Substance&lt;br/&gt;1543, Driving While Operating Privilege is Suspended or Revoked.&lt;br/&gt;3323, Stop Signs and Yield Signs.&lt;br/&gt;"/><marker lat="40.443580942147605" lng="-79.979979097296493" zone="Zone 2" incidentdate="2015-10-13" incidenttime="01:31:00" incidentnumber="15196199" address="2000 block Centre Ave" type="OFFENSE" age="" gender="" description="*********************************************** &lt;br/&gt;9497, Aided Case&lt;br/&gt;"/><marker lat="40.464523151695651" lng="-79.943248841164618" zone="Zone 5" incidentdate="2015-10-13" incidenttime="15:00:00" incidentnumber="15196606" address="200 block S Winebiddle St" type="OFFENSE" age="" gender="" description="*********************************************** &lt;br/&gt;2709(a), Harassment.&lt;br/&gt;"/><marker lat="40.463374226553498" lng="-79.903977326997421" zone="Zone 5" incidentdate="2015-10-13" incidenttime="16:51:00" incidentnumber="15196649" address="Lincoln Ave &amp; Tennis Way" type="OFFENSE" age="" gender="" description="*********************************************** &lt;br/&gt;13(a)(16), Possession of Controlled Substance&lt;br/&gt;13(a)(30), Possession w/ Intent to Del. Controlled Substance&lt;br/&gt;4910, Tampering with or Fabricating Physical Evidence.&lt;br/&gt;5104, Resisting Arrest or Other Law Enforcement.&lt;br/&gt;1543, Driving While Operating Privilege is Suspended or Revoked.&lt;br/&gt;4303, General Lighting Requirements.&lt;br/&gt;5121, Escape.&lt;br/&gt;6106, Firearms not to be Carried without a License.&lt;br/&gt;6105(a)(1), Persons not to possess, use, manufacture, control, sell or transfer firearms: Former convict enumerated in subsection (b)&lt;br/&gt;"/><marker lat="40.469402832434795" lng="-79.961076876371706" zone="Zone 2" incidentdate="2015-10-13" incidenttime="12:33:00" incidentnumber="15185555" address="4100 block Butler St" type="OFFENSE" age="" gender="" description="*********************************************** &lt;br/&gt;3502, Burglary.&lt;br/&gt;3921, Theft by Unlawful Taking or Disposition.&lt;br/&gt;3925, Receiving Stolen Property.&lt;br/&gt;"/><marker lat="40.465157804159951" lng="-79.922171643415098" zone="Zone 5" incidentdate="2015-10-13" incidenttime="14:10:00" incidentnumber="15196547" address="400 block N Highland Ave" type="OFFENSE" age="" gender="" description="*********************************************** &lt;br/&gt;13(a)(16), Possession of Controlled Substance&lt;br/&gt;3929, Retail Theft.&lt;br/&gt;"/><marker lat="40.451472531815462" lng="-79.949109183851704" zone="Zone 4" incidentdate="2015-10-13" incidenttime="12:00:00" incidentnumber="15196504" address="4700 block Wallingford St" type="OFFENSE" age="" gender="" description="*********************************************** &lt;br/&gt;3745, Accidents Involving Damage to Unattended Veh.or Prop.&lt;br/&gt;"/><marker lat="40.450813726288715" lng="-79.972243374536816" zone="Zone 2" incidentdate="2015-10-13" incidenttime="22:10:00" incidentnumber="15196867" address="Bedford Ave &amp; Chauncey Dr" type="OFFENSE" age="" gender="" description="*********************************************** &lt;br/&gt;3802(a)(1), DUI - General Impairment&lt;br/&gt;3802(c), DUI - Highest Rate of Alcohol - BAC &gt;= .16%&lt;br/&gt;3323, Stop Signs and Yield Signs.&lt;br/&gt;"/><marker lat="40.438169441142144" lng="-79.996063267425882" zone="Zone 2" incidentdate="2015-10-13" incidenttime="19:45:00" incidentnumber="15196794" address="500 block Forbes Ave" type="OFFENSE" age="" gender="" description="*********************************************** &lt;br/&gt;3745, Accidents Involving Damage to Unattended Veh.or Prop.&lt;br/&gt;"/><marker lat="40.454591517408097" lng="-79.920130780447323" zone="Zone 4" incidentdate="2015-10-13" incidenttime="13:30:00" incidentnumber="15196598" address="400 block Denniston St" type="OFFENSE" age="" gender="" description="*********************************************** &lt;br/&gt;3304(a)(5), CRIMINAL MISCHIEF - Intentionally Damages Real Or Personal Property Of Another&lt;br/&gt;"/><marker lat="40.463782939748789" lng="-80.02270722547928" zone="Zone 1" incidentdate="2015-10-13" incidenttime="01:58:00" incidentnumber="15196212" address="Brighton Rd &amp; Island Ave" type="OFFENSE" age="" gender="" description="*********************************************** &lt;br/&gt;9501, Bench Warrant&lt;br/&gt;1543, Driving While Operating Privilege is Suspended or Revoked.&lt;br/&gt;4303, General Lighting Requirements.&lt;br/&gt;3310, Following Too Closely.&lt;br/&gt;"/><marker lat="40.421806380409613" lng="-80.01129895857413" zone="Zone 3" incidentdate="2015-10-13" incidenttime="09:00:00" incidentnumber="15196371" address="Griffin St &amp; Lelia St" type="OFFENSE" age="" gender="" description="*********************************************** &lt;br/&gt;3304, Criminal Mischief.&lt;br/&gt;"/><marker lat="40.415617847895668" lng="-79.969380833828978" zone="Zone 3" incidentdate="2015-10-13" incidenttime="00:48:00" incidentnumber="15196170" address="2800 block Spring St" type="OFFENSE" age="" gender="" description="*********************************************** &lt;br/&gt;3502, Burglary.&lt;br/&gt;2702, Aggravated Assault.&lt;br/&gt;"/><marker lat="40.438114250733108" lng="-79.985084920844415" zone="Zone 2" incidentdate="2015-10-13" incidenttime="00:25:00" incidentnumber="15196211" address="Pride St &amp; Watson St" type="OFFENSE" age="" gender="" description="*********************************************** &lt;br/&gt;2702, Aggravated Assault.&lt;br/&gt;3701, Robbery.&lt;br/&gt;"/><marker lat="40.462490434210274" lng="-79.924344976494197" zone="Zone 5" incidentdate="2015-10-13" incidenttime="11:00:00" incidentnumber="15196760" address="N Highland Ave &amp; Broad St" type="OFFENSE" age="" gender="" description="*********************************************** &lt;br/&gt;9489, Found Property&lt;br/&gt;"/><marker lat="40.409290209574245" lng="-79.998501790926525" zone="Zone 3" incidentdate="2015-10-13" incidenttime="07:00:00" incidentnumber="15196681" address="200 block Camfield St" type="OFFENSE" age="" gender="" description="*********************************************** &lt;br/&gt;3304, Criminal Mischief.&lt;br/&gt;3934, Theft from Vehicle&lt;br/&gt;"/><marker lat="40.467095717980634" lng="-80.011436631773279" zone="Zone 1" incidentdate="2015-10-13" incidenttime="15:42:00" incidentnumber="15196588" address="200 block Chester Ave" type="OFFENSE" age="" gender="" description="*********************************************** &lt;br/&gt;9488, False  Burglar Alarm&lt;br/&gt;"/><marker lat="40.426007295035902" lng="-79.980793153858343" zone="Zone 3" incidentdate="2015-10-13" incidenttime="16:30:00" incidentnumber="15196664" address="1800 block Mary St" type="OFFENSE" age="" gender="" description="*********************************************** &lt;br/&gt;3502, Burglary.&lt;br/&gt;"/><marker lat="40.4386210" lng="-79.9767342" zone="Zone 4" incidentdate="2015-10-13" incidenttime="07:14:00" incidentnumber="15196317" address="2000 block De Ruad St" type="OFFENSE" age="" gender="" description="*********************************************** &lt;br/&gt;3304, Criminal Mischief.&lt;br/&gt;2707.1, Discharge of a Firearm into Occupied Structure&lt;br/&gt;"/><marker lat="40.456074371118916" lng="-80.056352185035564" zone="Zone 6" incidentdate="2015-10-13" incidenttime="03:00:00" incidentnumber="15196241" address="3100 block Ashlyn St" type="OFFENSE" age="" gender="" description="*********************************************** &lt;br/&gt;9488, False  Burglar Alarm&lt;br/&gt;"/><marker lat="40.406687634059274" lng="-79.945387250702737" zone="Zone 4" incidentdate="2015-10-13" incidenttime="06:45:00" incidentnumber="15196310" address="5100 block Lytle St" type="OFFENSE" age="" gender="" description="*********************************************** &lt;br/&gt;3921(a), Theft by Unlawful Taking or Disposition - Movable item&lt;br/&gt;"/><marker lat="40.423181653741167" lng="-79.928733488981621" zone="Zone 4" incidentdate="2015-10-13" incidenttime="14:50:00" incidentnumber="15196578" address="4200 block Murray Ave" type="OFFENSE" age="" gender="" description="*********************************************** &lt;br/&gt;3929, Retail Theft.&lt;br/&gt;"/><marker lat="40.440058358766059" lng="-79.967554455911255" zone="Zone 2" incidentdate="2015-10-13" incidenttime="01:35:00" incidentnumber="15196197" address="200 block Whitridge St" type="OFFENSE" age="" gender="" description="*********************************************** &lt;br/&gt;2701, Simple Assault.&lt;br/&gt;"/><marker lat="40.455874291296567" lng="-79.996820323563981" zone="Zone 1" incidentdate="2015-10-13" incidenttime="00:27:00" incidentnumber="15196159" address="900 block Turtle Way" type="OFFENSE" age="" gender="" description="*********************************************** &lt;br/&gt;9123, Miscellaneous Fire Other Investigation to Continue&lt;br/&gt;"/><marker lat="40.473002858991329" lng="-80.03533999410692" zone="Zone 1" incidentdate="2015-10-13" incidenttime="11:10:00" incidentnumber="15196433" address="100 block Lecky Ave" type="OFFENSE" age="" gender="" description="*********************************************** &lt;br/&gt;9489, Found Property&lt;br/&gt;"/><marker lat="40.476795069167544" lng="-79.922612001757045" zone="Zone 5" incidentdate="2015-10-13" incidenttime="11:35:00" incidentnumber="15196453" address="Bryant St &amp; Portland St" type="OFFENSE" age="" gender="" description="*********************************************** &lt;br/&gt;3802(d)(2), DUI - Drug - Impaired Ability&lt;br/&gt;"/><marker lat="40.459720587838888" lng="-80.029461163773448" zone="Zone 1" incidentdate="2015-10-13" incidenttime="12:00:00" incidentnumber="15196476" address="2000 block Knott St" type="OFFENSE" age="" gender="" description="*********************************************** &lt;br/&gt;3922, Theft by Deception.&lt;br/&gt;"/><marker lat="40.437674058241967" lng="-79.986497040382901" zone="Zone 2" incidentdate="2015-10-13" incidenttime="15:44:00" incidentnumber="15196595" address="1400 block Forbes Ave" type="OFFENSE" age="" gender="" description="*********************************************** &lt;br/&gt;029, Missing Juvenile&lt;br/&gt;"/><marker lat="40.456839195430454" lng="-79.999232378956989" zone="Zone 1" incidentdate="2015-10-13" incidenttime="16:30:00" incidentnumber="15196694" address="Howard St &amp; E North Ave" type="OFFENSE" age="" gender="" description="*********************************************** &lt;br/&gt;3304, Criminal Mischief.&lt;br/&gt;3934, Theft from Vehicle&lt;br/&gt;"/><marker lat="40.464888896469546" lng="-80.012409107254101" zone="Zone 1" incidentdate="2015-10-13" incidenttime="17:30:00" incidentnumber="15196665" address="2200 block WILSON Ave" type="OFFENSE" age="" gender="" description="*********************************************** &lt;br/&gt;2709(a)(1), Harassment by Physical Contact, or Attempts or Threats&lt;br/&gt;"/><marker lat="40.429386676369347" lng="-79.985320101999974" zone="Zone 3" incidentdate="2015-10-13" incidenttime="16:30:00" incidentnumber="15196659" address="300 block Bingham St" type="OFFENSE" age="" gender="" description="*********************************************** &lt;br/&gt;425.26, Miscellaneous&lt;br/&gt;"/><marker lat="40.405118641311411" lng="-80.029017936914556" zone="Zone 6" incidentdate="2015-10-13" incidenttime="16:15:00" incidentnumber="15196723" address="2100 block Los Angeles Ave" type="OFFENSE" age="" gender="" description="*********************************************** &lt;br/&gt;9497, Aided Case&lt;br/&gt;"/><marker lat="40.4538415518075" lng="-80.065153503817712" zone="Zone 6" incidentdate="2015-10-13" incidenttime="19:45:00" incidentnumber="15196783" address="1300 block Jeffers St" type="OFFENSE" age="" gender="" description="*********************************************** &lt;br/&gt;9501, Bench Warrant&lt;br/&gt;"/><marker lat="40.449606365527259" lng="-79.974270684591801" zone="Zone 2" incidentdate="2015-10-13" incidenttime="17:22:00" incidentnumber="15196675" address="2400 block Bedford Ave" type="OFFENSE" age="" gender="" description="*********************************************** &lt;br/&gt;3503.B1I, DEF. TRESPASS ACTUAL COMMUNICATION&lt;br/&gt;4914, False Identification to Law Enforcement Authorities&lt;br/&gt;4914(A), False Identification to Law Enforcement&lt;br/&gt;"/><marker lat="40.438917876440819" lng="-80.001250590800993" zone="Zone 2" incidentdate="2015-10-13" incidenttime="11:30:00" incidentnumber="15196587" address="300 block Wood St" type="OFFENSE" age="" gender="" description="*********************************************** &lt;br/&gt;3502, Burglary.&lt;br/&gt;"/><marker lat="40.41910505809637" lng="-79.995820009539997" zone="Zone 3" incidentdate="2015-10-13" incidenttime="17:00:00" incidentnumber="15196701" address="Millbridge St" type="OFFENSE" age="" gender="" description="*********************************************** &lt;br/&gt;3502, Burglary.&lt;br/&gt;"/><marker lat="40.48141917173249" lng="-80.036277442332121" zone="Zone 1" incidentdate="2015-10-13" incidenttime="19:36:00" incidentnumber="15196824" address="1400 block Davis Ave" type="OFFENSE" age="" gender="" description="*********************************************** &lt;br/&gt;3921(a), Theft by Unlawful Taking or Disposition - Movable item&lt;br/&gt;"/><marker lat="40.44399023304031" lng="-80.002630134211415" zone="Zone 2" incidentdate="2015-10-13" incidenttime="21:00:00" incidentnumber="15196840" address="100 block 6th St" type="OFFENSE" age="" gender="" description="*********************************************** &lt;br/&gt;3745, Accidents Involving Damage to Unattended Veh.or Prop.&lt;br/&gt;"/><marker lat="40.444788932801089" lng="-79.975865372504259" zone="Zone 2" incidentdate="2015-10-13" incidenttime="11:11:00" incidentnumber="15196439" address="Kirkpatrick St &amp; La Place St" type="OFFENSE" age="" gender="" description="*********************************************** &lt;br/&gt;13(a)(16), Possession of Controlled Substance&lt;br/&gt;13(a)(30), Possession w/ Intent to Del. Controlled Substance&lt;br/&gt;2705, Recklessly Endangering Another Person.&lt;br/&gt;1501, Drivers Required to be Licensed.&lt;br/&gt;4914, False Identification to Law Enforcement Authorities&lt;br/&gt;3925, Receiving Stolen Property.&lt;br/&gt;6106, Firearms not to be Carried without a License.&lt;br/&gt;3733, Fleeing or Attempting to Elude Police Officer&lt;br/&gt;"/><marker lat="40.447070656722659" lng="-79.895151948393476" zone="Zone 4" incidentdate="2015-10-13" incidenttime="19:32:00" incidentnumber="15196787" address="7600 block Penn Ave" type="OFFENSE" age="" gender="" description="*********************************************** &lt;br/&gt;9999, 9999 - (Misc. Incident):&lt;br/&gt;"/><marker lat="40.447791383449896" lng="-80.003763673123132" zone="Zone 1" incidentdate="2015-10-13" incidenttime="01:46:00" incidentnumber="15196201" address="100 block Federal St S" type="OFFENSE" age="" gender="" description="*********************************************** &lt;br/&gt;9488, False  Burglar Alarm&lt;br/&gt;"/><marker lat="40.435311914472358" lng="-80.013016379716703" zone="Zone 3" incidentdate="2015-10-13" incidenttime="07:30:00" incidentnumber="15196391" address="100 block Merrimac St" type="OFFENSE" age="" gender="" description="*********************************************** &lt;br/&gt;3304, Criminal Mischief.&lt;br/&gt;"/><marker lat="40.427222544251535" lng="-79.97140725023084" zone="Zone 3" incidentdate="2015-10-13" incidenttime="12:32:00" incidentnumber="15196483" address="2400 block Sarah St" type="OFFENSE" age="" gender="" description="*********************************************** &lt;br/&gt;9496, Dead on Arrival (DOA)&lt;br/&gt;"/><marker lat="40.434715054279749" lng="-79.922704671110267" zone="Zone 4" incidentdate="2015-10-13" incidenttime="16:55:00" incidentnumber="15196873" address="5800 block Beacon St" type="OFFENSE" age="" gender="" description="*********************************************** &lt;br/&gt;3743, Accidents Involving Damage to Attended Veh. or Property&lt;br/&gt;"/><marker lat="40.453881093138619" lng="-79.873029877694393" zone="Zone 5" incidentdate="2015-10-13" incidenttime="20:04:00" incidentnumber="15196795" address="2200 block East Hills Dr" type="OFFENSE" age="" gender="" description="*********************************************** &lt;br/&gt;3304, Criminal Mischief.&lt;br/&gt;"/><marker lat="40.478846468228319" lng="-80.043103207786132" zone="Zone 1" incidentdate="2015-10-13" incidenttime="07:20:00" incidentnumber="15196441" address="Mckees Rocks Brg &amp; Ohio River Blvd" type="OFFENSE" age="" gender="" description="*********************************************** &lt;br/&gt;3304, Criminal Mischief.&lt;br/&gt;"/><marker lat="40.43752158404957" lng="-79.998049274415123" zone="Zone 2" incidentdate="2015-10-13" incidenttime="12:15:00" incidentnumber="15196575" address="3rd Ave &amp; Grant St" type="OFFENSE" age="" gender="" description="*********************************************** &lt;br/&gt;3743, Accidents Involving Damage to Attended Veh. or Property&lt;br/&gt;"/><marker lat="40.421360225486687" lng="-79.91857085526965" zone="Zone 4" incidentdate="2015-10-13" incidenttime="13:04:00" incidentnumber="15196500" address="3000 block Beechwood Blvd" type="OFFENSE" age="" gender="" description="*********************************************** &lt;br/&gt;9489, Found Property&lt;br/&gt;"/><marker lat="40.384413993627369" lng="-79.994277181866664" zone="Zone 3" incidentdate="2015-10-13" incidenttime="21:35:00" incidentnumber="15196866" address="Maytide St" type="OFFENSE" age="" gender="" description="*********************************************** &lt;br/&gt;13(a)(16), Possession of Controlled Substance&lt;br/&gt;13(a)(31), Marijuana: Possession Small Amount&lt;br/&gt;13(a)(32), Paraphernalia - Use or Possession&lt;br/&gt;4910, Tampering with or Fabricating Physical Evidence.&lt;br/&gt;1543, Driving While Operating Privilege is Suspended or Revoked.&lt;br/&gt;3334, Turning Movements and Required Signals.&lt;br/&gt;3809(a), Restriction on Alcoholic Beverages in Vehicle&lt;br/&gt;"/><marker lat="40.465836174768668" lng="-79.943887844985269" zone="Zone 5" incidentdate="2015-10-13" incidenttime="17:40:00" incidentnumber="15196714" address="5000 block Dearborn St" type="OFFENSE" age="" gender="" description="*********************************************** &lt;br/&gt;9999, 9999 - (Misc. Incident):&lt;br/&gt;"/><marker lat="40.460268383400177" lng="-79.991521549865112" zone="Zone 1" incidentdate="2015-10-13" incidenttime="20:05:00" incidentnumber="15196806" address="1200 block Spring Garden Ave" type="OFFENSE" age="" gender="" description="*********************************************** &lt;br/&gt;3304, Criminal Mischief.&lt;br/&gt;2709, Harassment (Non-Specific)&lt;br/&gt;"/><marker lat="40.461223095082595" lng="-79.993186286415295" zone="Zone 1" incidentdate="2015-10-13" incidenttime="08:27:00" incidentnumber="15196343" address="Itin St &amp; Goehring St" type="OFFENSE" age="" gender="" description="*********************************************** &lt;br/&gt;13(a)(31), Marijuana: Possession Small Amount&lt;br/&gt;1543, Driving While Operating Privilege is Suspended or Revoked.&lt;br/&gt;4524, Windshield Obstructions and Wipers.&lt;br/&gt;"/><marker lat="40.455036812870759" lng="-80.001981652122481" zone="Zone 1" incidentdate="2015-10-13" incidenttime="15:15:00" incidentnumber="15196579" address="900 block Cedar Ave" type="OFFENSE" age="" gender="" description="*********************************************** &lt;br/&gt;2701, Simple Assault.&lt;br/&gt;5505, Public Drunkenness&lt;br/&gt;"/><marker lat="40.4460973" lng="-80.0103369" zone="Zone 1" incidentdate="2015-10-13" incidenttime="03:47:00" incidentnumber="15196264" address="300 block North Shore Dr" type="OFFENSE" age="" gender="" description="*********************************************** &lt;br/&gt;9488, False  Burglar Alarm&lt;br/&gt;"/><marker lat="40.438949311117092" lng="-79.998479763213126" zone="Zone 2" incidentdate="2015-10-13" incidenttime="21:30:00" incidentnumber="15196872" address="400 block Cherry Way" type="OFFENSE" age="" gender="" description="*********************************************** &lt;br/&gt;3304, Criminal Mischief.&lt;br/&gt;3934, Theft from Vehicle&lt;br/&gt;"/><marker lat="40.465157804159951" lng="-79.922171643415098" zone="Zone 5" incidentdate="2015-10-13" incidenttime="14:57:00" incidentnumber="15196547" address="400 block N Highland Ave" type="ARREST" age="36" gender="M" description="*********************************************** &lt;br/&gt;13(a)(16), Possession of Controlled Substance&lt;br/&gt;3929, Retail Theft.&lt;br/&gt;"/><marker lat="40.461223095082595" lng="-79.993186286415295" zone="Zone 1" incidentdate="2015-10-13" incidenttime="08:45:00" incidentnumber="15196343" address="Itin St &amp; Goehring St" type="ARREST" age="33" gender="M" description="*********************************************** &lt;br/&gt;13(a)(31), Marijuana: Possession Small Amount&lt;br/&gt;1543, Driving While Operating Privilege is Suspended or Revoked.&lt;br/&gt;4524, Windshield Obstructions and Wipers.&lt;br/&gt;"/><marker lat="40.456221535850503" lng="-80.025429871710784" zone="Zone OSC" incidentdate="2015-10-13" incidenttime="21:29:00" incidentnumber="14239157" address="1300 block Franklin Ave" type="ARREST" age="46" gender="M" description="*********************************************** &lt;br/&gt;2701, Simple Assault.&lt;br/&gt;"/><marker lat="40.434696587775576" lng="-79.996300985228572" zone="Zone 2" incidentdate="2015-10-13" incidenttime="15:15:00" incidentnumber="15194477" address="600 block 1st Ave" type="ARREST" age="58" gender="F" description="*********************************************** &lt;br/&gt;3743, Accidents Involving Damage to Attended Veh. or Property&lt;br/&gt;3714, Careless Driving&lt;br/&gt;"/><marker lat="40.440058358766059" lng="-79.967554455911255" zone="Zone 2" incidentdate="2015-10-13" incidenttime="02:09:00" incidentnumber="15196197" address="200 block Whitridge St" type="ARREST" age="43" gender="M" description="*********************************************** &lt;br/&gt;2701, Simple Assault.&lt;br/&gt;"/><marker lat="40.4539247715024" lng="-79.997839351546148" zone="Zone 1" incidentdate="2015-10-13" incidenttime="19:28:00" incidentnumber="15196764" address="East St &amp; east Ohio St" type="ARREST" age="53" gender="M" description="*********************************************** &lt;br/&gt;5507, Obstructing Highways and Passages.&lt;br/&gt;"/><marker lat="40.469402832434795" lng="-79.961076876371706" zone="Zone 2" incidentdate="2015-10-13" incidenttime="12:10:00" incidentnumber="15185555" address="4100 block Butler St" type="ARREST" age="61" gender="M" description="*********************************************** &lt;br/&gt;3502, Burglary.&lt;br/&gt;3921, Theft by Unlawful Taking or Disposition.&lt;br/&gt;3925, Receiving Stolen Property.&lt;br/&gt;"/><marker lat="40.463374226553498" lng="-79.903977326997421" zone="Zone 5" incidentdate="2015-10-13" incidenttime="16:56:00" incidentnumber="15196649" address="Lincoln Ave &amp; Tennis Way" type="ARREST" age="21" gender="M" description="*********************************************** &lt;br/&gt;13(a)(16), Possession of Controlled Substance&lt;br/&gt;13(a)(30), Possession w/ Intent to Del. Controlled Substance&lt;br/&gt;4910, Tampering with or Fabricating Physical Evidence.&lt;br/&gt;5104, Resisting Arrest or Other Law Enforcement.&lt;br/&gt;1543, Driving While Operating Privilege is Suspended or Revoked.&lt;br/&gt;4303, General Lighting Requirements.&lt;br/&gt;5121, Escape.&lt;br/&gt;6106, Firearms not to be Carried without a License.&lt;br/&gt;6105(a)(1), Persons not to possess, use, manufacture, control, sell or transfer firearms: Former convict enumerated in subsection (b)&lt;br/&gt;"/><marker lat="40.472190028272855" lng="-79.987273514040481" zone="Zone 1" incidentdate="2015-10-13" incidenttime="10:29:00" incidentnumber="15185328" address="2400 block Spring Garden Ave" type="ARREST" age="32" gender="M" description="*********************************************** &lt;br/&gt;2903, False Imprisonment.&lt;br/&gt;"/><marker lat="40.434696587775576" lng="-79.996300985228572" zone="Zone 2" incidentdate="2015-10-13" incidenttime="15:15:00" incidentnumber="15179205" address="600 block 1st Ave" type="ARREST" age="42" gender="F" description="*********************************************** &lt;br/&gt;3926(a)(4), Theft of services; ACQUISITION OF SERVICES - refusal to pay or offer to pay for a service (hotels and restarants)&lt;br/&gt;"/><marker lat="40.403711981483085" lng="-79.942309813347563" zone="Zone 4" incidentdate="2015-10-13" incidenttime="18:09:00" incidentnumber="15196706" address="2nd Ave &amp; Mansion St" type="ARREST" age="27" gender="M" description="*********************************************** &lt;br/&gt;13(a)(31), Marijuana: Possession Small Amount&lt;br/&gt;1543, Driving While Operating Privilege is Suspended or Revoked.&lt;br/&gt;4703, Operation of Vehicle without Official Certif. of Inspection&lt;br/&gt;"/><marker lat="40.444788932801089" lng="-79.975865372504259" zone="Zone 2" incidentdate="2015-10-13" incidenttime="11:11:00" incidentnumber="15196439" address="Kirkpatrick St &amp; La Place St" type="ARREST" age="22" gender="M" description="*********************************************** &lt;br/&gt;13(a)(16), Possession of Controlled Substance&lt;br/&gt;13(a)(30), Possession w/ Intent to Del. Controlled Substance&lt;br/&gt;2705, Recklessly Endangering Another Person.&lt;br/&gt;1501, Drivers Required to be Licensed.&lt;br/&gt;4914, False Identification to Law Enforcement Authorities&lt;br/&gt;3925, Receiving Stolen Property.&lt;br/&gt;6106, Firearms not to be Carried without a License.&lt;br/&gt;3733, Fleeing or Attempting to Elude Police Officer&lt;br/&gt;"/><marker lat="40.449606365527259" lng="-79.974270684591801" zone="Zone 2" incidentdate="2015-10-13" incidenttime="17:22:00" incidentnumber="15196675" address="2400 block Bedford Ave" type="ARREST" age="29" gender="M" description="*********************************************** &lt;br/&gt;3503.B1I, DEF. TRESPASS ACTUAL COMMUNICATION&lt;br/&gt;4914, False Identification to Law Enforcement Authorities&lt;br/&gt;4914(A), False Identification to Law Enforcement&lt;br/&gt;"/><marker lat="40.384413993627369" lng="-79.994277181866664" zone="Zone 3" incidentdate="2015-10-13" incidenttime="21:35:00" incidentnumber="15196866" address="Maytide St" type="ARREST" age="18" gender="M" description="*********************************************** &lt;br/&gt;13(a)(16), Possession of Controlled Substance&lt;br/&gt;13(a)(31), Marijuana: Possession Small Amount&lt;br/&gt;13(a)(32), Paraphernalia - Use or Possession&lt;br/&gt;4910, Tampering with or Fabricating Physical Evidence.&lt;br/&gt;1543, Driving While Operating Privilege is Suspended or Revoked.&lt;br/&gt;3334, Turning Movements and Required Signals.&lt;br/&gt;3809(a), Restriction on Alcoholic Beverages in Vehicle&lt;br/&gt;"/><marker lat="40.435095503606554" lng="-79.993077686753679" zone="Zone 2" incidentdate="2015-10-13" incidenttime="09:30:00" incidentnumber="15192225" address="900 block Second Ave" type="ARREST" age="23" gender="M" description="*********************************************** &lt;br/&gt;2709, Harassment (Non-Specific)&lt;br/&gt;2706, Terroristic Threats.&lt;br/&gt;4952, Intimidation of Witnesses or Victims&lt;br/&gt;"/><marker lat="40.457985769684555" lng="-80.025946714371727" zone="Zone 1" incidentdate="2015-10-13" incidenttime="20:44:00" incidentnumber="15196821" address="Columbus Ave &amp; Fulton St" type="ARREST" age="18" gender="M" description="*********************************************** &lt;br/&gt;13(a)(16), Possession of Controlled Substance&lt;br/&gt;13(a)(30), Possession w/ Intent to Del. Controlled Substance&lt;br/&gt;1543, Driving While Operating Privilege is Suspended or Revoked.&lt;br/&gt;3323, Stop Signs and Yield Signs.&lt;br/&gt;"/><marker lat="40.450813726288715" lng="-79.972243374536816" zone="Zone 2" incidentdate="2015-10-13" incidenttime="22:10:00" incidentnumber="15196867" address="Bedford Ave &amp; Chauncey Dr" type="ARREST" age="28" gender="M" description="*********************************************** &lt;br/&gt;3802(a)(1), DUI - General Impairment&lt;br/&gt;3802(c), DUI - Highest Rate of Alcohol - BAC &gt;= .16%&lt;br/&gt;3323, Stop Signs and Yield Signs.&lt;br/&gt;"/><marker lat="40.4538415518075" lng="-80.065153503817712" zone="Zone 6" incidentdate="2015-10-13" incidenttime="19:45:00" incidentnumber="15196783" address="1300 block Jeffers St" type="ARREST" age="35" gender="M" description="*********************************************** &lt;br/&gt;9501, Bench Warrant&lt;br/&gt;"/><marker lat="40.384413993627369" lng="-79.994277181866664" zone="Zone 3" incidentdate="2015-10-13" incidenttime="21:37:00" incidentnumber="15196866" address="Maytide St" type="ARREST" age="35" gender="F" description="*********************************************** &lt;br/&gt;13(a)(16), Possession of Controlled Substance&lt;br/&gt;13(a)(31), Marijuana: Possession Small Amount&lt;br/&gt;13(a)(32), Paraphernalia - Use or Possession&lt;br/&gt;4910, Tampering with or Fabricating Physical Evidence.&lt;br/&gt;1543, Driving While Operating Privilege is Suspended or Revoked.&lt;br/&gt;3334, Turning Movements and Required Signals.&lt;br/&gt;3809(a), Restriction on Alcoholic Beverages in Vehicle&lt;br/&gt;"/><marker lat="40.476795069167544" lng="-79.922612001757045" zone="Zone 5" incidentdate="2015-10-13" incidenttime="11:35:00" incidentnumber="15196453" address="Bryant St &amp; Portland St" type="ARREST" age="40" gender="F" description="*********************************************** &lt;br/&gt;3802(d)(2), DUI - Drug - Impaired Ability&lt;br/&gt;"/><marker lat="40.461516193111194" lng="-79.912213429266998" zone="Zone 5" incidentdate="2015-10-13" incidenttime="12:00:00" incidentnumber="15196458" address="300 block Lowell St" type="ARREST" age="30" gender="F" description="*********************************************** &lt;br/&gt;9093, Indirect Criminal Contempt&lt;br/&gt;"/><marker lat="40.479829245655225" lng="-80.001901444196207" zone="Zone 1" incidentdate="2015-10-13" incidenttime="16:50:00" incidentnumber="15165626" address="400 block Mt Pleasant Rd" type="ARREST" age="19" gender="M" description="*********************************************** &lt;br/&gt;3502, Burglary.&lt;br/&gt;3921, Theft by Unlawful Taking or Disposition.&lt;br/&gt;3925, Receiving Stolen Property.&lt;br/&gt;903, Criminal Conspiracy.&lt;br/&gt;"/><marker lat="40.463782939748789" lng="-80.02270722547928" zone="Zone 1" incidentdate="2015-10-13" incidenttime="01:58:00" incidentnumber="15196212" address="Brighton Rd &amp; Island Ave" type="ARREST" age="37" gender="M" description="*********************************************** &lt;br/&gt;9501, Bench Warrant&lt;br/&gt;1543, Driving While Operating Privilege is Suspended or Revoked.&lt;br/&gt;4303, General Lighting Requirements.&lt;br/&gt;3310, Following Too Closely.&lt;br/&gt;"/><marker lat="40.434696587775576" lng="-79.996300985228572" zone="Zone 2" incidentdate="2015-10-13" incidenttime="09:35:00" incidentnumber="15178376" address="600 block 1st Ave" type="ARREST" age="50" gender="M" description="*********************************************** &lt;br/&gt;3304, Criminal Mischief.&lt;br/&gt;2705, Recklessly Endangering Another Person.&lt;br/&gt;"/><marker lat="40.444788932801089" lng="-79.975865372504259" zone="Zone 2" incidentdate="2015-10-13" incidenttime="11:11:00" incidentnumber="15196439" address="Kirkpatrick St &amp; La Place St" type="ARREST" age="19" gender="M" description="*********************************************** &lt;br/&gt;13(a)(16), Possession of Controlled Substance&lt;br/&gt;13(a)(30), Possession w/ Intent to Del. Controlled Substance&lt;br/&gt;2705, Recklessly Endangering Another Person.&lt;br/&gt;1501, Drivers Required to be Licensed.&lt;br/&gt;4914, False Identification to Law Enforcement Authorities&lt;br/&gt;3925, Receiving Stolen Property.&lt;br/&gt;6106, Firearms not to be Carried without a License.&lt;br/&gt;3733, Fleeing or Attempting to Elude Police Officer&lt;br/&gt;"/><marker lat="40.438245622641972" lng="-79.979393201936006" zone="Zone 2" incidentdate="2015-10-13" incidenttime="15:55:00" incidentnumber="14229251" address="1900 block 5th Ave" type="ARREST" age="42" gender="M" description="*********************************************** &lt;br/&gt;2701, Simple Assault.&lt;br/&gt;"/><marker lat="40.434696587775576" lng="-79.996300985228572" zone="Zone 2" incidentdate="2015-10-13" incidenttime="08:30:00" incidentnumber="14052684" address="600 block 1st Ave" type="ARREST" age="28" gender="M" description="*********************************************** &lt;br/&gt;9015, Failure To Appear/Arrest on Attachment Order&lt;br/&gt;2706, Terroristic Threats.&lt;br/&gt;"/><marker lat="40.426326713614309" lng="-80.002572131184493" zone="Zone 3" incidentdate="2015-10-13" incidenttime="00:45:00" incidentnumber="15196168" address="300 block Kambach St" type="ARREST" age="22" gender="M" description="*********************************************** &lt;br/&gt;9501, Bench Warrant&lt;br/&gt;"/></markers>
