<?xml version="1.0"?>
<markers><marker lat="40.3900637" lng="-79.9903681" zone="Zone 3" incidentdate="2016-01-12" incidenttime="07:45:00" incidentnumber="16006861" address="2200 block Almont St" type="OFFENSE" age="" gender="" description="*********************************************** &lt;br/&gt;9999, 9999 - (Misc. Incident):&lt;br/&gt;"/><marker lat="40.453102007596485" lng="-80.055686559110825" zone="Zone 6" incidentdate="2016-01-12" incidenttime="19:30:00" incidentnumber="16007219" address="800 block Hillsboro St" type="OFFENSE" age="" gender="" description="*********************************************** &lt;br/&gt;3745, Accidents Involving Damage to Unattended Veh.or Prop.&lt;br/&gt;"/><marker lat="40.444136782158047" lng="-80.000993475333104" zone="Zone 2" incidentdate="2016-01-12" incidenttime="10:15:00" incidentnumber="16006896" address="100 block 7th St" type="OFFENSE" age="" gender="" description="*********************************************** &lt;br/&gt;9496, Dead on Arrival (DOA)&lt;br/&gt;"/><marker lat="40.4406248" lng="-79.9958864" zone="Zone 6" incidentdate="2016-01-12" incidenttime="08:30:00" incidentnumber="16006864" address="Saw Mill Run Blvd &amp; I-279 Ramp" type="OFFENSE" age="" gender="" description="*********************************************** &lt;br/&gt;3743, Accidents Involving Damage to Attended Veh. or Property&lt;br/&gt;"/><marker lat="40.438498083577116" lng="-79.984086000779314" zone="Zone 2" incidentdate="2016-01-12" incidenttime="16:45:00" incidentnumber="16007141" address="5th Ave &amp; Vine St" type="OFFENSE" age="" gender="" description="*********************************************** &lt;br/&gt;3745, Accidents Involving Damage to Unattended Veh.or Prop.&lt;br/&gt;"/><marker lat="40.469810397741213" lng="-79.926692736931003" zone="Zone 5" incidentdate="2016-01-12" incidenttime="19:51:00" incidentnumber="16007229" address="700 block N Negley Ave" type="OFFENSE" age="" gender="" description="*********************************************** &lt;br/&gt;9488, False  Burglar Alarm&lt;br/&gt;"/><marker lat="40.454095113702152" lng="-79.947392826001945" zone="Zone 5" incidentdate="2016-01-12" incidenttime="18:00:00" incidentnumber="16007186" address="4800 block Baum Blvd" type="OFFENSE" age="" gender="" description="*********************************************** &lt;br/&gt;3304, Criminal Mischief.&lt;br/&gt;3934, Theft from Vehicle&lt;br/&gt;"/><marker lat="40.4675967" lng="-80.0295354" zone="Zone 1" incidentdate="2016-01-12" incidenttime="00:35:00" incidentnumber="16006709" address="2600 block Shadeland Ave" type="OFFENSE" age="" gender="" description="*********************************************** &lt;br/&gt;3921, Theft by Unlawful Taking or Disposition.&lt;br/&gt;"/><marker lat="40.428799178836528" lng="-79.984145739682731" zone="Zone 3" incidentdate="2016-01-12" incidenttime="15:06:00" incidentnumber="16007074" address="S 14th St &amp; E Carson St" type="OFFENSE" age="" gender="" description="*********************************************** &lt;br/&gt;9498, 302 (Mental)&lt;br/&gt;"/><marker lat="40.466671392276965" lng="-79.896292856390545" zone="Zone 5" incidentdate="2016-01-12" incidenttime="21:20:00" incidentnumber="16007286" address="Grotto St &amp; Gladefield St" type="OFFENSE" age="" gender="" description="*********************************************** &lt;br/&gt;2702, Aggravated Assault.&lt;br/&gt;3701, Robbery.&lt;br/&gt;"/><marker lat="40.4582357" lng="-79.9919907" zone="Zone 1" incidentdate="2016-01-12" incidenttime="06:19:00" incidentnumber="16006815" address="1000 block Province St" type="OFFENSE" age="" gender="" description="*********************************************** &lt;br/&gt;9999, 9999 - (Misc. Incident):&lt;br/&gt;"/><marker lat="40.405163297103016" lng="-79.944521017205943" zone="Zone 4" incidentdate="2016-01-12" incidenttime="11:00:00" incidentnumber="16007052" address="500 block Courtland St" type="OFFENSE" age="" gender="" description="*********************************************** &lt;br/&gt;3304, Criminal Mischief.&lt;br/&gt;3934, Theft from Vehicle&lt;br/&gt;"/><marker lat="40.455632503506003" lng="-79.902208453906297" zone="Zone 5" incidentdate="2016-01-12" incidenttime="17:23:00" incidentnumber="16007140" address="7000 block Hamilton Ave" type="OFFENSE" age="" gender="" description="*********************************************** &lt;br/&gt;9488, False  Burglar Alarm&lt;br/&gt;"/><marker lat="40.457481156959659" lng="-79.917412009448441" zone="Zone 4" incidentdate="2016-01-12" incidenttime="21:04:00" incidentnumber="16007259" address="East Liberty Blvd &amp; Penn Ave" type="OFFENSE" age="" gender="" description="*********************************************** &lt;br/&gt;13(a)(16), Possession of Controlled Substance&lt;br/&gt;13(a)(32), Paraphernalia - Use or Possession&lt;br/&gt;3334, Turning Movements and Required Signals.&lt;br/&gt;"/><marker lat="40.4234138" lng="-79.9855380" zone="Zone 3" incidentdate="2016-01-12" incidenttime="02:19:00" incidentnumber="16006747" address="100 block Monastery Ave" type="OFFENSE" age="" gender="" description="*********************************************** &lt;br/&gt;3921, Theft by Unlawful Taking or Disposition.&lt;br/&gt;"/><marker lat="40.453379966245343" lng="-79.979182668609965" zone="Zone 2" incidentdate="2016-01-12" incidenttime="14:45:00" incidentnumber="16007078" address="Liberty Ave &amp; 25th St" type="OFFENSE" age="" gender="" description="*********************************************** &lt;br/&gt;2709, Harassment (Non-Specific)&lt;br/&gt;"/><marker lat="40.492778855284733" lng="-80.021797524541228" zone="Zone 1" incidentdate="2016-01-12" incidenttime="07:25:00" incidentnumber="16006998" address="Perrysville Ave &amp; Vinceton St" type="OFFENSE" age="" gender="" description="*********************************************** &lt;br/&gt;9999, 9999 - (Misc. Incident):&lt;br/&gt;"/><marker lat="40.417345136139645" lng="-79.988193247990409" zone="Zone 3" incidentdate="2016-01-12" incidenttime="00:01:00" incidentnumber="16006697" address="100 block Jucunda St" type="OFFENSE" age="" gender="" description="*********************************************** &lt;br/&gt;2701(a)(1), Simple Assault - Intent., Know., Reckless.Cause Bod. Injury&lt;br/&gt;"/><marker lat="40.458101326956601" lng="-79.90598029403256" zone="Zone 5" incidentdate="2016-01-12" incidenttime="08:35:00" incidentnumber="16007365" address="6800 block Frankstown Ave" type="OFFENSE" age="" gender="" description="*********************************************** &lt;br/&gt;2701, Simple Assault.&lt;br/&gt;"/><marker lat="40.3983160" lng="-79.9354095" zone="Zone 4" incidentdate="2016-01-12" incidenttime="12:30:00" incidentnumber="16007071" address="2nd Ave Ramp &amp; Glenwood Brg" type="OFFENSE" age="" gender="" description="*********************************************** &lt;br/&gt;3743, Accidents Involving Damage to Attended Veh. or Property&lt;br/&gt;"/><marker lat="40.47016161181427" lng="-79.956759960191931" zone="Zone 2" incidentdate="2016-01-12" incidenttime="22:32:00" incidentnumber="16007310" address="300 block 45th St" type="OFFENSE" age="" gender="" description="*********************************************** &lt;br/&gt;3745, Accidents Involving Damage to Unattended Veh.or Prop.&lt;br/&gt;"/><marker lat="40.455905510025012" lng="-80.02686436122454" zone="Zone 1" incidentdate="2016-01-12" incidenttime="12:00:00" incidentnumber="16007206" address="1600 block MANHATTAN St" type="OFFENSE" age="" gender="" description="*********************************************** &lt;br/&gt;2701, Simple Assault.&lt;br/&gt;"/><marker lat="40.424916530524058" lng="-79.9520359740022" zone="Zone 4" incidentdate="2016-01-12" incidenttime="04:42:00" incidentnumber="16006788" address="Greenfield Ave &amp; Saline St" type="OFFENSE" age="" gender="" description="*********************************************** &lt;br/&gt;9501, Bench Warrant&lt;br/&gt;"/><marker lat="40.379339576621675" lng="-79.911303850756767" zone="Zone 4" incidentdate="2016-01-12" incidenttime="07:45:00" incidentnumber="16006847" address="4700 block Theodore St" type="OFFENSE" age="" gender="" description="*********************************************** &lt;br/&gt;3745, Accidents Involving Damage to Unattended Veh.or Prop.&lt;br/&gt;"/><marker lat="40.441234571705877" lng="-80.003477050749922" zone="Zone 2" incidentdate="2016-01-12" incidenttime="03:17:00" incidentnumber="16006779" address="500 block Liberty Ave" type="OFFENSE" age="" gender="" description="*********************************************** &lt;br/&gt;3502, Burglary.&lt;br/&gt;"/><marker lat="40.4144238" lng="-80.0755045" zone="Zone 6" incidentdate="2016-01-12" incidenttime="15:22:00" incidentnumber="16007128" address="700 block Doolittle St" type="OFFENSE" age="" gender="" description="*********************************************** &lt;br/&gt;4304(a)(1), Endangering Welfare of Children - Course of Conduct Enhanced&lt;br/&gt;2701, Simple Assault.&lt;br/&gt;"/><marker lat="40.459846940702469" lng="-80.057443353133792" zone="Zone 6" incidentdate="2016-01-12" incidenttime="17:10:00" incidentnumber="16007151" address="500 block Stadium St" type="OFFENSE" age="" gender="" description="*********************************************** &lt;br/&gt;9497, Aided Case&lt;br/&gt;"/><marker lat="40.436112309714467" lng="-79.964394044382615" zone="Zone 4" incidentdate="2016-01-12" incidenttime="01:00:00" incidentnumber="16006722" address="3100 block Forbes Ave" type="OFFENSE" age="" gender="" description="*********************************************** &lt;br/&gt;3502, Burglary.&lt;br/&gt;"/><marker lat="40.460143465743265" lng="-79.994970064034916" zone="Zone 1" incidentdate="2016-01-12" incidenttime="20:56:00" incidentnumber="16007253" address="1000 block Goehring St" type="OFFENSE" age="" gender="" description="*********************************************** &lt;br/&gt;3921, Theft by Unlawful Taking or Disposition.&lt;br/&gt;"/><marker lat="40.420067257290292" lng="-80.007916937837081" zone="Zone 3" incidentdate="2016-01-12" incidenttime="06:45:00" incidentnumber="16006886" address="200 block W Warrington Ave" type="OFFENSE" age="" gender="" description="*********************************************** &lt;br/&gt;3304(a)(4), CRIMINAL MISCHIEF- Intentionally Damage Property (By Graffiti, Aerosol Spray Paint, Broad Tip Marker, or Similar)&lt;br/&gt;"/><marker lat="40.397801934738155" lng="-79.991184577885491" zone="Zone 3" incidentdate="2016-01-12" incidenttime="08:00:00" incidentnumber="16006848" address="W Cherryhill St" type="OFFENSE" age="" gender="" description="*********************************************** &lt;br/&gt;9496, Dead on Arrival (DOA)&lt;br/&gt;"/><marker lat="40.410758711444451" lng="-79.9660447807792" zone="Zone 3" incidentdate="2016-01-12" incidenttime="17:08:00" incidentnumber="16007142" address="1000 block Parkwood Rd" type="OFFENSE" age="" gender="" description="*********************************************** &lt;br/&gt;9999, 9999 - (Misc. Incident):&lt;br/&gt;"/><marker lat="40.458654004990485" lng="-79.875209092422722" zone="Zone 5" incidentdate="2016-01-12" incidenttime="13:15:00" incidentnumber="16007054" address="Frankstown Ave &amp; Madonna St" type="OFFENSE" age="" gender="" description="*********************************************** &lt;br/&gt;3743, Accidents Involving Damage to Attended Veh. or Property&lt;br/&gt;"/><marker lat="40.405788438531324" lng="-79.933411006422901" zone="Zone 4" incidentdate="2016-01-12" incidenttime="17:32:00" incidentnumber="16007160" address="700 block Johnston Ave" type="OFFENSE" age="" gender="" description="*********************************************** &lt;br/&gt;029, Missing Juvenile&lt;br/&gt;"/><marker lat="40.484670722816468" lng="-79.932282606545172" zone="Zone 5" incidentdate="2016-01-12" incidenttime="10:00:00" incidentnumber="16006904" address="1500 block Windcrest Dr" type="OFFENSE" age="" gender="" description="*********************************************** &lt;br/&gt;3745, Accidents Involving Damage to Unattended Veh.or Prop.&lt;br/&gt;"/><marker lat="40.483179529109456" lng="-79.943169650748899" zone="Zone 2" incidentdate="2016-01-12" incidenttime="16:00:00" incidentnumber="16007178" address="57th St &amp; Christopher St" type="OFFENSE" age="" gender="" description="*********************************************** &lt;br/&gt;3743, Accidents Involving Damage to Attended Veh. or Property&lt;br/&gt;"/><marker lat="40.399798282486785" lng="-79.98914686757854" zone="Zone 3" incidentdate="2016-01-12" incidenttime="19:40:00" incidentnumber="16007225" address="1600 block Brownsville Rd" type="OFFENSE" age="" gender="" description="*********************************************** &lt;br/&gt;9999, 9999 - (Misc. Incident):&lt;br/&gt;"/><marker lat="40.464799461439597" lng="-79.989802707947263" zone="Zone 1" incidentdate="2016-01-12" incidenttime="06:15:00" incidentnumber="16006816" address="1100 block Serene St" type="OFFENSE" age="" gender="" description="*********************************************** &lt;br/&gt;3304, Criminal Mischief.&lt;br/&gt;3934, Theft from Vehicle&lt;br/&gt;"/><marker lat="40.41910505809637" lng="-79.995820009539997" zone="Zone 3" incidentdate="2016-01-12" incidenttime="13:20:00" incidentnumber="16000712" address="Millbridge St" type="OFFENSE" age="" gender="" description="*********************************************** &lt;br/&gt;9018, Accidental Fire&lt;br/&gt;"/><marker lat="40.4199199875451" lng="-79.993675059038551" zone="Zone 3" incidentdate="2016-01-12" incidenttime="21:42:00" incidentnumber="15214604" address="800 block Climax St" type="OFFENSE" age="" gender="" description="*********************************************** &lt;br/&gt;2702, Aggravated Assault.&lt;br/&gt;"/><marker lat="40.484269000571473" lng="-79.907846334287953" zone="Zone 5" incidentdate="2016-01-12" incidenttime="16:26:00" incidentnumber="16007120" address="Allegheny River Blvd &amp; Washington Blvd" type="OFFENSE" age="" gender="" description="*********************************************** &lt;br/&gt;3743, Accidents Involving Damage to Attended Veh. or Property&lt;br/&gt;"/><marker lat="40.477665579445592" lng="-79.941865690510141" zone="Zone 5" incidentdate="2016-01-12" incidenttime="11:38:00" incidentnumber="16006948" address="4300 block Coleridge St" type="OFFENSE" age="" gender="" description="*********************************************** &lt;br/&gt;3928, Unauthorized Use of Automobile and Other Vehicles.&lt;br/&gt;"/><marker lat="40.482961575885902" lng="-79.941721061177475" zone="Zone 5" incidentdate="2016-01-12" incidenttime="16:28:00" incidentnumber="16007118" address="1000 block Christopher St" type="OFFENSE" age="" gender="" description="*********************************************** &lt;br/&gt;3745, Accidents Involving Damage to Unattended Veh.or Prop.&lt;br/&gt;"/><marker lat="40.468370780543907" lng="-79.93016027723678" zone="Zone 5" incidentdate="2016-01-12" incidenttime="22:39:00" incidentnumber="16007297" address="5500 block Margaretta St" type="OFFENSE" age="" gender="" description="*********************************************** &lt;br/&gt;3921, Theft by Unlawful Taking or Disposition.&lt;br/&gt;"/><marker lat="40.441406159731216" lng="-80.002873255548053" zone="Zone 2" incidentdate="2016-01-12" incidenttime="10:55:00" incidentnumber="16006941" address="100 block 5th Ave" type="OFFENSE" age="" gender="" description="*********************************************** &lt;br/&gt;3921, Theft by Unlawful Taking or Disposition.&lt;br/&gt;"/><marker lat="40.398335451714978" lng="-80.026163200003069" zone="Zone 6" incidentdate="2016-01-12" incidenttime="05:47:00" incidentnumber="16006806" address="West Liberty Ave &amp; Brookline Blvd" type="OFFENSE" age="" gender="" description="*********************************************** &lt;br/&gt;9999, 9999 - (Misc. Incident):&lt;br/&gt;"/><marker lat="40.460302578526942" lng="-80.006980071080037" zone="Zone 1" incidentdate="2016-01-12" incidenttime="23:59:00" incidentnumber="16007316" address="1700 block Belleau Dr" type="OFFENSE" age="" gender="" description="*********************************************** &lt;br/&gt;3745, Accidents Involving Damage to Unattended Veh.or Prop.&lt;br/&gt;"/><marker lat="40.405163297103016" lng="-79.944521017205943" zone="Zone 4" incidentdate="2016-01-12" incidenttime="08:00:00" incidentnumber="16007135" address="500 block Courtland St" type="OFFENSE" age="" gender="" description="*********************************************** &lt;br/&gt;3934, Theft from Vehicle&lt;br/&gt;"/><marker lat="40.3835451" lng="-79.9830551" zone="Zone 3" incidentdate="2016-01-12" incidenttime="00:01:00" incidentnumber="16006703" address="Meritt Ave" type="OFFENSE" age="" gender="" description="*********************************************** &lt;br/&gt;3502, Burglary.&lt;br/&gt;"/><marker lat="40.443255447742622" lng="-79.965179325186156" zone="Zone 2" incidentdate="2016-01-12" incidenttime="13:15:00" incidentnumber="16007139" address="Darragh St &amp; Dunseith St" type="OFFENSE" age="" gender="" description="*********************************************** &lt;br/&gt;3743, Accidents Involving Damage to Attended Veh. or Property&lt;br/&gt;"/><marker lat="40.444021632120688" lng="-79.926007574741078" zone="Zone 4" incidentdate="2016-01-12" incidenttime="10:20:00" incidentnumber="16006961" address="S Negley Ave &amp; Wilkins Ave" type="OFFENSE" age="" gender="" description="*********************************************** &lt;br/&gt;3743, Accidents Involving Damage to Attended Veh. or Property&lt;br/&gt;"/><marker lat="40.402632077513957" lng="-80.026333770556249" zone="Zone 6" incidentdate="2016-01-12" incidenttime="18:54:00" incidentnumber="16007198" address="2300 block Palm Beach Ave" type="OFFENSE" age="" gender="" description="*********************************************** &lt;br/&gt;3745, Accidents Involving Damage to Unattended Veh.or Prop.&lt;br/&gt;"/><marker lat="40.456885755361007" lng="-80.054867253123305" zone="Zone 6" incidentdate="2016-01-12" incidenttime="11:00:00" incidentnumber="16006955" address="3100 block Bergman St" type="OFFENSE" age="" gender="" description="*********************************************** &lt;br/&gt;3921, Theft by Unlawful Taking or Disposition.&lt;br/&gt;"/><marker lat="40.473412534288045" lng="-80.031507279213102" zone="Zone 1" incidentdate="2016-01-12" incidenttime="02:49:00" incidentnumber="16006758" address="1300 block Complete St" type="OFFENSE" age="" gender="" description="*********************************************** &lt;br/&gt;2706, Terroristic Threats.&lt;br/&gt;"/><marker lat="40.455880560530979" lng="-79.946666863112242" zone="Zone 5" incidentdate="2016-01-12" incidenttime="08:05:00" incidentnumber="16006862" address="200 block Morewood Ave" type="OFFENSE" age="" gender="" description="*********************************************** &lt;br/&gt;3745, Accidents Involving Damage to Unattended Veh.or Prop.&lt;br/&gt;"/><marker lat="40.459046446013403" lng="-80.00432220511739" zone="Zone 1" incidentdate="2016-01-12" incidenttime="10:30:00" incidentnumber="15155405" address="100 block Henderson St" type="ARREST" age="36" gender="M" description="*********************************************** &lt;br/&gt;3928, Unauthorized Use of Automobile and Other Vehicles.&lt;br/&gt;"/><marker lat="40.447645889085514" lng="-79.966349111991931" zone="Zone 2" incidentdate="2016-01-12" incidenttime="00:43:00" incidentnumber="15149140" address="2800 block Centre Ave" type="ARREST" age="58" gender="F" description="*********************************************** &lt;br/&gt;2705, Recklessly Endangering Another Person.&lt;br/&gt;3736, Reckless Driving&lt;br/&gt;3802(a)(1), DUI - General Impairment&lt;br/&gt;3802(c), DUI - Highest Rate of Alcohol - BAC &gt;= .16%&lt;br/&gt;"/><marker lat="40.4144238" lng="-80.0755045" zone="Zone 6" incidentdate="2016-01-12" incidenttime="15:40:00" incidentnumber="16007128" address="700 block Doolittle St" type="ARREST" age="52" gender="M" description="*********************************************** &lt;br/&gt;4304(a)(1), Endangering Welfare of Children - Course of Conduct Enhanced&lt;br/&gt;2701, Simple Assault.&lt;br/&gt;"/><marker lat="40.458270613599353" lng="-80.075467884670715" zone="Zone 6" incidentdate="2016-01-12" incidenttime="21:13:00" incidentnumber="15229407" address="3800 block Chartiers Ave" type="ARREST" age="59" gender="M" description="*********************************************** &lt;br/&gt;1543, Driving While Operating Privilege is Suspended or Revoked.&lt;br/&gt;3802(a)(1), DUI - General Impairment&lt;br/&gt;3802(d)(2), DUI - Drug - Impaired Ability&lt;br/&gt;3802(d)(1)(i), DUI - Controlled Substance - Schedule I&lt;br/&gt;"/><marker lat="40.439134875179292" lng="-79.980460317668332" zone="Zone 2" incidentdate="2016-01-12" incidenttime="13:35:00" incidentnumber="16002194" address="200 block Dinwiddie St" type="ARREST" age="39" gender="F" description="*********************************************** &lt;br/&gt;2701(a)(3), Simple Assault - Attempts by Physical Menace&lt;br/&gt;"/><marker lat="40.4199199875451" lng="-79.993675059038551" zone="Zone 3" incidentdate="2016-01-12" incidenttime="21:42:00" incidentnumber="15214604" address="800 block Climax St" type="ARREST" age="31" gender="F" description="*********************************************** &lt;br/&gt;2702, Aggravated Assault.&lt;br/&gt;"/><marker lat="40.440756592117523" lng="-79.995882216271596" zone="Zone 2" incidentdate="2016-01-12" incidenttime="10:00:00" incidentnumber="15194557" address="6th Ave &amp; Grant St" type="ARREST" age="37" gender="M" description="*********************************************** &lt;br/&gt;13(a)(31), Marijuana: Possession Small Amount&lt;br/&gt;1543, Driving While Operating Privilege is Suspended or Revoked.&lt;br/&gt;1372, Unauthorized Transfer or Use of Registration.&lt;br/&gt;"/><marker lat="40.438947337277021" lng="-79.994662042052326" zone="Zone 2" incidentdate="2016-01-12" incidenttime="12:52:00" incidentnumber="15202398" address="5th Ave &amp; 6th Ave" type="ARREST" age="41" gender="M" description="*********************************************** &lt;br/&gt;3921(a), Theft by Unlawful Taking or Disposition - Movable item&lt;br/&gt;"/><marker lat="40.4378591" lng="-80.0539249" zone="Zone 6" incidentdate="2016-01-12" incidenttime="15:00:00" incidentnumber="15197273" address="1800 block Noblestown Rd" type="ARREST" age="30" gender="M" description="*********************************************** &lt;br/&gt;3502, Burglary.&lt;br/&gt;3503, Criminal Trespass&lt;br/&gt;2701, Simple Assault.&lt;br/&gt;903, Criminal Conspiracy.&lt;br/&gt;"/><marker lat="40.457481156959659" lng="-79.917412009448441" zone="Zone 4" incidentdate="2016-01-12" incidenttime="21:05:00" incidentnumber="16007259" address="East Liberty Blvd &amp; Penn Ave" type="ARREST" age="31" gender="M" description="*********************************************** &lt;br/&gt;13(a)(16), Possession of Controlled Substance&lt;br/&gt;13(a)(32), Paraphernalia - Use or Possession&lt;br/&gt;3334, Turning Movements and Required Signals.&lt;br/&gt;"/><marker lat="40.4067943" lng="-79.9326402" zone="Zone 4" incidentdate="2016-01-12" incidenttime="12:15:00" incidentnumber="15204122" address="900 block Rosselle Ct" type="ARREST" age="23" gender="M" description="*********************************************** &lt;br/&gt;3925, Receiving Stolen Property.&lt;br/&gt;6106, Firearms not to be Carried without a License.&lt;br/&gt;6105(a)(1), Persons not to possess, use, manufacture, control, sell or transfer firearms: Former convict enumerated in subsection (b)&lt;br/&gt;"/><marker lat="40.417345136139645" lng="-79.988193247990409" zone="Zone 3" incidentdate="2016-01-12" incidenttime="00:30:00" incidentnumber="16006697" address="100 block Jucunda St" type="ARREST" age="59" gender="M" description="*********************************************** &lt;br/&gt;2701(a)(1), Simple Assault - Intent., Know., Reckless.Cause Bod. Injury&lt;br/&gt;"/><marker lat="40.457481156959659" lng="-79.917412009448441" zone="Zone 4" incidentdate="2016-01-12" incidenttime="21:05:00" incidentnumber="16007259" address="East Liberty Blvd &amp; Penn Ave" type="ARREST" age="30" gender="M" description="*********************************************** &lt;br/&gt;13(a)(16), Possession of Controlled Substance&lt;br/&gt;13(a)(32), Paraphernalia - Use or Possession&lt;br/&gt;3334, Turning Movements and Required Signals.&lt;br/&gt;"/><marker lat="40.471735756604645" lng="-79.937286491931388" zone="Zone 5" incidentdate="2016-01-12" incidenttime="14:00:00" incidentnumber="15177122" address="200 block Fern St" type="ARREST" age="39" gender="F" description="*********************************************** &lt;br/&gt;2709, Harassment (Non-Specific)&lt;br/&gt;2706, Terroristic Threats.&lt;br/&gt;2701(a)(3), Simple Assault - Attempts by Physical Menace&lt;br/&gt;"/><marker lat="40.424916530524058" lng="-79.9520359740022" zone="Zone 4" incidentdate="2016-01-12" incidenttime="04:42:00" incidentnumber="16006788" address="Greenfield Ave &amp; Saline St" type="ARREST" age="38" gender="M" description="*********************************************** &lt;br/&gt;9501, Bench Warrant&lt;br/&gt;"/><marker lat="40.454038272737556" lng="-79.867341042290406" zone="Zone 5" incidentdate="2016-01-12" incidenttime="19:30:00" incidentnumber="15234114" address="2200 block Wilner Dr" type="ARREST" age="22" gender="M" description="*********************************************** &lt;br/&gt;3921(a), Theft by Unlawful Taking or Disposition - Movable item&lt;br/&gt;3304(a)(5), CRIMINAL MISCHIEF - Intentionally Damages Real Or Personal Property Of Another&lt;br/&gt;"/><marker lat="40.4550929957161" lng="-80.058105006106942" zone="Zone 6" incidentdate="2016-01-12" incidenttime="14:40:00" incidentnumber="15246486" address="Citadel St &amp; Sherwood Ave" type="ARREST" age="17" gender="M" description="*********************************************** &lt;br/&gt;2705, Recklessly Endangering Another Person.&lt;br/&gt;607.03, Discharging Firearm or Airgun&lt;br/&gt;6110.1, Possesion of Firearm by Minor&lt;br/&gt;2701(a)(3), Simple Assault - Attempts by Physical Menace&lt;br/&gt;6105(c)(9), Persons Not To Possess Use Manuf, Control Firearm&lt;br/&gt;"/><marker lat="40.434696587775576" lng="-79.996300985228572" zone="Zone 2" incidentdate="2016-01-12" incidenttime="14:00:00" incidentnumber="16000187" address="600 block 1st Ave" type="ARREST" age="42" gender="F" description="*********************************************** &lt;br/&gt;3502, Burglary.&lt;br/&gt;5503, Disorderly Conduct.&lt;br/&gt;2705, Recklessly Endangering Another Person.&lt;br/&gt;2702, Aggravated Assault.&lt;br/&gt;2701, Simple Assault.&lt;br/&gt;5505, Public Drunkenness&lt;br/&gt;"/><marker lat="40.441234571705877" lng="-80.003477050749922" zone="Zone 2" incidentdate="2016-01-12" incidenttime="04:09:00" incidentnumber="16006779" address="500 block Liberty Ave" type="ARREST" age="45" gender="M" description="*********************************************** &lt;br/&gt;3502, Burglary.&lt;br/&gt;"/><marker lat="40.434696587775576" lng="-79.996300985228572" zone="Zone 2" incidentdate="2016-01-12" incidenttime="01:45:00" incidentnumber="16005439" address="600 block 1st Ave" type="ARREST" age="26" gender="F" description="*********************************************** &lt;br/&gt;3743, Accidents Involving Damage to Attended Veh. or Property&lt;br/&gt;3714, Careless Driving&lt;br/&gt;3702, Robbery of Motor Vehicle.&lt;br/&gt;"/><marker lat="40.478655848187707" lng="-79.900606800476623" zone="Zone 5" incidentdate="2016-01-12" incidenttime="09:50:00" incidentnumber="16005877" address="7100 block Highland Dr" type="ARREST" age="17" gender="M" description="*********************************************** &lt;br/&gt;903, Criminal Conspiracy.&lt;br/&gt;6110.1, Possesion of Firearm by Minor&lt;br/&gt;6106, Firearms not to be Carried without a License.&lt;br/&gt;2501, Criminal Homicide.&lt;br/&gt;6105(a)(1), Persons not to possess, use, manufacture, control, sell or transfer firearms: Former convict enumerated in subsection (b)&lt;br/&gt;"/></markers>
