<?xml version="1.0"?>
<markers><marker lat="40.428746746224945" lng="-79.982646526389246" zone="Zone 3" incidentdate="2016-07-26" incidenttime="21:20:00" incidentnumber="16138818" address="1600 block E Carson St" type="OFFENSE" age="" gender="" description="*********************************************** &lt;br/&gt;2701(b)(1), Simple Assault - Fight or Scuffle Entered by Mutual Consent&lt;br/&gt;"/><marker lat="40.410735382522446" lng="-80.017660491541704" zone="Zone 6" incidentdate="2016-07-26" incidenttime="19:10:00" incidentnumber="16138808" address="1600 block Princess Ave" type="OFFENSE" age="" gender="" description="*********************************************** &lt;br/&gt;9501, Bench Warrant&lt;br/&gt;2701, Simple Assault.&lt;br/&gt;"/><marker lat="40.3898349" lng="-79.9328195" zone="Zone 4" incidentdate="2016-07-26" incidenttime="06:30:00" incidentnumber="16138344" address="200 block Glass Run Rd" type="OFFENSE" age="" gender="" description="*********************************************** &lt;br/&gt;3921, Theft by Unlawful Taking or Disposition.&lt;br/&gt;"/><marker lat="40.367765997984719" lng="-79.907014403342885" zone="Zone 4" incidentdate="2016-07-26" incidenttime="13:00:00" incidentnumber="16138704" address="5600 block Century Ave" type="OFFENSE" age="" gender="" description="*********************************************** &lt;br/&gt;3934, Theft from Vehicle&lt;br/&gt;"/><marker lat="40.456839195430454" lng="-79.999232378956989" zone="Zone 1" incidentdate="2016-07-26" incidenttime="19:15:00" incidentnumber="16138747" address="Howard St &amp; E North Ave" type="OFFENSE" age="" gender="" description="*********************************************** &lt;br/&gt;5902(a)(2), Prostitution - Loitering for purpose of&lt;br/&gt;5902(a)(1), Prostitution&lt;br/&gt;"/><marker lat="40.454038272737556" lng="-79.867341042290406" zone="Zone 5" incidentdate="2016-07-26" incidenttime="16:35:00" incidentnumber="16138700" address="2200 block Wilner Dr" type="OFFENSE" age="" gender="" description="*********************************************** &lt;br/&gt;2709(a)(1), Harassment by Physical Contact, or Attempts or Threats&lt;br/&gt;"/><marker lat="40.384413993627369" lng="-79.994277181866664" zone="Zone 3" incidentdate="2016-07-26" incidenttime="02:15:00" incidentnumber="16138304" address="Maytide St" type="OFFENSE" age="" gender="" description="*********************************************** &lt;br/&gt;9501, Bench Warrant&lt;br/&gt;"/><marker lat="40.418503988939655" lng="-79.924348393884145" zone="Zone 4" incidentdate="2016-07-26" incidenttime="15:33:00" incidentnumber="16138629" address="3300 block Beechwood Blvd" type="OFFENSE" age="" gender="" description="*********************************************** &lt;br/&gt;4304(a)(1), Endangering Welfare of Children - Course of Conduct Enhanced&lt;br/&gt;"/><marker lat="40.450786677888246" lng="-79.903025880975633" zone="Zone 4" incidentdate="2016-07-26" incidenttime="14:30:00" incidentnumber="16138630" address="7100 block Meade St" type="OFFENSE" age="" gender="" description="*********************************************** &lt;br/&gt;9999, 9999 - (Misc. Incident):&lt;br/&gt;"/><marker lat="40.450349551044347" lng="-79.870079209367304" zone="Zone 5" incidentdate="2016-07-26" incidenttime="17:00:00" incidentnumber="16138814" address="2000 block Fairlawn St" type="OFFENSE" age="" gender="" description="*********************************************** &lt;br/&gt;3921, Theft by Unlawful Taking or Disposition.&lt;br/&gt;"/><marker lat="40.371841534460778" lng="-79.91239161243233" zone="Zone 4" incidentdate="2016-07-26" incidenttime="09:30:00" incidentnumber="16138411" address="1300 block Leaside Dr" type="OFFENSE" age="" gender="" description="*********************************************** &lt;br/&gt;3934, Theft from Vehicle&lt;br/&gt;"/><marker lat="40.454568730584761" lng="-79.999389413807066" zone="Zone 1" incidentdate="2016-07-26" incidenttime="20:15:00" incidentnumber="16138775" address="Middle St &amp; Foreland St" type="OFFENSE" age="" gender="" description="*********************************************** &lt;br/&gt;5902(a)(2), Prostitution - Loitering for purpose of&lt;br/&gt;903, Criminal Conspiracy.&lt;br/&gt;5902(b), Promoting Prostitution&lt;br/&gt;"/><marker lat="40.4283603" lng="-79.9656380" zone="Zone 3" incidentdate="2016-07-26" incidenttime="09:30:00" incidentnumber="16138497" address="400 block S 27th. St" type="OFFENSE" age="" gender="" description="*********************************************** &lt;br/&gt;9999, 9999 - (Misc. Incident):&lt;br/&gt;"/><marker lat="40.4910296" lng="-80.0055079" zone="Zone 1" incidentdate="2016-07-26" incidenttime="17:00:00" incidentnumber="16138686" address="3800 block Harpen Rd" type="OFFENSE" age="" gender="" description="*********************************************** &lt;br/&gt;2709(a), Harassment.&lt;br/&gt;2709(a)(1), Harassment by Physical Contact, or Attempts or Threats&lt;br/&gt;"/><marker lat="40.446346164512178" lng="-79.994318011299683" zone="Zone 2" incidentdate="2016-07-26" incidenttime="16:35:00" incidentnumber="16138652" address="11th St" type="OFFENSE" age="" gender="" description="*********************************************** &lt;br/&gt;3922, Theft by Deception.&lt;br/&gt;"/><marker lat="40.4451160" lng="-79.8805613" zone="Zone OSC" incidentdate="2016-07-26" incidenttime="04:23:00" incidentnumber="16138323" address="Penn Hills Ave" type="OFFENSE" age="" gender="" description="*********************************************** &lt;br/&gt;9094, Recovered Stolen Vehicle (OUTSIDE CITY)&lt;br/&gt;"/><marker lat="40.426546637370244" lng="-79.92333496624822" zone="Zone 4" incidentdate="2016-07-26" incidenttime="18:21:00" incidentnumber="16138718" address="6300 block Burchfield Ave" type="OFFENSE" age="" gender="" description="*********************************************** &lt;br/&gt;9498, 302 (Mental)&lt;br/&gt;"/><marker lat="40.411961292667947" lng="-79.990414353340327" zone="Zone 3" incidentdate="2016-07-26" incidenttime="13:00:00" incidentnumber="16138631" address="200 block Marland St" type="OFFENSE" age="" gender="" description="*********************************************** &lt;br/&gt;9999, 9999 - (Misc. Incident):&lt;br/&gt;"/><marker lat="40.40810629829253" lng="-79.991478650492439" zone="Zone 3" incidentdate="2016-07-26" incidenttime="19:58:00" incidentnumber="16138772" address="800 block Brownsville Rd" type="OFFENSE" age="" gender="" description="*********************************************** &lt;br/&gt;5902(e), Patronizing a Prostitute&lt;br/&gt;902, Criminal Solicitation.&lt;br/&gt;"/><marker lat="40.459638842157609" lng="-79.893001452245613" zone="Zone 5" incidentdate="2016-07-26" incidenttime="19:30:00" incidentnumber="16138759" address="7300 block Hermitage St" type="OFFENSE" age="" gender="" description="*********************************************** &lt;br/&gt;3502, Burglary.&lt;br/&gt;"/><marker lat="40.455163784473093" lng="-80.054550909657195" zone="Zone 6" incidentdate="2016-07-26" incidenttime="16:00:00" incidentnumber="16138637" address="3000 block Landis St" type="OFFENSE" age="" gender="" description="*********************************************** &lt;br/&gt;4120, Identity Theft&lt;br/&gt;"/><marker lat="40.434245630925759" lng="-79.952212887609576" zone="Zone 4" incidentdate="2016-07-26" incidenttime="14:30:00" incidentnumber="16138600" address="Blvd Of The Allies &amp; Parkview Ave" type="OFFENSE" age="" gender="" description="*********************************************** &lt;br/&gt;3743, Accidents Involving Damage to Attended Veh. or Property&lt;br/&gt;"/><marker lat="40.437754135091211" lng="-79.988304552203175" zone="Zone 2" incidentdate="2016-07-26" incidenttime="12:35:00" incidentnumber="16138590" address="1300 block Forbes Ave" type="OFFENSE" age="" gender="" description="*********************************************** &lt;br/&gt;3921, Theft by Unlawful Taking or Disposition.&lt;br/&gt;"/><marker lat="40.466913751601794" lng="-80.025083325219768" zone="Zone 1" incidentdate="2016-07-26" incidenttime="16:16:00" incidentnumber="16138633" address="1100 block Marshall Ave" type="OFFENSE" age="" gender="" description="*********************************************** &lt;br/&gt;9496, Dead on Arrival (DOA)&lt;br/&gt;"/><marker lat="40.442149856978411" lng="-79.957840380080995" zone="Zone 4" incidentdate="2016-07-26" incidenttime="19:30:00" incidentnumber="16138813" address="100 block Oakland Ave" type="OFFENSE" age="" gender="" description="*********************************************** &lt;br/&gt;9999, 9999 - (Misc. Incident):&lt;br/&gt;"/><marker lat="40.462206527800817" lng="-80.051237561811348" zone="Zone 3" incidentdate="2016-07-26" incidenttime="10:52:00" incidentnumber="16138457" address="3300 block E Carson St" type="OFFENSE" age="" gender="" description="*********************************************** &lt;br/&gt;3304, Criminal Mischief.&lt;br/&gt;2705, Recklessly Endangering Another Person.&lt;br/&gt;2702, Aggravated Assault.&lt;br/&gt;3736, Reckless Driving&lt;br/&gt;5121, Escape.&lt;br/&gt;3112, Traffic-Control Signals.&lt;br/&gt;3733, Fleeing or Attempting to Elude Police Officer&lt;br/&gt;3503(a), Criminal Trespass&lt;br/&gt;2715, Threat to Use Weapons of Mass Destruction&lt;br/&gt;"/><marker lat="40.416291593225438" lng="-79.995303094189111" zone="Zone 3" incidentdate="2016-07-26" incidenttime="16:20:00" incidentnumber="16138641" address="400 block Charles St" type="OFFENSE" age="" gender="" description="*********************************************** &lt;br/&gt;9999, 9999 - (Misc. Incident):&lt;br/&gt;"/><marker lat="40.456633448414188" lng="-79.936435139782176" zone="Zone 4" incidentdate="2016-07-26" incidenttime="13:55:00" incidentnumber="16138569" address="5500 block Centre Ave" type="OFFENSE" age="" gender="" description="*********************************************** &lt;br/&gt;3929(a)(1), Retail Theft; takes possession of, carries away, or transfers displayed merchandise&lt;br/&gt;"/><marker lat="40.4476682" lng="-80.0076534" zone="Zone 1" incidentdate="2016-07-26" incidenttime="22:05:00" incidentnumber="16138829" address="General Robinson St W &amp; Mazeroski Way" type="OFFENSE" age="" gender="" description="*********************************************** &lt;br/&gt;13(a)(32), Paraphernalia - Use or Possession&lt;br/&gt;4910, Tampering with or Fabricating Physical Evidence.&lt;br/&gt;9501, Bench Warrant&lt;br/&gt;5104, Resisting Arrest or Other Law Enforcement.&lt;br/&gt;5121, Escape.&lt;br/&gt;5506, Loitering and Prowling at Night&lt;br/&gt;"/><marker lat="40.453927373752101" lng="-80.065380196647098" zone="Zone 6" incidentdate="2016-07-26" incidenttime="17:45:00" incidentnumber="16138698" address="Chartiers Ave &amp; Faulkner St" type="OFFENSE" age="" gender="" description="*********************************************** &lt;br/&gt;3743, Accidents Involving Damage to Attended Veh. or Property&lt;br/&gt;"/><marker lat="40.371841534460778" lng="-79.91239161243233" zone="Zone 4" incidentdate="2016-07-26" incidenttime="04:45:00" incidentnumber="16138333" address="1300 block Leaside Dr" type="OFFENSE" age="" gender="" description="*********************************************** &lt;br/&gt;3304, Criminal Mischief.&lt;br/&gt;3934, Theft from Vehicle&lt;br/&gt;"/><marker lat="40.445926173410676" lng="-80.052351688864789" zone="Zone 6" incidentdate="2016-07-26" incidenttime="21:00:00" incidentnumber="16111685" address="1000 block Woodlow St" type="OFFENSE" age="" gender="" description="*********************************************** &lt;br/&gt;3304, Criminal Mischief.&lt;br/&gt;2702, Aggravated Assault.&lt;br/&gt;908, Prohibited Offensive Weapons.&lt;br/&gt;"/><marker lat="40.409094490094994" lng="-79.993966253633914" zone="Zone 3" incidentdate="2016-07-26" incidenttime="02:41:00" incidentnumber="16138298" address="300 block Mc Kinley St" type="OFFENSE" age="" gender="" description="*********************************************** &lt;br/&gt;2705, Recklessly Endangering Another Person.&lt;br/&gt;2702, Aggravated Assault.&lt;br/&gt;3304(a)(5), CRIMINAL MISCHIEF - Intentionally Damages Real Or Personal Property Of Another&lt;br/&gt;"/><marker lat="40.434333953438859" lng="-79.961390827036624" zone="Zone 4" incidentdate="2016-07-26" incidenttime="17:25:00" incidentnumber="16138688" address="Ophelia St &amp; Kennett Sq" type="OFFENSE" age="" gender="" description="*********************************************** &lt;br/&gt;2702, Aggravated Assault.&lt;br/&gt;"/><marker lat="40.430802070924834" lng="-80.009581175018482" zone="Zone 3" incidentdate="2016-07-26" incidenttime="08:00:00" incidentnumber="16138449" address="200 block Virginia Ave" type="OFFENSE" age="" gender="" description="*********************************************** &lt;br/&gt;3502, Burglary.&lt;br/&gt;"/><marker lat="40.4690502" lng="-79.9187035" zone="Zone 5" incidentdate="2016-07-26" incidenttime="07:30:00" incidentnumber="16138458" address="800 block Sheridan Ave" type="OFFENSE" age="" gender="" description="*********************************************** &lt;br/&gt;3934, Theft from Vehicle&lt;br/&gt;"/><marker lat="40.427018325144076" lng="-79.988359892019602" zone="Zone 3" incidentdate="2016-07-26" incidenttime="12:00:00" incidentnumber="16138653" address="1000 block Bradish St" type="OFFENSE" age="" gender="" description="*********************************************** &lt;br/&gt;2709, Harassment (Non-Specific)&lt;br/&gt;"/><marker lat="40.4406224865496" lng="-80.054069917586332" zone="Zone 6" incidentdate="2016-07-26" incidenttime="11:32:00" incidentnumber="16138466" address="1200 block Oakmont St" type="OFFENSE" age="" gender="" description="*********************************************** &lt;br/&gt;9488, False  Burglar Alarm&lt;br/&gt;"/><marker lat="40.400056747168051" lng="-80.022314344650468" zone="Zone 6" incidentdate="2016-07-26" incidenttime="16:55:00" incidentnumber="16138671" address="Woodward Ave &amp; Belle Isle Ave" type="OFFENSE" age="" gender="" description="*********************************************** &lt;br/&gt;3745, Accidents Involving Damage to Unattended Veh.or Prop.&lt;br/&gt;"/><marker lat="40.428585203983602" lng="-79.981869007680203" zone="Zone 3" incidentdate="2016-07-26" incidenttime="18:44:00" incidentnumber="16138727" address="1700 block E Carson St" type="OFFENSE" age="" gender="" description="*********************************************** &lt;br/&gt;2701, Simple Assault.&lt;br/&gt;"/><marker lat="40.399788878927772" lng="-80.043325511648376" zone="Zone 6" incidentdate="2016-07-26" incidenttime="12:00:00" incidentnumber="16138578" address="3100 block Banksville Rd" type="OFFENSE" age="" gender="" description="*********************************************** &lt;br/&gt;3924, Theft of Property Lost, Mislaid or Delivered by Mistake.&lt;br/&gt;"/><marker lat="40.456028748907386" lng="-80.064883997272091" zone="Zone 6" incidentdate="2016-07-26" incidenttime="17:00:00" incidentnumber="16138717" address="1200 block Stanhope St" type="OFFENSE" age="" gender="" description="*********************************************** &lt;br/&gt;3304(a)(5), CRIMINAL MISCHIEF - Intentionally Damages Real Or Personal Property Of Another&lt;br/&gt;"/><marker lat="40.367924576548027" lng="-79.909023175198939" zone="Zone 4" incidentdate="2016-07-26" incidenttime="04:30:00" incidentnumber="16138329" address="5400 block Halchess St" type="OFFENSE" age="" gender="" description="*********************************************** &lt;br/&gt;3934, Theft from Vehicle&lt;br/&gt;"/><marker lat="40.457396684455787" lng="-79.896297857079958" zone="Zone 5" incidentdate="2016-07-26" incidenttime="00:52:00" incidentnumber="16138258" address="Frankstown Ave &amp; N Homewood Ave" type="OFFENSE" age="" gender="" description="*********************************************** &lt;br/&gt;3701, Robbery.&lt;br/&gt;"/><marker lat="40.471548571816264" lng="-80.030886342098199" zone="Zone 1" incidentdate="2016-07-26" incidenttime="12:45:00" incidentnumber="16138529" address="Eckert St &amp; Shadeland Ave" type="OFFENSE" age="" gender="" description="*********************************************** &lt;br/&gt;13(a)(16), Possession of Controlled Substance&lt;br/&gt;13(a)(30), Possession w/ Intent to Del. Controlled Substance&lt;br/&gt;4910, Tampering with or Fabricating Physical Evidence.&lt;br/&gt;5104, Resisting Arrest or Other Law Enforcement.&lt;br/&gt;2705, Recklessly Endangering Another Person.&lt;br/&gt;1543, Driving While Operating Privilege is Suspended or Revoked.&lt;br/&gt;3334, Turning Movements and Required Signals.&lt;br/&gt;6106, Firearms not to be Carried without a License.&lt;br/&gt;3323, Stop Signs and Yield Signs.&lt;br/&gt;3301, Arson&lt;br/&gt;3354, Additional Parking Regulations.&lt;br/&gt;6105(a)(1), Persons not to possess, use, manufacture, control, sell or transfer firearms: Former convict enumerated in subsection (b)&lt;br/&gt;"/><marker lat="40.457993760545435" lng="-79.904347923055653" zone="Zone 5" incidentdate="2016-07-26" incidenttime="07:15:00" incidentnumber="16138395" address="6900 block Bennett St" type="OFFENSE" age="" gender="" description="*********************************************** &lt;br/&gt;3502, Burglary.&lt;br/&gt;"/><marker lat="40.42812884585404" lng="-79.979451152464478" zone="Zone 3" incidentdate="2016-07-26" incidenttime="18:30:00" incidentnumber="16138740" address="100 block S 19th St" type="OFFENSE" age="" gender="" description="*********************************************** &lt;br/&gt;3921, Theft by Unlawful Taking or Disposition.&lt;br/&gt;"/><marker lat="40.461023840525634" lng="-80.01372480408989" zone="Zone 1" incidentdate="2016-07-26" incidenttime="14:06:00" incidentnumber="16138561" address="Clayton Ave &amp; Perrysville Ave" type="OFFENSE" age="" gender="" description="*********************************************** &lt;br/&gt;1501, Drivers Required to be Licensed.&lt;br/&gt;3925, Receiving Stolen Property.&lt;br/&gt;"/><marker lat="40.441382894758895" lng="-80.002108774882004" zone="Zone 2" incidentdate="2016-07-26" incidenttime="16:00:00" incidentnumber="16138623" address="5th Ave &amp; Market St" type="OFFENSE" age="" gender="" description="*********************************************** &lt;br/&gt;13(a)(16), Possession of Controlled Substance&lt;br/&gt;13(a)(31), Marijuana: Possession Small Amount&lt;br/&gt;4910, Tampering with or Fabricating Physical Evidence.&lt;br/&gt;5507, Obstructing Highways and Passages.&lt;br/&gt;5505, Public Drunkenness&lt;br/&gt;5123, Contraband.&lt;br/&gt;602.04(b)(2), Aggressive Panhandling&lt;br/&gt;"/><marker lat="40.407973324765294" lng="-79.991464068279882" zone="Zone 3" incidentdate="2016-07-26" incidenttime="19:30:00" incidentnumber="16138757" address="Brownsville Rd &amp; Reifert St" type="OFFENSE" age="" gender="" description="*********************************************** &lt;br/&gt;13(a)(16), Possession of Controlled Substance&lt;br/&gt;13(a)(30), Possession w/ Intent to Del. Controlled Substance&lt;br/&gt;13(a)(31), Marijuana: Possession Small Amount&lt;br/&gt;903, Criminal Conspiracy.&lt;br/&gt;"/><marker lat="40.369273666673315" lng="-79.910576443288861" zone="Zone 4" incidentdate="2016-07-26" incidenttime="05:25:00" incidentnumber="16138343" address="5300 block Mifflin Rd" type="OFFENSE" age="" gender="" description="*********************************************** &lt;br/&gt;3934, Theft from Vehicle&lt;br/&gt;"/><marker lat="40.482274205880685" lng="-80.042918340299479" zone="Zone 1" incidentdate="2016-07-26" incidenttime="10:40:00" incidentnumber="16138459" address="1800 block Termon Ave" type="OFFENSE" age="" gender="" description="*********************************************** &lt;br/&gt;3502, Burglary.&lt;br/&gt;"/><marker lat="40.467811518850382" lng="-79.927724035809661" zone="Zone 4" incidentdate="2016-07-26" incidenttime="09:00:00" incidentnumber="16138435" address="500 block S Negley Ave" type="OFFENSE" age="" gender="" description="*********************************************** &lt;br/&gt;3921, Theft by Unlawful Taking or Disposition.&lt;br/&gt;"/><marker lat="40.447408582510299" lng="-79.938268306884581" zone="Zone 4" incidentdate="2016-07-26" incidenttime="08:00:00" incidentnumber="16138643" address="5100 block Fifth Ave" type="OFFENSE" age="" gender="" description="*********************************************** &lt;br/&gt;4120, Identity Theft&lt;br/&gt;"/><marker lat="40.451870126355935" lng="-80.02861446579945" zone="Zone 1" incidentdate="2016-07-26" incidenttime="10:00:00" incidentnumber="16138423" address="1100 block Beaver Ave" type="OFFENSE" age="" gender="" description="*********************************************** &lt;br/&gt;3921(a), Theft by Unlawful Taking or Disposition - Movable item&lt;br/&gt;3928, Unauthorized Use of Automobile and Other Vehicles.&lt;br/&gt;"/><marker lat="40.479936560699926" lng="-80.041856845442879" zone="Zone 1" incidentdate="2016-07-26" incidenttime="15:20:00" incidentnumber="16138592" address="1800 block Davis Ave" type="OFFENSE" age="" gender="" description="*********************************************** &lt;br/&gt;2705, Recklessly Endangering Another Person.&lt;br/&gt;3736, Reckless Driving&lt;br/&gt;1543, Driving While Operating Privilege is Suspended or Revoked.&lt;br/&gt;3733, Fleeing or Attempting to Elude Police Officer&lt;br/&gt;5126, Flight to Avoid Apprehension, Trial or Punishment.&lt;br/&gt;"/><marker lat="40.423730410517173" lng="-79.990074737581892" zone="Zone 3" incidentdate="2016-07-26" incidenttime="12:15:00" incidentnumber="16138517" address="Renwick St" type="OFFENSE" age="" gender="" description="*********************************************** &lt;br/&gt;3502, Burglary.&lt;br/&gt;"/><marker lat="40.45493173032483" lng="-80.010796490212854" zone="Zone 5" incidentdate="2016-07-26" incidenttime="01:00:00" incidentnumber="16138448" address="400 block N Fairmount St" type="OFFENSE" age="" gender="" description="*********************************************** &lt;br/&gt;3745, Accidents Involving Damage to Unattended Veh.or Prop.&lt;br/&gt;"/><marker lat="40.465758578226804" lng="-79.981914968716438" zone="Zone 1" incidentdate="2016-07-26" incidenttime="04:06:00" incidentnumber="16138321" address="1700 block Cowley St" type="OFFENSE" age="" gender="" description="*********************************************** &lt;br/&gt;9488, False  Burglar Alarm&lt;br/&gt;"/><marker lat="40.453396968523634" lng="-79.927036742088688" zone="Zone 4" incidentdate="2016-07-26" incidenttime="09:20:00" incidentnumber="16138418" address="5900 block Walnut St" type="OFFENSE" age="" gender="" description="*********************************************** &lt;br/&gt;3502, Burglary.&lt;br/&gt;"/><marker lat="40.418386917969073" lng="-80.005778642166916" zone="Zone 3" incidentdate="2016-07-26" incidenttime="17:40:00" incidentnumber="16138685" address="100 block Freeland St" type="OFFENSE" age="" gender="" description="*********************************************** &lt;br/&gt;3502, Burglary.&lt;br/&gt;13(a)(16), Possession of Controlled Substance&lt;br/&gt;"/><marker lat="40.4406248" lng="-79.9958864" zone="Zone 6" incidentdate="2016-07-26" incidenttime="01:01:00" incidentnumber="16138263" address="Below the West End Bridge" type="OFFENSE" age="" gender="" description="*********************************************** &lt;br/&gt;3304, Criminal Mischief.&lt;br/&gt;3934, Theft from Vehicle&lt;br/&gt;903, Criminal Conspiracy.&lt;br/&gt;"/><marker lat="40.437261487984259" lng="-79.975953918643825" zone="Zone 2" incidentdate="2016-07-26" incidenttime="14:30:00" incidentnumber="16138878" address="Seneca St &amp; Forbes Ave" type="OFFENSE" age="" gender="" description="*********************************************** &lt;br/&gt;3701, Robbery.&lt;br/&gt;"/><marker lat="40.460341693312827" lng="-79.986977783015149" zone="Zone 1" incidentdate="2016-07-26" incidenttime="01:52:00" incidentnumber="16138275" address="1300 block Herman St" type="OFFENSE" age="" gender="" description="*********************************************** &lt;br/&gt;9488, False  Burglar Alarm&lt;br/&gt;"/><marker lat="40.441923779784247" lng="-80.001794396078409" zone="Zone 2" incidentdate="2016-07-26" incidenttime="01:05:00" incidentnumber="16138264" address="Liberty Ave &amp; Market St" type="OFFENSE" age="" gender="" description="*********************************************** &lt;br/&gt;3701, Robbery.&lt;br/&gt;"/><marker lat="40.459241184494772" lng="-80.005548013998464" zone="Zone 1" incidentdate="2016-07-26" incidenttime="17:12:00" incidentnumber="16138679" address="1600 block Sandusky Ct" type="OFFENSE" age="" gender="" description="*********************************************** &lt;br/&gt;13(a)(32), Paraphernalia - Use or Possession&lt;br/&gt;5505, Public Drunkenness&lt;br/&gt;"/><marker lat="40.45493173032483" lng="-80.010796490212854" zone="Zone 5" incidentdate="2016-07-26" incidenttime="03:10:00" incidentnumber="16138434" address="400 block N Fairmount St" type="OFFENSE" age="" gender="" description="*********************************************** &lt;br/&gt;3745, Accidents Involving Damage to Unattended Veh.or Prop.&lt;br/&gt;"/><marker lat="40.391808979644708" lng="-80.016709964153662" zone="Zone 6" incidentdate="2016-07-26" incidenttime="16:00:00" incidentnumber="16138668" address="Brookline Blvd &amp; Queensboro Ave" type="OFFENSE" age="" gender="" description="*********************************************** &lt;br/&gt;3921, Theft by Unlawful Taking or Disposition.&lt;br/&gt;"/><marker lat="40.450125157301898" lng="-79.970938592790091" zone="Zone 2" incidentdate="2016-07-26" incidenttime="13:23:00" incidentnumber="16138536" address="2600 block Webster Ave" type="OFFENSE" age="" gender="" description="*********************************************** &lt;br/&gt;3921(a), Theft by Unlawful Taking or Disposition - Movable item&lt;br/&gt;"/><marker lat="40.4590975" lng="-80.0561201" zone="Zone 6" incidentdate="2016-07-26" incidenttime="01:00:00" incidentnumber="16138350" address="3200 block Bostwick St" type="OFFENSE" age="" gender="" description="*********************************************** &lt;br/&gt;3304, Criminal Mischief.&lt;br/&gt;3934, Theft from Vehicle&lt;br/&gt;"/><marker lat="40.4406248" lng="-79.9958864" zone="Zone 1" incidentdate="2016-07-26" incidenttime="17:01:00" incidentnumber="16138669" address="Evergreen Rd &amp; Evergreen Rd Ramp" type="OFFENSE" age="" gender="" description="*********************************************** &lt;br/&gt;2705, Recklessly Endangering Another Person.&lt;br/&gt;3736, Reckless Driving&lt;br/&gt;3743, Accidents Involving Damage to Attended Veh. or Property&lt;br/&gt;2709.1, Stalking Conduct or Repeatedly Acts Including Follows&lt;br/&gt;"/><marker lat="40.460768407974605" lng="-80.054473919507714" zone="Zone 6" incidentdate="2016-07-26" incidenttime="09:00:00" incidentnumber="16138405" address="400 block Stadium St" type="OFFENSE" age="" gender="" description="*********************************************** &lt;br/&gt;3502, Burglary.&lt;br/&gt;3701, Robbery.&lt;br/&gt;"/><marker lat="40.424310493723219" lng="-79.910141593494373" zone="Zone 4" incidentdate="2016-07-26" incidenttime="14:21:00" incidentnumber="16138570" address="1000 block Parkview Blvd" type="OFFENSE" age="" gender="" description="*********************************************** &lt;br/&gt;9488, False  Burglar Alarm&lt;br/&gt;"/><marker lat="40.367924576548027" lng="-79.909023175198939" zone="Zone 4" incidentdate="2016-07-26" incidenttime="07:00:00" incidentnumber="16138593" address="5400 block Halchess St" type="OFFENSE" age="" gender="" description="*********************************************** &lt;br/&gt;9999, 9999 - (Misc. Incident):&lt;br/&gt;"/><marker lat="40.487823540011732" lng="-79.897614208935366" zone="Zone 5" incidentdate="2016-07-26" incidenttime="16:30:00" incidentnumber="16138659" address="800 block Freeport Rd" type="OFFENSE" age="" gender="" description="*********************************************** &lt;br/&gt;3745, Accidents Involving Damage to Unattended Veh.or Prop.&lt;br/&gt;"/><marker lat="40.4597609" lng="-79.9208177" zone="Zone 5" incidentdate="2016-07-26" incidenttime="16:40:00" incidentnumber="16138658" address="6300 block Penn Ave" type="OFFENSE" age="" gender="" description="*********************************************** &lt;br/&gt;9999, 9999 - (Misc. Incident):&lt;br/&gt;"/><marker lat="40.45858179352976" lng="-79.992016742966769" zone="Zone 1" incidentdate="2016-07-26" incidenttime="15:17:00" incidentnumber="16138621" address="1100 block Brabec St" type="OFFENSE" age="" gender="" description="*********************************************** &lt;br/&gt;13(a)(16), Possession of Controlled Substance&lt;br/&gt;13(a)(30), Possession w/ Intent to Del. Controlled Substance&lt;br/&gt;1543, Driving While Operating Privilege is Suspended or Revoked.&lt;br/&gt;3733, Fleeing or Attempting to Elude Police Officer&lt;br/&gt;7512, Criminal Use of Communication&lt;br/&gt;"/><marker lat="40.449311319974932" lng="-79.951692082854407" zone="Zone 4" incidentdate="2016-07-26" incidenttime="17:35:00" incidentnumber="16138705" address="200 block N Dithridge St" type="OFFENSE" age="" gender="" description="*********************************************** &lt;br/&gt;9999, 9999 - (Misc. Incident):&lt;br/&gt;"/><marker lat="40.467375034401172" lng="-79.957944364123122" zone="Zone 6" incidentdate="2016-07-26" incidenttime="11:30:00" incidentnumber="14232718" address="300 block S Main St" type="OFFENSE" age="" gender="" description="*********************************************** &lt;br/&gt;9124, Drug Investigation&lt;br/&gt;13(a)(16), Possession of Controlled Substance&lt;br/&gt;13(a)(30), Possession w/ Intent to Del. Controlled Substance&lt;br/&gt;7512, Criminal Use of Communication&lt;br/&gt;"/><marker lat="40.448993513553035" lng="-79.957624976179304" zone="Zone 2" incidentdate="2016-07-26" incidenttime="07:00:00" incidentnumber="16138737" address="4200 block Bryn Mawr Rd" type="OFFENSE" age="" gender="" description="*********************************************** &lt;br/&gt;3921(a), Theft by Unlawful Taking or Disposition - Movable item&lt;br/&gt;"/><marker lat="40.438091155451616" lng="-80.001853342344887" zone="Zone 2" incidentdate="2016-07-26" incidenttime="01:50:00" incidentnumber="16138295" address="300 block Blvd Of The Allies" type="OFFENSE" age="" gender="" description="*********************************************** &lt;br/&gt;2709, Harassment (Non-Specific)&lt;br/&gt;"/><marker lat="40.452531506878643" lng="-79.900072434745468" zone="Zone 4" incidentdate="2016-07-26" incidenttime="02:15:00" incidentnumber="16138286" address="400 block Jonathan Ct" type="OFFENSE" age="" gender="" description="*********************************************** &lt;br/&gt;2701(a)(1), Simple Assault - Intent., Know., Reckless.Cause Bod. Injury&lt;br/&gt;"/><marker lat="40.445707436700843" lng="-79.990911385279531" zone="Zone 6" incidentdate="2016-07-26" incidenttime="14:20:00" incidentnumber="16138622" address="1300 block West Liberty Ave" type="OFFENSE" age="" gender="" description="*********************************************** &lt;br/&gt;3743, Accidents Involving Damage to Attended Veh. or Property&lt;br/&gt;"/><marker lat="40.458979294669412" lng="-80.079869432359573" zone="Zone 6" incidentdate="2016-07-26" incidenttime="00:07:00" incidentnumber="16138222" address="3800 block Haven St" type="ARREST" age="31" gender="M" description="*********************************************** &lt;br/&gt;9501, Bench Warrant&lt;br/&gt;"/><marker lat="40.452531506878643" lng="-79.900072434745468" zone="Zone 4" incidentdate="2016-07-26" incidenttime="02:58:00" incidentnumber="16138286" address="400 block Jonathan Ct" type="ARREST" age="30" gender="M" description="*********************************************** &lt;br/&gt;2701(a)(1), Simple Assault - Intent., Know., Reckless.Cause Bod. Injury&lt;br/&gt;"/><marker lat="40.418503988939655" lng="-79.924348393884145" zone="Zone 4" incidentdate="2016-07-26" incidenttime="16:30:00" incidentnumber="16138629" address="3300 block Beechwood Blvd" type="ARREST" age="34" gender="F" description="*********************************************** &lt;br/&gt;4304(a)(1), Endangering Welfare of Children - Course of Conduct Enhanced&lt;br/&gt;"/><marker lat="40.40810629829253" lng="-79.991478650492439" zone="Zone 3" incidentdate="2016-07-26" incidenttime="19:58:00" incidentnumber="16138772" address="800 block Brownsville Rd" type="ARREST" age="40" gender="M" description="*********************************************** &lt;br/&gt;5902(e), Patronizing a Prostitute&lt;br/&gt;902, Criminal Solicitation.&lt;br/&gt;"/><marker lat="40.430516543411507" lng="-79.923463518043434" zone="Zone 4" incidentdate="2016-07-26" incidenttime="14:45:00" incidentnumber="16117508" address="2300 block Murray Ave" type="ARREST" age="35" gender="M" description="*********************************************** &lt;br/&gt;3701, Robbery.&lt;br/&gt;"/><marker lat="40.467710129126026" lng="-79.930218731989413" zone="Zone 5" incidentdate="2016-07-26" incidenttime="00:44:00" incidentnumber="16122750" address="5500 block Rippey Pl" type="ARREST" age="60" gender="M" description="*********************************************** &lt;br/&gt;4915, Failure to Comply with Megans Law&lt;br/&gt;"/><marker lat="40.410735382522446" lng="-80.017660491541704" zone="Zone 6" incidentdate="2016-07-26" incidenttime="19:31:00" incidentnumber="16138808" address="1600 block Princess Ave" type="ARREST" age="25" gender="F" description="*********************************************** &lt;br/&gt;9501, Bench Warrant&lt;br/&gt;2701, Simple Assault.&lt;br/&gt;"/><marker lat="40.474628880508284" lng="-80.034497258652834" zone="Zone 1" incidentdate="2016-07-26" incidenttime="15:20:00" incidentnumber="16097577" address="Lecky Ave &amp; Malden St" type="ARREST" age="23" gender="M" description="*********************************************** &lt;br/&gt;2705, Recklessly Endangering Another Person.&lt;br/&gt;2707, Propulsion of Missiles&lt;br/&gt;2702, Aggravated Assault.&lt;br/&gt;607.03, Discharging Firearm or Airgun&lt;br/&gt;901, Criminal Attempt&lt;br/&gt;903, Criminal Conspiracy.&lt;br/&gt;6106, Firearms not to be Carried without a License.&lt;br/&gt;6105(a)(1), Persons not to possess, use, manufacture, control, sell or transfer firearms: Former convict enumerated in subsection (b)&lt;br/&gt;"/><marker lat="40.44923028512747" lng="-79.887209840525756" zone="Zone 5" incidentdate="2016-07-26" incidenttime="01:30:00" incidentnumber="16099887" address="500 block Rosedale St" type="ARREST" age="22" gender="F" description="*********************************************** &lt;br/&gt;2705, Recklessly Endangering Another Person.&lt;br/&gt;2702, Aggravated Assault.&lt;br/&gt;3304(a)(5), CRIMINAL MISCHIEF - Intentionally Damages Real Or Personal Property Of Another&lt;br/&gt;903, Criminal Conspiracy.&lt;br/&gt;2707.1, Discharge of a Firearm into Occupied Structure&lt;br/&gt;8106, Shots Fired&lt;br/&gt;"/><marker lat="40.418386917969073" lng="-80.005778642166916" zone="Zone 3" incidentdate="2016-07-26" incidenttime="17:40:00" incidentnumber="16138685" address="100 block Freeland St" type="ARREST" age="51" gender="F" description="*********************************************** &lt;br/&gt;3502, Burglary.&lt;br/&gt;13(a)(16), Possession of Controlled Substance&lt;br/&gt;"/><marker lat="40.446346164512178" lng="-79.994318011299683" zone="Zone 2" incidentdate="2016-07-26" incidenttime="17:20:00" incidentnumber="16115404" address="11th St" type="ARREST" age="26" gender="F" description="*********************************************** &lt;br/&gt;13(a)(32), Paraphernalia - Use or Possession&lt;br/&gt;4914, False Identification to Law Enforcement Authorities&lt;br/&gt;"/><marker lat="40.471548571816264" lng="-80.030886342098199" zone="Zone 1" incidentdate="2016-07-26" incidenttime="12:48:00" incidentnumber="16138529" address="Eckert St &amp; Shadeland Ave" type="ARREST" age="30" gender="M" description="*********************************************** &lt;br/&gt;13(a)(16), Possession of Controlled Substance&lt;br/&gt;13(a)(30), Possession w/ Intent to Del. Controlled Substance&lt;br/&gt;4910, Tampering with or Fabricating Physical Evidence.&lt;br/&gt;5104, Resisting Arrest or Other Law Enforcement.&lt;br/&gt;2705, Recklessly Endangering Another Person.&lt;br/&gt;1543, Driving While Operating Privilege is Suspended or Revoked.&lt;br/&gt;3334, Turning Movements and Required Signals.&lt;br/&gt;6106, Firearms not to be Carried without a License.&lt;br/&gt;3323, Stop Signs and Yield Signs.&lt;br/&gt;3301, Arson&lt;br/&gt;3354, Additional Parking Regulations.&lt;br/&gt;6105(a)(1), Persons not to possess, use, manufacture, control, sell or transfer firearms: Former convict enumerated in subsection (b)&lt;br/&gt;"/><marker lat="40.435095503606554" lng="-79.993077686753679" zone="Zone 5" incidentdate="2016-07-26" incidenttime="22:15:00" incidentnumber="16133039" address="900 block Second Ave" type="ARREST" age="19" gender="M" description="*********************************************** &lt;br/&gt;2705, Recklessly Endangering Another Person.&lt;br/&gt;2702, Aggravated Assault.&lt;br/&gt;901, Criminal Attempt&lt;br/&gt;6106, Firearms not to be Carried without a License.&lt;br/&gt;2501, Criminal Homicide.&lt;br/&gt;"/><marker lat="40.407973324765294" lng="-79.991464068279882" zone="Zone 3" incidentdate="2016-07-26" incidenttime="19:30:00" incidentnumber="16138757" address="Brownsville Rd &amp; Reifert St" type="ARREST" age="24" gender="M" description="*********************************************** &lt;br/&gt;13(a)(16), Possession of Controlled Substance&lt;br/&gt;13(a)(30), Possession w/ Intent to Del. Controlled Substance&lt;br/&gt;13(a)(31), Marijuana: Possession Small Amount&lt;br/&gt;903, Criminal Conspiracy.&lt;br/&gt;"/><marker lat="40.456839195430454" lng="-79.999232378956989" zone="Zone 1" incidentdate="2016-07-26" incidenttime="19:15:00" incidentnumber="16138747" address="Howard St &amp; E North Ave" type="ARREST" age="41" gender="F" description="*********************************************** &lt;br/&gt;5902(a)(2), Prostitution - Loitering for purpose of&lt;br/&gt;5902(a)(1), Prostitution&lt;br/&gt;"/><marker lat="40.384413993627369" lng="-79.994277181866664" zone="Zone 3" incidentdate="2016-07-26" incidenttime="02:31:00" incidentnumber="16138304" address="Maytide St" type="ARREST" age="14" gender="M" description="*********************************************** &lt;br/&gt;9501, Bench Warrant&lt;br/&gt;"/><marker lat="40.449539215063005" lng="-79.979607411343096" zone="Zone 2" incidentdate="2016-07-26" incidenttime="12:20:00" incidentnumber="16078968" address="1000 block Memory Ln" type="ARREST" age="48" gender="M" description="*********************************************** &lt;br/&gt;2701, Simple Assault.&lt;br/&gt;3304(a)(5), CRIMINAL MISCHIEF - Intentionally Damages Real Or Personal Property Of Another&lt;br/&gt;"/><marker lat="40.407973324765294" lng="-79.991464068279882" zone="Zone 3" incidentdate="2016-07-26" incidenttime="19:30:00" incidentnumber="16138757" address="Brownsville Rd &amp; Reifert St" type="ARREST" age="54" gender="M" description="*********************************************** &lt;br/&gt;13(a)(16), Possession of Controlled Substance&lt;br/&gt;13(a)(30), Possession w/ Intent to Del. Controlled Substance&lt;br/&gt;13(a)(31), Marijuana: Possession Small Amount&lt;br/&gt;903, Criminal Conspiracy.&lt;br/&gt;"/><marker lat="40.459241184494772" lng="-80.005548013998464" zone="Zone 1" incidentdate="2016-07-26" incidenttime="17:12:00" incidentnumber="16138679" address="1600 block Sandusky Ct" type="ARREST" age="50" gender="M" description="*********************************************** &lt;br/&gt;13(a)(32), Paraphernalia - Use or Possession&lt;br/&gt;5505, Public Drunkenness&lt;br/&gt;"/><marker lat="40.441382894758895" lng="-80.002108774882004" zone="Zone 2" incidentdate="2016-07-26" incidenttime="16:05:00" incidentnumber="16138623" address="5th Ave &amp; Market St" type="ARREST" age="26" gender="M" description="*********************************************** &lt;br/&gt;13(a)(16), Possession of Controlled Substance&lt;br/&gt;13(a)(31), Marijuana: Possession Small Amount&lt;br/&gt;4910, Tampering with or Fabricating Physical Evidence.&lt;br/&gt;5507, Obstructing Highways and Passages.&lt;br/&gt;5505, Public Drunkenness&lt;br/&gt;5123, Contraband.&lt;br/&gt;602.04(b)(2), Aggressive Panhandling&lt;br/&gt;"/><marker lat="40.479936560699926" lng="-80.041856845442879" zone="Zone 1" incidentdate="2016-07-26" incidenttime="15:20:00" incidentnumber="16138592" address="1800 block Davis Ave" type="ARREST" age="23" gender="M" description="*********************************************** &lt;br/&gt;2705, Recklessly Endangering Another Person.&lt;br/&gt;3736, Reckless Driving&lt;br/&gt;1543, Driving While Operating Privilege is Suspended or Revoked.&lt;br/&gt;3733, Fleeing or Attempting to Elude Police Officer&lt;br/&gt;5126, Flight to Avoid Apprehension, Trial or Punishment.&lt;br/&gt;"/><marker lat="40.434333953438859" lng="-79.961390827036624" zone="Zone 4" incidentdate="2016-07-26" incidenttime="18:00:00" incidentnumber="16138688" address="Ophelia St &amp; Kennett Sq" type="ARREST" age="27" gender="M" description="*********************************************** &lt;br/&gt;2702, Aggravated Assault.&lt;br/&gt;"/><marker lat="40.461023840525634" lng="-80.01372480408989" zone="Zone 1" incidentdate="2016-07-26" incidenttime="14:06:00" incidentnumber="16138561" address="Clayton Ave &amp; Perrysville Ave" type="ARREST" age="18" gender="M" description="*********************************************** &lt;br/&gt;1501, Drivers Required to be Licensed.&lt;br/&gt;3925, Receiving Stolen Property.&lt;br/&gt;"/><marker lat="40.467375034401172" lng="-79.957944364123122" zone="Zone 6" incidentdate="2016-07-26" incidenttime="11:30:00" incidentnumber="14232718" address="300 block S Main St" type="ARREST" age="18" gender="M" description="*********************************************** &lt;br/&gt;9124, Drug Investigation&lt;br/&gt;13(a)(16), Possession of Controlled Substance&lt;br/&gt;13(a)(30), Possession w/ Intent to Del. Controlled Substance&lt;br/&gt;7512, Criminal Use of Communication&lt;br/&gt;"/><marker lat="40.442092052039932" lng="-79.999423512399062" zone="Zone 2" incidentdate="2016-07-26" incidenttime="01:00:00" incidentnumber="16133956" address="600 block Wood St" type="ARREST" age="28" gender="M" description="*********************************************** &lt;br/&gt;3921(a), Theft by Unlawful Taking or Disposition - Movable item&lt;br/&gt;"/><marker lat="40.45858179352976" lng="-79.992016742966769" zone="Zone 1" incidentdate="2016-07-26" incidenttime="15:17:00" incidentnumber="16138621" address="1100 block Brabec St" type="ARREST" age="27" gender="M" description="*********************************************** &lt;br/&gt;13(a)(16), Possession of Controlled Substance&lt;br/&gt;13(a)(30), Possession w/ Intent to Del. Controlled Substance&lt;br/&gt;1543, Driving While Operating Privilege is Suspended or Revoked.&lt;br/&gt;3733, Fleeing or Attempting to Elude Police Officer&lt;br/&gt;7512, Criminal Use of Communication&lt;br/&gt;"/><marker lat="40.4476682" lng="-80.0076534" zone="Zone 1" incidentdate="2016-07-26" incidenttime="22:05:00" incidentnumber="16138829" address="General Robinson St W &amp; Mazeroski Way" type="ARREST" age="30" gender="M" description="*********************************************** &lt;br/&gt;13(a)(32), Paraphernalia - Use or Possession&lt;br/&gt;4910, Tampering with or Fabricating Physical Evidence.&lt;br/&gt;9501, Bench Warrant&lt;br/&gt;5104, Resisting Arrest or Other Law Enforcement.&lt;br/&gt;5121, Escape.&lt;br/&gt;5506, Loitering and Prowling at Night&lt;br/&gt;"/><marker lat="40.4406248" lng="-79.9958864" zone="Zone 6" incidentdate="2016-07-26" incidenttime="01:30:00" incidentnumber="16138263" address="Below the West End Bridge" type="ARREST" age="23" gender="M" description="*********************************************** &lt;br/&gt;3304, Criminal Mischief.&lt;br/&gt;3934, Theft from Vehicle&lt;br/&gt;903, Criminal Conspiracy.&lt;br/&gt;"/><marker lat="40.456633448414188" lng="-79.936435139782176" zone="Zone 4" incidentdate="2016-07-26" incidenttime="13:55:00" incidentnumber="16138569" address="5500 block Centre Ave" type="ARREST" age="22" gender="F" description="*********************************************** &lt;br/&gt;3929(a)(1), Retail Theft; takes possession of, carries away, or transfers displayed merchandise&lt;br/&gt;"/><marker lat="40.441382894758895" lng="-80.002108774882004" zone="Zone 2" incidentdate="2016-07-26" incidenttime="16:05:00" incidentnumber="16138623" address="5th Ave &amp; Market St" type="ARREST" age="" gender="M" description="*********************************************** &lt;br/&gt;13(a)(16), Possession of Controlled Substance&lt;br/&gt;13(a)(31), Marijuana: Possession Small Amount&lt;br/&gt;4910, Tampering with or Fabricating Physical Evidence.&lt;br/&gt;5507, Obstructing Highways and Passages.&lt;br/&gt;5505, Public Drunkenness&lt;br/&gt;5123, Contraband.&lt;br/&gt;602.04(b)(2), Aggressive Panhandling&lt;br/&gt;"/><marker lat="40.462206527800817" lng="-80.051237561811348" zone="Zone 3" incidentdate="2016-07-26" incidenttime="10:52:00" incidentnumber="16138457" address="3300 block E Carson St" type="ARREST" age="48" gender="M" description="*********************************************** &lt;br/&gt;3304, Criminal Mischief.&lt;br/&gt;2705, Recklessly Endangering Another Person.&lt;br/&gt;2702, Aggravated Assault.&lt;br/&gt;3736, Reckless Driving&lt;br/&gt;5121, Escape.&lt;br/&gt;3112, Traffic-Control Signals.&lt;br/&gt;3733, Fleeing or Attempting to Elude Police Officer&lt;br/&gt;3503(a), Criminal Trespass&lt;br/&gt;2715, Threat to Use Weapons of Mass Destruction&lt;br/&gt;"/><marker lat="40.454568730584761" lng="-79.999389413807066" zone="Zone 1" incidentdate="2016-07-26" incidenttime="20:15:00" incidentnumber="16138775" address="Middle St &amp; Foreland St" type="ARREST" age="41" gender="F" description="*********************************************** &lt;br/&gt;5902(a)(2), Prostitution - Loitering for purpose of&lt;br/&gt;903, Criminal Conspiracy.&lt;br/&gt;5902(b), Promoting Prostitution&lt;br/&gt;"/><marker lat="40.445926173410676" lng="-80.052351688864789" zone="Zone 6" incidentdate="2016-07-26" incidenttime="21:15:00" incidentnumber="16111685" address="1000 block Woodlow St" type="ARREST" age="18" gender="F" description="*********************************************** &lt;br/&gt;3304, Criminal Mischief.&lt;br/&gt;2702, Aggravated Assault.&lt;br/&gt;908, Prohibited Offensive Weapons.&lt;br/&gt;"/><marker lat="40.40810629829253" lng="-79.991478650492439" zone="Zone 3" incidentdate="2016-07-26" incidenttime="19:58:00" incidentnumber="16138772" address="800 block Brownsville Rd" type="ARREST" age="36" gender="M" description="*********************************************** &lt;br/&gt;5902(e), Patronizing a Prostitute&lt;br/&gt;902, Criminal Solicitation.&lt;br/&gt;"/><marker lat="40.418386917969073" lng="-80.005778642166916" zone="Zone 3" incidentdate="2016-07-26" incidenttime="17:40:00" incidentnumber="16089346" address="100 block Freeland St" type="ARREST" age="51" gender="F" description="*********************************************** &lt;br/&gt;2701, Simple Assault.&lt;br/&gt;"/><marker lat="40.454568730584761" lng="-79.999389413807066" zone="Zone 1" incidentdate="2016-07-26" incidenttime="20:15:00" incidentnumber="16138775" address="Middle St &amp; Foreland St" type="ARREST" age="52" gender="M" description="*********************************************** &lt;br/&gt;5902(a)(2), Prostitution - Loitering for purpose of&lt;br/&gt;903, Criminal Conspiracy.&lt;br/&gt;5902(b), Promoting Prostitution&lt;br/&gt;"/></markers>
