<?xml version="1.0"?>
<markers><marker lat="40.465236645338784" lng="-79.924908073938056" zone="Zone 5" incidentdate="2014-10-28" incidenttime="11:35:00" incidentnumber="14214875" address="N Beatty St &amp; Rippey St" type="OFFENSE" description="*********************************************** &lt;br/&gt;3304(a)(4), CRIMINAL MISCHIEF- Intentionally Damage Property (By Graffiti, Aerosol Spray Paint, Broad Tip Marker, or Similar)&lt;br/&gt;Tip, Marker, or Similar)&lt;br/&gt;"/><marker lat="40.453477680947003" lng="-80.000601233520499" zone="Zone 1" incidentdate="2014-10-28" incidenttime="22:00:00" incidentnumber="14215244" address="James St &amp; East Ohio St" type="OFFENSE" description="*********************************************** &lt;br/&gt;5902(a)(2), Prostitution - Loitering for purpose of&lt;br/&gt;5902(a)(1), Prostitution&lt;br/&gt;"/><marker lat="40.444983770185388" lng="-79.985358303330813" zone="Zone 2" incidentdate="2014-10-28" incidenttime="04:53:00" incidentnumber="14214735" address="Roberts St" type="OFFENSE" description="*********************************************** &lt;br/&gt;9497, Aided Case&lt;br/&gt;"/><marker lat="40.422735802248688" lng="-80.008196106553626" zone="Zone 3" incidentdate="2014-10-28" incidenttime="15:00:00" incidentnumber="14198205" address="200 block Albert St" type="OFFENSE" description="*********************************************** &lt;br/&gt;9124, Drug Investigation&lt;br/&gt;"/><marker lat="40.457837653123157" lng="-79.898482668870983" zone="Zone 5" incidentdate="2014-10-28" incidenttime="00:20:00" incidentnumber="14214632" address="7100 block Frankstown Ave" type="OFFENSE" description="*********************************************** &lt;br/&gt;3304, Criminal Mischief.&lt;br/&gt;2701, Simple Assault.&lt;br/&gt;"/><marker lat="40.472022052387963" lng="-80.028728365855599" zone="Zone 1" incidentdate="2014-10-28" incidenttime="00:26:00" incidentnumber="14214630" address="3000 block Vensel Way" type="OFFENSE" description="*********************************************** &lt;br/&gt;9497, Aided Case&lt;br/&gt;"/><marker lat="40.44490518577846" lng="-79.99377796067661" zone="Zone 2" incidentdate="2014-10-28" incidenttime="04:30:00" incidentnumber="14214727" address="1100 block Penn Ave" type="OFFENSE" description="*********************************************** &lt;br/&gt;3921, Theft by Unlawful Taking or Disposition.&lt;br/&gt;"/><marker lat="40.408471436041602" lng="-80.025281003665256" zone="Zone 6" incidentdate="2014-10-28" incidenttime="10:00:00" incidentnumber="14214914" address="1700 block Broadway Ave" type="OFFENSE" description="*********************************************** &lt;br/&gt;9999, 9999 - (Misc. Incident):&lt;br/&gt;"/><marker lat="40.439134875179292" lng="-79.980460317668332" zone="Zone 2" incidentdate="2014-10-28" incidenttime="16:30:00" incidentnumber="14215035" address="200 block Dinwiddie St" type="OFFENSE" description="*********************************************** &lt;br/&gt;9012, Non-Violent Domestic&lt;br/&gt;"/><marker lat="40.400271924792918" lng="-79.985796712785245" zone="Zone 3" incidentdate="2014-10-28" incidenttime="19:25:00" incidentnumber="14215151" address="200 block E Meyers St" type="OFFENSE" description="*********************************************** &lt;br/&gt;2701, Simple Assault.&lt;br/&gt;"/><marker lat="40.441003803906717" lng="-79.991822258762625" zone="Zone 2" incidentdate="2014-10-28" incidenttime="02:15:00" incidentnumber="14214679" address="100 block Washington Pl" type="OFFENSE" description="*********************************************** &lt;br/&gt;5503(a)(1), DISORDERLY CONDUCT - ENGAGE IN FIGHTING&lt;br/&gt;"/><marker lat="40.463809009665269" lng="-79.928294721355059" zone="Zone 5" incidentdate="2014-10-28" incidenttime="16:19:00" incidentnumber="14215037" address="6000 block Broad St" type="OFFENSE" description="*********************************************** &lt;br/&gt;9501, Bench Warrant&lt;br/&gt;13(a)(16), Possession of Controlled Substance&lt;br/&gt;5104, Resisting Arrest or Other Law Enforcement.&lt;br/&gt;"/><marker lat="40.406397680665954" lng="-80.018562796175502" zone="Zone 6" incidentdate="2014-10-28" incidenttime="01:17:00" incidentnumber="14214659" address="1800 block West Liberty Ave" type="OFFENSE" description="*********************************************** &lt;br/&gt;9488, False  Burglar Alarm&lt;br/&gt;"/><marker lat="40.428606966018023" lng="-79.985175111647919" zone="Zone 3" incidentdate="2014-10-28" incidenttime="01:52:00" incidentnumber="14214676" address="1300 block E Carson St" type="OFFENSE" description="*********************************************** &lt;br/&gt;2701, Simple Assault.&lt;br/&gt;"/><marker lat="40.454207988839954" lng="-79.997316632977075" zone="Zone 1" incidentdate="2014-10-28" incidenttime="15:50:00" incidentnumber="14215017" address="200 block East Ohio St" type="OFFENSE" description="*********************************************** &lt;br/&gt;13(a)(31), Marijuana: Possession Small Amount&lt;br/&gt;"/><marker lat="40.443610698976059" lng="-79.998043561602501" zone="Zone 2" incidentdate="2014-10-28" incidenttime="10:24:00" incidentnumber="14214841" address="900 block Penn Ave" type="OFFENSE" description="*********************************************** &lt;br/&gt;9999, 9999 - (Misc. Incident):&lt;br/&gt;"/><marker lat="40.426655631127865" lng="-80.02301213458307" zone="Zone 3" incidentdate="2014-10-28" incidenttime="10:47:00" incidentnumber="14214858" address="900 block Saw Mill Run Blvd" type="OFFENSE" description="*********************************************** &lt;br/&gt;13(a)(16), Possession of Controlled Substance&lt;br/&gt;13(a)(30), Possession w/ Intent to Del. Controlled Substance&lt;br/&gt;903, Criminal Conspiracy.&lt;br/&gt;13(a)(32), Paraphernalia - Use or Possession&lt;br/&gt;6110.2, Possesion of Firearm with Altered Mfg. Number&lt;br/&gt;6106, Firearms not to be Carried without a License.&lt;br/&gt;"/><marker lat="40.456933012422795" lng="-80.011297823203023" zone="Zone 1" incidentdate="2014-10-28" incidenttime="12:00:00" incidentnumber="14215147" address="400 block N Taylor Ave" type="OFFENSE" description="*********************************************** &lt;br/&gt;3921, Theft by Unlawful Taking or Disposition.&lt;br/&gt;"/><marker lat="40.419247582895537" lng="-79.972546627469242" zone="Zone 3" incidentdate="2014-10-28" incidenttime="11:30:00" incidentnumber="14214854" address="2400 block Patterson St" type="OFFENSE" description="*********************************************** &lt;br/&gt;8104, CLASS 1 - Suspicious Package or Device&lt;br/&gt;"/><marker lat="40.45785679841795" lng="-79.874355945999625" zone="Zone 5" incidentdate="2014-10-28" incidenttime="08:00:00" incidentnumber="14214783" address="8600 block Bricelyn St" type="OFFENSE" description="*********************************************** &lt;br/&gt;3502, Burglary.&lt;br/&gt;"/><marker lat="40.457627539844381" lng="-79.931466548365393" zone="Zone 4" incidentdate="2014-10-28" incidenttime="07:30:00" incidentnumber="14214768" address="5800 block Centre Ave" type="OFFENSE" description="*********************************************** &lt;br/&gt;3745, Accidents Involving Damage to Unattended Veh.or Prop.&lt;br/&gt;3802(d)(2), DUI - Drug - Impaired Ability&lt;br/&gt;"/><marker lat="40.466760003040491" lng="-79.925205131844692" zone="Zone 5" incidentdate="2014-10-28" incidenttime="11:50:00" incidentnumber="14214899" address="500 block N Euclid Ave" type="OFFENSE" description="*********************************************** &lt;br/&gt;3304(a)(4), CRIMINAL MISCHIEF- Intentionally Damage Property (By Graffiti, Aerosol Spray Paint, Broad Tip Marker, or Similar)&lt;br/&gt;Tip, Marker, or Similar)&lt;br/&gt;"/><marker lat="40.442802683726654" lng="-80.032470494061599" zone="Zone 6" incidentdate="2014-10-28" incidenttime="18:21:00" incidentnumber="14215096" address="100 block Steuben St" type="OFFENSE" description="*********************************************** &lt;br/&gt;3503(b)(1)(i), Actual Communication&lt;br/&gt;3802(a)(1), DUI - General Impairment&lt;br/&gt;3802(c), DUI - Highest Rate of Alcohol - BAC &gt;= .16%&lt;br/&gt;5505, Public Drunkenness&lt;br/&gt;"/><marker lat="40.464124490678806" lng="-79.932489199877779" zone="Zone 5" incidentdate="2014-10-28" incidenttime="21:10:00" incidentnumber="14215221" address="Penn Ave &amp; N Fairmount St" type="OFFENSE" description="*********************************************** &lt;br/&gt;5902(a)(2), Prostitution - Loitering for purpose of&lt;br/&gt;5902(a)(1), Prostitution&lt;br/&gt;"/><marker lat="40.479076386446295" lng="-79.999717737366538" zone="Zone 1" incidentdate="2014-10-28" incidenttime="21:00:00" incidentnumber="14215212" address="1400 block Chicago St" type="OFFENSE" description="*********************************************** &lt;br/&gt;2701, Simple Assault.&lt;br/&gt;"/><marker lat="40.483442699156356" lng="-80.010231661608557" zone="Zone 1" incidentdate="2014-10-28" incidenttime="19:00:00" incidentnumber="14215158" address="200 block watson Blvd" type="OFFENSE" description="*********************************************** &lt;br/&gt;2709(a)(1), Harassment by Physical Contact, or Attempts or Threats&lt;br/&gt;"/><marker lat="40.427487722390566" lng="-80.01088241911134" zone="Zone 3" incidentdate="2014-10-28" incidenttime="07:35:00" incidentnumber="14214776" address="Cowan St" type="OFFENSE" description="*********************************************** &lt;br/&gt;601.16, Public Urination And Defecation&lt;br/&gt;3503(b)(1)(i), Actual Communication&lt;br/&gt;5505, Public Drunkenness&lt;br/&gt;3304, Criminal Mischief.&lt;br/&gt;"/><marker lat="40.460192853487627" lng="-79.89521134799871" zone="Zone 5" incidentdate="2014-10-28" incidenttime="19:30:00" incidentnumber="14215152" address="N Homewood Ave &amp; Hermitage St" type="OFFENSE" description="*********************************************** &lt;br/&gt;607.03, Discharging Firearm or Airgun&lt;br/&gt;"/><marker lat="40.465775324572782" lng="-80.010108243974955" zone="Zone 1" incidentdate="2014-10-28" incidenttime="19:15:00" incidentnumber="14215150" address="200 block Seabright St" type="OFFENSE" description="*********************************************** &lt;br/&gt;029, Missing Juvenile&lt;br/&gt;"/><marker lat="40.457329336513929" lng="-79.896253743327946" zone="Zone 5" incidentdate="2014-10-28" incidenttime="20:06:00" incidentnumber="14215174" address="7200 block Frankstown Ave" type="OFFENSE" description="*********************************************** &lt;br/&gt;3701, Robbery.&lt;br/&gt;"/><marker lat="40.482199384777331" lng="-80.036508520314371" zone="Zone 1" incidentdate="2014-10-28" incidenttime="09:00:00" incidentnumber="14214820" address="1400 block Orchlee St" type="OFFENSE" description="*********************************************** &lt;br/&gt;3921, Theft by Unlawful Taking or Disposition.&lt;br/&gt;"/><marker lat="40.444657218741" lng="-79.999394946152449" zone="Zone 2" incidentdate="2014-10-28" incidenttime="05:20:00" incidentnumber="14214743" address="800 block Fort Duquesne Blvd" type="OFFENSE" description="*********************************************** &lt;br/&gt;3304, Criminal Mischief.&lt;br/&gt;3745, Accidents Involving Damage to Unattended Veh.or Prop.&lt;br/&gt;"/><marker lat="40.443869614703864" lng="-79.980003197520077" zone="Zone 2" incidentdate="2014-10-28" incidenttime="18:11:00" incidentnumber="14215100" address="Centre Ave &amp; Covel Way" type="OFFENSE" description="*********************************************** &lt;br/&gt;1543, Driving While Operating Privilege is Suspended or Revoked.&lt;br/&gt;3743, Accidents Involving Damage to Attended Veh. or Property&lt;br/&gt;"/><marker lat="40.438385891858971" lng="-79.984946393417246" zone="Zone 2" incidentdate="2014-10-28" incidenttime="02:26:00" incidentnumber="14214687" address="1500 block 5th Ave" type="OFFENSE" description="*********************************************** &lt;br/&gt;3304, Criminal Mischief.&lt;br/&gt;"/><marker lat="40.451696564722226" lng="-79.902379623330717" zone="Zone 4" incidentdate="2014-10-28" incidenttime="01:22:00" incidentnumber="14214663" address="Thomas St &amp; N Lang Ave" type="OFFENSE" description="*********************************************** &lt;br/&gt;13(a)(31)(ii), Marijuana - Possess Small Amt Intent to Distribute&lt;br/&gt;4303, General Lighting Requirements.&lt;br/&gt;13(a)(31), Marijuana: Possession Small Amount&lt;br/&gt;"/><marker lat="40.439534165811146" lng="-79.99836772444668" zone="Zone 2" incidentdate="2014-10-28" incidenttime="21:37:00" incidentnumber="14215189" address="Markstet St &amp; Market Pl" type="OFFENSE" description="*********************************************** &lt;br/&gt;"/><marker lat="40.455200209764968" lng="-80.020109349075639" zone="Zone 1" incidentdate="2014-10-28" incidenttime="13:15:00" incidentnumber="14214934" address="Pennsylvania Ave &amp; Allegheny Ave" type="OFFENSE" description="*********************************************** &lt;br/&gt;2910, Luring a Child into a Motor Vehicle.&lt;br/&gt;"/><marker lat="40.443039502651956" lng="-79.982971107424362" zone="Zone 2" incidentdate="2014-10-28" incidenttime="22:05:00" incidentnumber="14215242" address="500 block Heldman St" type="OFFENSE" description="*********************************************** &lt;br/&gt;9488, False  Burglar Alarm&lt;br/&gt;"/><marker lat="40.438747773847069" lng="-79.946352974864524" zone="Zone 4" incidentdate="2014-10-28" incidenttime="06:00:00" incidentnumber="14214884" address="Homestead Grays Bridge Brg" type="OFFENSE" description="*********************************************** &lt;br/&gt;3304, Criminal Mischief.&lt;br/&gt;"/><marker lat="40.435117964984315" lng="-79.993138203602911" zone="Zone 2" incidentdate="2014-10-28" incidenttime="15:12:00" incidentnumber="14215000" address="6st St &amp; Ross St" type="OFFENSE" description="*********************************************** &lt;br/&gt;3743, Accidents Involving Damage to Attended Veh. or Property&lt;br/&gt;"/><marker lat="40.445217096451678" lng="-79.991821080278783" zone="Zone 2" incidentdate="2014-10-28" incidenttime="16:32:00" incidentnumber="14215089" address="12th St &amp; Liberty Ave" type="OFFENSE" description="*********************************************** &lt;br/&gt;3743, Accidents Involving Damage to Attended Veh. or Property&lt;br/&gt;"/><marker lat="40.439534165811146" lng="-79.99836772444668" zone="Zone 2" incidentdate="2014-10-28" incidenttime="18:54:00" incidentnumber="14215116" address="400 block 5th Ave" type="OFFENSE" description="*********************************************** &lt;br/&gt;3929, Retail Theft.&lt;br/&gt;"/><marker lat="40.429568428667658" lng="-79.914784883363154" zone="Zone 4" incidentdate="2014-10-28" incidenttime="07:00:00" incidentnumber="14214786" address="ENGLISH Ln" type="OFFENSE" description="*********************************************** &lt;br/&gt;2709, Harassment (Non-Specific)&lt;br/&gt;3304, Criminal Mischief.&lt;br/&gt;"/><marker lat="40.441003803906717" lng="-79.991822258762625" zone="Zone 2" incidentdate="2014-10-28" incidenttime="02:15:00" incidentnumber="14214726" address="100 block Washington Pl" type="OFFENSE" description="*********************************************** &lt;br/&gt;5503(a)(1), DISORDERLY CONDUCT - ENGAGE IN FIGHTING&lt;br/&gt;"/><marker lat="40.458829569468811" lng="-79.893249839715324" zone="Zone 5" incidentdate="2014-10-28" incidenttime="18:21:00" incidentnumber="14215108" address="7300 block Monticello St" type="OFFENSE" description="*********************************************** &lt;br/&gt;9999, 9999 - (Misc. Incident):&lt;br/&gt;"/><marker lat="40.412857823197776" lng="-80.024176573100917" zone="Zone 6" incidentdate="2014-10-28" incidenttime="17:39:00" incidentnumber="14215082" address="1500 block Fallowfield Ave" type="OFFENSE" description="*********************************************** &lt;br/&gt;9489, Found Property&lt;br/&gt;"/><marker lat="40.443994906871318" lng="-80.002708132437306" zone="Zone 2" incidentdate="2014-10-28" incidenttime="07:25:00" incidentnumber="14214774" address="6th St &amp; Fort Duquesne Blvd" type="OFFENSE" description="*********************************************** &lt;br/&gt;3304, Criminal Mischief.&lt;br/&gt;"/><marker lat="40.457460078585257" lng="-79.906177272179931" zone="Zone 5" incidentdate="2014-10-28" incidenttime="19:30:00" incidentnumber="14215155" address="6800 block Kelly St" type="OFFENSE" description="*********************************************** &lt;br/&gt;9123, Miscellaneous Fire Other Investigation to Continue&lt;br/&gt;"/><marker lat="40.458126374895585" lng="-79.968877311922256" zone="Zone 2" incidentdate="2014-10-28" incidenttime="00:02:00" incidentnumber="14214616" address="300 block Harmar St" type="OFFENSE" description="*********************************************** &lt;br/&gt;9497, Aided Case&lt;br/&gt;"/><marker lat="40.461153906321272" lng="-79.929929046748143" zone="Zone 5" incidentdate="2014-10-28" incidenttime="00:09:00" incidentnumber="14214623" address="200 block S St Clair St" type="OFFENSE" description="*********************************************** &lt;br/&gt;2701, Simple Assault.&lt;br/&gt;"/><marker lat="40.453717685089764" lng="-79.963754468625751" zone="Zone 2" incidentdate="2014-10-28" incidenttime="18:00:00" incidentnumber="14215122" address="700 block Danube St" type="OFFENSE" description="*********************************************** &lt;br/&gt;9017, Found Drugs&lt;br/&gt;"/><marker lat="40.437344950831772" lng="-79.981322200027023" zone="Zone 2" incidentdate="2014-10-28" incidenttime="09:00:00" incidentnumber="14214803" address="1800 block Forbes Ave" type="OFFENSE" description="*********************************************** &lt;br/&gt;4106, Access Device Fraud&lt;br/&gt;4120, Identity Theft&lt;br/&gt;"/><marker lat="40.466805432954608" lng="-79.939550635938417" zone="Zone 5" incidentdate="2014-10-28" incidenttime="15:52:00" incidentnumber="14215025" address="Kincaid St &amp; N Pacific Ave" type="OFFENSE" description="*********************************************** &lt;br/&gt;13(a)(16), Possession of Controlled Substance&lt;br/&gt;1543, Driving While Operating Privilege is Suspended or Revoked.&lt;br/&gt;13(a)(30), Possession w/ Intent to Del. Controlled Substance&lt;br/&gt;13(a)(32), Paraphernalia - Use or Possession&lt;br/&gt;1501, Drivers Required to be Licensed.&lt;br/&gt;3323, Stop Signs and Yield Signs.&lt;br/&gt;3736, Reckless Driving&lt;br/&gt;1786, Required Financial Responsibility.&lt;br/&gt;3733, Fleeing or Attempting to Elude Police Officer&lt;br/&gt;1301, Registration and Certificate of Title Required.&lt;br/&gt;"/><marker lat="40.478449085861961" lng="-80.038879053780221" zone="Zone 1" incidentdate="2014-10-28" incidenttime="14:23:00" incidentnumber="14214964" address="1600 block Falck Ave" type="OFFENSE" description="*********************************************** &lt;br/&gt;9488, False  Burglar Alarm&lt;br/&gt;"/><marker lat="40.451209746298005" lng="-80.021965140261187" zone="Zone 1" incidentdate="2014-10-28" incidenttime="19:40:00" incidentnumber="14198995" address="1200 block Western Ave" type="OFFENSE" description="*********************************************** &lt;br/&gt;6106, Firearms not to be Carried without a License.&lt;br/&gt;2501, Criminal Homicide.&lt;br/&gt;"/><marker lat="40.453972595190628" lng="-79.964731681164764" zone="Zone 2" incidentdate="2014-10-28" incidenttime="08:10:00" incidentnumber="14215060" address="3300 block Mc Neil Pl" type="OFFENSE" description="*********************************************** &lt;br/&gt;3934, Theft from Vehicle&lt;br/&gt;"/><marker lat="40.44799942333826" lng="-79.988692730605138" zone="Zone 5" incidentdate="2014-10-28" incidenttime="14:00:00" incidentnumber="14215024" address="6300 block Penn Ave" type="OFFENSE" description="*********************************************** &lt;br/&gt;4106, Access Device Fraud&lt;br/&gt;"/><marker lat="40.462042304405514" lng="-79.992182315075482" zone="Zone 1" incidentdate="2014-10-28" incidenttime="11:31:00" incidentnumber="14214874" address="1200 block Itin St" type="OFFENSE" description="*********************************************** &lt;br/&gt;3304, Criminal Mischief.&lt;br/&gt;"/><marker lat="40.476263858787377" lng="-80.01145044242233" zone="Zone 1" incidentdate="2014-10-28" incidenttime="13:00:00" incidentnumber="14214910" address="3000 block Viola St" type="OFFENSE" description="*********************************************** &lt;br/&gt;3301, Arson&lt;br/&gt;"/><marker lat="40.405951653089652" lng="-79.991776063599573" zone="Zone 3" incidentdate="2014-10-28" incidenttime="14:55:00" incidentnumber="14214978" address="1000 block Brownsville Rd" type="OFFENSE" description="*********************************************** &lt;br/&gt;13(a)(31), Marijuana: Possession Small Amount&lt;br/&gt;13(a)(16), Possession of Controlled Substance&lt;br/&gt;13(a)(32), Paraphernalia - Use or Possession&lt;br/&gt;3323, Stop Signs and Yield Signs.&lt;br/&gt;"/><marker lat="40.438747773847069" lng="-79.946352974864524" zone="Zone 4" incidentdate="2014-10-28" incidenttime="02:40:00" incidentnumber="14214690" address="Panther Hollow Rd &amp; Schenley Dr" type="OFFENSE" description="*********************************************** &lt;br/&gt;9999, 9999 - (Misc. Incident):&lt;br/&gt;"/><marker lat="40.465775324572782" lng="-80.010108243974955" zone="Zone 1" incidentdate="2014-10-28" incidenttime="19:15:00" incidentnumber="14215144" address="200 block Seabright St" type="OFFENSE" description="*********************************************** &lt;br/&gt;029, Missing Juvenile&lt;br/&gt;"/><marker lat="40.464457651272944" lng="-80.00835848066825" zone="Zone 1" incidentdate="2014-10-28" incidenttime="00:50:00" incidentnumber="14214646" address="100 block Mc Naugher St" type="OFFENSE" description="*********************************************** &lt;br/&gt;9490, Missing Persons (18 and Over)&lt;br/&gt;"/><marker lat="40.438386586802537" lng="-79.981365455308961" zone="Zone 2" incidentdate="2014-10-28" incidenttime="17:35:00" incidentnumber="14215076" address="Miltenberger St &amp; 5th Ave" type="OFFENSE" description="*********************************************** &lt;br/&gt;6106, Firearms not to be Carried without a License.&lt;br/&gt;1371, Operation Following Suspension of Registration.&lt;br/&gt;"/><marker lat="40.454207988839954" lng="-79.997316632977075" zone="Zone 1" incidentdate="2014-10-28" incidenttime="16:30:00" incidentnumber="14214968" address="200 block East Ohio St" type="OFFENSE" description="*********************************************** &lt;br/&gt;13(a)(16), Possession of Controlled Substance&lt;br/&gt;13(a)(32), Paraphernalia - Use or Possession&lt;br/&gt;13(a)(30), Possession w/ Intent to Del. Controlled Substance&lt;br/&gt;"/><marker lat="40.466760003040491" lng="-79.925205131844692" zone="Zone 5" incidentdate="2014-10-28" incidenttime="11:50:00" incidentnumber="14214893" address="500 block N Euclid Ave" type="OFFENSE" description="*********************************************** &lt;br/&gt;3304(a)(4), CRIMINAL MISCHIEF- Intentionally Damage Property (By Graffiti, Aerosol Spray Paint, Broad Tip Marker, or Similar)&lt;br/&gt;Tip, Marker, or Similar)&lt;br/&gt;"/><marker lat="40.466747635740383" lng="-79.958456744145465" zone="Zone 2" incidentdate="2014-10-28" incidenttime="06:00:00" incidentnumber="14214771" address="300 block Fisk St" type="OFFENSE" description="*********************************************** &lt;br/&gt;3934, Theft from Vehicle&lt;br/&gt;"/><marker lat="40.467088856684526" lng="-79.926169592858798" zone="Zone 5" incidentdate="2014-10-28" incidenttime="11:40:00" incidentnumber="14214890" address="500 block N St Clair St" type="OFFENSE" description="*********************************************** &lt;br/&gt;3304(a)(4), CRIMINAL MISCHIEF- Intentionally Damage Property (By Graffiti, Aerosol Spray Paint, Broad Tip Marker, or Similar)&lt;br/&gt;Tip, Marker, or Similar)&lt;br/&gt;"/><marker lat="40.421531877189601" lng="-79.993577564166102" zone="Zone 3" incidentdate="2014-10-28" incidenttime="16:00:00" incidentnumber="14215007" address="800 block E Warrington Ave" type="OFFENSE" description="*********************************************** &lt;br/&gt;9124, Drug Investigation&lt;br/&gt;"/><marker lat="40.456369305783525" lng="-80.053424121419937" zone="Zone 6" incidentdate="2014-10-28" incidenttime="07:50:00" incidentnumber="14214784" address="3000 block Zephyr Ave" type="OFFENSE" description="*********************************************** &lt;br/&gt;3921, Theft by Unlawful Taking or Disposition.&lt;br/&gt;"/><marker lat="40.472808664777112" lng="-79.925628710706434" zone="Zone 5" incidentdate="2014-10-28" incidenttime="01:35:00" incidentnumber="14214666" address="900 block N Negley Ave" type="OFFENSE" description="*********************************************** &lt;br/&gt;029, Missing Juvenile&lt;br/&gt;"/><marker lat="40.411350244984888" lng="-79.989916706662314" zone="Zone 3" incidentdate="2014-10-28" incidenttime="07:15:00" incidentnumber="14202646" address="100 block Moore Ave" type="ARREST" description="*********************************************** &lt;br/&gt;2702, Aggravated Assault.&lt;br/&gt;3701, Robbery.&lt;br/&gt;3502, Burglary.&lt;br/&gt;903, Criminal Conspiracy.&lt;br/&gt;901, Criminal Attempt&lt;br/&gt;"/><marker lat="40.438386586802537" lng="-79.981365455308961" zone="Zone 2" incidentdate="2014-10-28" incidenttime="17:45:00" incidentnumber="14215076" address="Miltenberger St &amp; 5th Ave" type="ARREST" description="*********************************************** &lt;br/&gt;6106, Firearms not to be Carried without a License.&lt;br/&gt;1371, Operation Following Suspension of Registration.&lt;br/&gt;"/><marker lat="40.478038107418683" lng="-80.001803139555449" zone="Zone 1" incidentdate="2014-10-28" incidenttime="16:19:00" incidentnumber="14140133" address="1300 block Chicago St" type="ARREST" description="*********************************************** &lt;br/&gt;3921, Theft by Unlawful Taking or Disposition.&lt;br/&gt;"/><marker lat="40.458249413764392" lng="-80.06728613604642" zone="Zone 6" incidentdate="2014-10-28" incidenttime="21:16:00" incidentnumber="14196391" address="1100 block Oetting St" type="ARREST" description="*********************************************** &lt;br/&gt;3921, Theft by Unlawful Taking or Disposition.&lt;br/&gt;"/><marker lat="40.439534165811146" lng="-79.99836772444668" zone="Zone 2" incidentdate="2014-10-28" incidenttime="18:54:00" incidentnumber="14215116" address="400 block 5th Ave" type="ARREST" description="*********************************************** &lt;br/&gt;3929, Retail Theft.&lt;br/&gt;"/><marker lat="40.45178311839301" lng="-79.912632470272939" zone="Zone 1" incidentdate="2014-10-28" incidenttime="13:15:00" incidentnumber="14169628" address="1500 block Cooper Ave" type="ARREST" description="*********************************************** &lt;br/&gt;3502, Burglary.&lt;br/&gt;"/><marker lat="40.451209746298005" lng="-80.021965140261187" zone="Zone 1" incidentdate="2014-10-28" incidenttime="19:40:00" incidentnumber="14198995" address="1200 block Western Ave" type="ARREST" description="*********************************************** &lt;br/&gt;6106, Firearms not to be Carried without a License.&lt;br/&gt;2501, Criminal Homicide.&lt;br/&gt;"/><marker lat="40.475743982324708" lng="-79.999473074803177" zone="Zone 1" incidentdate="2014-10-28" incidenttime="13:19:00" incidentnumber="14179814" address="800 block Mt Pleasant Rd" type="ARREST" description="*********************************************** &lt;br/&gt;2701(a)(1), Simple Assault - Intent., Know., Reckless.Cause Bod. Injury&lt;br/&gt;"/><marker lat="40.426655631127865" lng="-80.02301213458307" zone="Zone 3" incidentdate="2014-10-28" incidenttime="11:00:00" incidentnumber="14214858" address="900 block Saw Mill Run Blvd" type="ARREST" description="*********************************************** &lt;br/&gt;13(a)(16), Possession of Controlled Substance&lt;br/&gt;13(a)(30), Possession w/ Intent to Del. Controlled Substance&lt;br/&gt;903, Criminal Conspiracy.&lt;br/&gt;13(a)(32), Paraphernalia - Use or Possession&lt;br/&gt;6110.2, Possesion of Firearm with Altered Mfg. Number&lt;br/&gt;6106, Firearms not to be Carried without a License.&lt;br/&gt;"/><marker lat="40.457627539844381" lng="-79.931466548365393" zone="Zone 4" incidentdate="2014-10-28" incidenttime="08:15:00" incidentnumber="14214768" address="5800 block Centre Ave" type="ARREST" description="*********************************************** &lt;br/&gt;3745, Accidents Involving Damage to Unattended Veh.or Prop.&lt;br/&gt;3802(d)(2), DUI - Drug - Impaired Ability&lt;br/&gt;"/><marker lat="40.463809009665269" lng="-79.928294721355059" zone="Zone 5" incidentdate="2014-10-28" incidenttime="16:28:00" incidentnumber="14215037" address="6000 block Broad St" type="ARREST" description="*********************************************** &lt;br/&gt;9501, Bench Warrant&lt;br/&gt;13(a)(16), Possession of Controlled Substance&lt;br/&gt;5104, Resisting Arrest or Other Law Enforcement.&lt;br/&gt;"/><marker lat="40.458489749275515" lng="-79.99483344091658" zone="Zone 1" incidentdate="2014-10-28" incidenttime="11:00:00" incidentnumber="14191461" address="1000 block Salter Way" type="ARREST" description="*********************************************** &lt;br/&gt;3304, Criminal Mischief.&lt;br/&gt;2701, Simple Assault.&lt;br/&gt;3502, Burglary.&lt;br/&gt;"/><marker lat="40.400271924792918" lng="-79.985796712785245" zone="Zone 3" incidentdate="2014-10-28" incidenttime="21:20:00" incidentnumber="14215151" address="200 block E Meyers St" type="ARREST" description="*********************************************** &lt;br/&gt;2701, Simple Assault.&lt;br/&gt;"/><marker lat="40.459811206906437" lng="-79.886886299411756" zone="Zone 5" incidentdate="2014-10-28" incidenttime="11:15:00" incidentnumber="14140328" address="1200 block Mohler St" type="ARREST" description="*********************************************** &lt;br/&gt;9015, Failure To Appear/Arrest on Attachment Order&lt;br/&gt;3502, Burglary.&lt;br/&gt;5105, Hindering Apprehension or Prosecution.&lt;br/&gt;"/><marker lat="40.453369808036676" lng="-79.931830236732253" zone="Zone 4" incidentdate="2014-10-28" incidenttime="21:06:00" incidentnumber="14205926" address="700 block S Negley Ave" type="ARREST" description="*********************************************** &lt;br/&gt;4106, Access Device Fraud&lt;br/&gt;"/><marker lat="40.435117964984315" lng="-79.993138203602911" zone="Zone 2" incidentdate="2014-10-28" incidenttime="09:30:00" incidentnumber="14148513" address="900 block Second Ave" type="ARREST" description="*********************************************** &lt;br/&gt;3701, Robbery.&lt;br/&gt;"/><marker lat="40.454207988839954" lng="-79.997316632977075" zone="Zone 1" incidentdate="2014-10-28" incidenttime="15:50:00" incidentnumber="14215017" address="200 block East Ohio St" type="ARREST" description="*********************************************** &lt;br/&gt;13(a)(31), Marijuana: Possession Small Amount&lt;br/&gt;"/><marker lat="40.479076386446295" lng="-79.999717737366538" zone="Zone 1" incidentdate="2014-10-28" incidenttime="21:05:00" incidentnumber="14215212" address="1400 block Chicago St" type="ARREST" description="*********************************************** &lt;br/&gt;2701, Simple Assault.&lt;br/&gt;"/><marker lat="40.405951653089652" lng="-79.991776063599573" zone="Zone 3" incidentdate="2014-10-28" incidenttime="14:55:00" incidentnumber="14214978" address="1000 block Brownsville Rd" type="ARREST" description="*********************************************** &lt;br/&gt;13(a)(31), Marijuana: Possession Small Amount&lt;br/&gt;13(a)(16), Possession of Controlled Substance&lt;br/&gt;13(a)(32), Paraphernalia - Use or Possession&lt;br/&gt;3323, Stop Signs and Yield Signs.&lt;br/&gt;"/><marker lat="40.478449085861961" lng="-80.038879053780221" zone="Zone 1" incidentdate="2014-10-28" incidenttime="13:15:00" incidentnumber="14120680" address="1600 block Falck Ave" type="ARREST" description="*********************************************** &lt;br/&gt;3502, Burglary.&lt;br/&gt;3921, Theft by Unlawful Taking or Disposition.&lt;br/&gt;3925, Receiving Stolen Property.&lt;br/&gt;"/><marker lat="40.464124490678806" lng="-79.932489199877779" zone="Zone 5" incidentdate="2014-10-28" incidenttime="21:10:00" incidentnumber="14215221" address="Penn Ave &amp; N Fairmount St" type="ARREST" description="*********************************************** &lt;br/&gt;5902(a)(2), Prostitution - Loitering for purpose of&lt;br/&gt;5902(a)(1), Prostitution&lt;br/&gt;"/><marker lat="40.451696564722226" lng="-79.902379623330717" zone="Zone 4" incidentdate="2014-10-28" incidenttime="01:30:00" incidentnumber="14214663" address="Thomas St &amp; N Lang Ave" type="ARREST" description="*********************************************** &lt;br/&gt;13(a)(31)(ii), Marijuana - Possess Small Amt Intent to Distribute&lt;br/&gt;4303, General Lighting Requirements.&lt;br/&gt;13(a)(31), Marijuana: Possession Small Amount&lt;br/&gt;"/><marker lat="40.442802683726654" lng="-80.032470494061599" zone="Zone 6" incidentdate="2014-10-28" incidenttime="18:21:00" incidentnumber="14215096" address="100 block Steuben St" type="ARREST" description="*********************************************** &lt;br/&gt;3503(b)(1)(i), Actual Communication&lt;br/&gt;3802(a)(1), DUI - General Impairment&lt;br/&gt;3802(c), DUI - Highest Rate of Alcohol - BAC &gt;= .16%&lt;br/&gt;5505, Public Drunkenness&lt;br/&gt;"/><marker lat="40.427487722390566" lng="-80.01088241911134" zone="Zone 3" incidentdate="2014-10-28" incidenttime="08:15:00" incidentnumber="14214776" address="Cowan St" type="ARREST" description="*********************************************** &lt;br/&gt;601.16, Public Urination And Defecation&lt;br/&gt;3503(b)(1)(i), Actual Communication&lt;br/&gt;5505, Public Drunkenness&lt;br/&gt;3304, Criminal Mischief.&lt;br/&gt;"/><marker lat="40.453477680947003" lng="-80.000601233520499" zone="Zone 1" incidentdate="2014-10-28" incidenttime="22:00:00" incidentnumber="14215244" address="James St &amp; East Ohio St" type="ARREST" description="*********************************************** &lt;br/&gt;5902(a)(2), Prostitution - Loitering for purpose of&lt;br/&gt;5902(a)(1), Prostitution&lt;br/&gt;"/><marker lat="40.435117964984315" lng="-79.993138203602911" zone="Zone 2" incidentdate="2014-10-28" incidenttime="11:30:00" incidentnumber="14213442" address="900 block 2nd Ave" type="ARREST" description="*********************************************** &lt;br/&gt;2702, Aggravated Assault.&lt;br/&gt;2701, Simple Assault.&lt;br/&gt;"/></markers>
