<?xml version="1.0"?>
<markers><marker lat="40.458532837073371" lng="-79.925434742971191" zone="Zone 4" incidentdate="2016-08-30" incidenttime="03:40:00" incidentnumber="16162957" address="200 block S Highland Ave" type="OFFENSE" age="" gender="" description="*********************************************** &lt;br/&gt;5505, Public Drunkenness&lt;br/&gt;"/><marker lat="40.447502334719239" lng="-80.051783949854453" zone="Zone 6" incidentdate="2016-08-30" incidenttime="15:30:00" incidentnumber="16163307" address="1600 block Crucible St" type="OFFENSE" age="" gender="" description="*********************************************** &lt;br/&gt;2709(a)(1), Harassment by Physical Contact, or Attempts or Threats&lt;br/&gt;"/><marker lat="40.437443305066139" lng="-80.002679590390301" zone="Zone 2" incidentdate="2016-08-30" incidenttime="15:35:00" incidentnumber="16163290" address="Wood St" type="OFFENSE" age="" gender="" description="*********************************************** &lt;br/&gt;9496, Dead on Arrival (DOA)&lt;br/&gt;"/><marker lat="40.460594319900963" lng="-79.922716789802806" zone="Zone 5" incidentdate="2016-08-30" incidenttime="04:17:00" incidentnumber="16163318" address="6200 block Penn Ave" type="OFFENSE" age="" gender="" description="*********************************************** &lt;br/&gt;3929, Retail Theft.&lt;br/&gt;903, Criminal Conspiracy.&lt;br/&gt;"/><marker lat="40.464523151695651" lng="-79.943248841164618" zone="Zone 5" incidentdate="2016-08-30" incidenttime="08:00:00" incidentnumber="16163031" address="200 block S Winebiddle St" type="OFFENSE" age="" gender="" description="*********************************************** &lt;br/&gt;3934, Theft from Vehicle&lt;br/&gt;"/><marker lat="40.4154107" lng="-79.9248085" zone="Zone 4" incidentdate="2016-08-30" incidenttime="13:45:00" incidentnumber="16163407" address="4600 block Browns Hill Rd" type="OFFENSE" age="" gender="" description="*********************************************** &lt;br/&gt;3921, Theft by Unlawful Taking or Disposition.&lt;br/&gt;"/><marker lat="40.450892721440539" lng="-80.000843891836467" zone="Zone 1" incidentdate="2016-08-30" incidenttime="01:50:00" incidentnumber="16162909" address="300 block Cedar Ave" type="OFFENSE" age="" gender="" description="*********************************************** &lt;br/&gt;9497, Aided Case&lt;br/&gt;"/><marker lat="40.440199981729371" lng="-80.034360073975066" zone="Zone 6" incidentdate="2016-08-30" incidenttime="20:20:00" incidentnumber="16163505" address="Wabash St &amp; Neptune St" type="OFFENSE" age="" gender="" description="*********************************************** &lt;br/&gt;029, Missing Juvenile&lt;br/&gt;"/><marker lat="40.3866792" lng="-79.9326340" zone="Zone 2" incidentdate="2016-08-30" incidenttime="16:30:00" incidentnumber="16163367" address="Crosstown Blvd &amp; Crosstown Blvd Ramp" type="OFFENSE" age="" gender="" description="*********************************************** &lt;br/&gt;3743, Accidents Involving Damage to Attended Veh. or Property&lt;br/&gt;"/><marker lat="40.452531506878643" lng="-79.900072434745468" zone="Zone 4" incidentdate="2016-08-30" incidenttime="09:30:00" incidentnumber="16163529" address="400 block Jonathan Ct" type="OFFENSE" age="" gender="" description="*********************************************** &lt;br/&gt;3304, Criminal Mischief.&lt;br/&gt;"/><marker lat="40.434174952521026" lng="-80.024881850748201" zone="Zone 3" incidentdate="2016-08-30" incidenttime="14:30:00" incidentnumber="16163273" address="500 block Augusta St" type="OFFENSE" age="" gender="" description="*********************************************** &lt;br/&gt;3745, Accidents Involving Damage to Unattended Veh.or Prop.&lt;br/&gt;"/><marker lat="40.452331348358129" lng="-79.922386154079888" zone="Zone 4" incidentdate="2016-08-30" incidenttime="10:34:00" incidentnumber="16163120" address="6200 block 5th Ave" type="OFFENSE" age="" gender="" description="*********************************************** &lt;br/&gt;3502, Burglary.&lt;br/&gt;3304, Criminal Mischief.&lt;br/&gt;"/><marker lat="40.400310728832935" lng="-80.02796013271103" zone="Zone 6" incidentdate="2016-08-30" incidenttime="07:15:00" incidentnumber="16163010" address="Vodeli St &amp; Mackinaw Ave" type="OFFENSE" age="" gender="" description="*********************************************** &lt;br/&gt;3304, Criminal Mischief.&lt;br/&gt;"/><marker lat="40.441919441965581" lng="-79.982892744621594" zone="Zone 2" incidentdate="2016-08-30" incidenttime="11:00:00" incidentnumber="16163171" address="1800 block Centre Ave" type="OFFENSE" age="" gender="" description="*********************************************** &lt;br/&gt;3745, Accidents Involving Damage to Unattended Veh.or Prop.&lt;br/&gt;"/><marker lat="40.458313629612618" lng="-79.891012641854417" zone="Zone 5" incidentdate="2016-08-30" incidenttime="16:50:00" incidentnumber="16163321" address="7400 block Monticello St" type="OFFENSE" age="" gender="" description="*********************************************** &lt;br/&gt;029, Missing Juvenile&lt;br/&gt;"/><marker lat="40.437971042458713" lng="-79.992051967547354" zone="Zone 2" incidentdate="2016-08-30" incidenttime="13:09:00" incidentnumber="16163190" address="Armstrong Tunl &amp; Forbes Ave" type="OFFENSE" age="" gender="" description="*********************************************** &lt;br/&gt;8104, CLASS 1 - Suspicious Package or Device&lt;br/&gt;"/><marker lat="40.3783319" lng="-79.9898406" zone="Zone 3" incidentdate="2016-08-30" incidenttime="19:00:00" incidentnumber="16163501" address="2800 block Saw Mill Run Blvd" type="OFFENSE" age="" gender="" description="*********************************************** &lt;br/&gt;2709(a)(1), Harassment by Physical Contact, or Attempts or Threats&lt;br/&gt;2706, Terroristic Threats.&lt;br/&gt;"/><marker lat="40.462714632076725" lng="-80.017583867319601" zone="Zone 1" incidentdate="2016-08-30" incidenttime="08:02:00" incidentnumber="16163029" address="800 block Brightridge St" type="OFFENSE" age="" gender="" description="*********************************************** &lt;br/&gt;9999, 9999 - (Misc. Incident):&lt;br/&gt;"/><marker lat="40.447396570152144" lng="-79.959817114312003" zone="Zone 2" incidentdate="2016-08-30" incidenttime="14:50:00" incidentnumber="16163274" address="Allequippa St &amp; Brackenridge St" type="OFFENSE" age="" gender="" description="*********************************************** &lt;br/&gt;3743, Accidents Involving Damage to Attended Veh. or Property&lt;br/&gt;"/><marker lat="40.42812884585404" lng="-79.979451152464478" zone="Zone 3" incidentdate="2016-08-30" incidenttime="19:00:00" incidentnumber="16163455" address="100 block S 19th St" type="OFFENSE" age="" gender="" description="*********************************************** &lt;br/&gt;2709, Harassment (Non-Specific)&lt;br/&gt;"/><marker lat="40.461153906321272" lng="-79.929929046748143" zone="Zone 5" incidentdate="2016-08-30" incidenttime="01:18:00" incidentnumber="16162948" address="200 block S St Clair St" type="OFFENSE" age="" gender="" description="*********************************************** &lt;br/&gt;9497, Aided Case&lt;br/&gt;"/><marker lat="40.461073728595117" lng="-80.013783112327346" zone="Zone 1" incidentdate="2016-08-30" incidenttime="19:20:00" incidentnumber="16163474" address="1900 block Perrysville Ave" type="OFFENSE" age="" gender="" description="*********************************************** &lt;br/&gt;2709, Harassment (Non-Specific)&lt;br/&gt;"/><marker lat="40.457281883886331" lng="-79.909059701531348" zone="Zone 5" incidentdate="2016-08-30" incidenttime="06:45:00" incidentnumber="16162997" address="5th Ave &amp; Hamilton Ave" type="OFFENSE" age="" gender="" description="*********************************************** &lt;br/&gt;3743, Accidents Involving Damage to Attended Veh. or Property&lt;br/&gt;"/><marker lat="40.389206996519064" lng="-80.012654219153106" zone="Zone 6" incidentdate="2016-08-30" incidenttime="12:45:00" incidentnumber="16163285" address="1400 block Creedmoor Ave" type="OFFENSE" age="" gender="" description="*********************************************** &lt;br/&gt;9999, 9999 - (Misc. Incident):&lt;br/&gt;"/><marker lat="40.445077635002647" lng="-79.973713065498615" zone="Zone 2" incidentdate="2016-08-30" incidenttime="12:00:00" incidentnumber="16163341" address="2300 block Centre Ave" type="OFFENSE" age="" gender="" description="*********************************************** &lt;br/&gt;3304, Criminal Mischief.&lt;br/&gt;"/><marker lat="40.412479348061659" lng="-80.014100365159507" zone="Zone 6" incidentdate="2016-08-30" incidenttime="22:42:00" incidentnumber="16163573" address="200 block Sebring Ave" type="OFFENSE" age="" gender="" description="*********************************************** &lt;br/&gt;3921, Theft by Unlawful Taking or Disposition.&lt;br/&gt;"/><marker lat="40.438806689106507" lng="-79.99094410910341" zone="Zone 2" incidentdate="2016-08-30" incidenttime="17:30:00" incidentnumber="16163397" address="5th Ave &amp; Chatham Sq" type="OFFENSE" age="" gender="" description="*********************************************** &lt;br/&gt;3743, Accidents Involving Damage to Attended Veh. or Property&lt;br/&gt;"/><marker lat="40.444302289086558" lng="-79.95319333876148" zone="Zone 4" incidentdate="2016-08-30" incidenttime="09:20:00" incidentnumber="16163212" address="4200 block 5th Ave" type="OFFENSE" age="" gender="" description="*********************************************** &lt;br/&gt;9504, Lost Property&lt;br/&gt;"/><marker lat="40.461399382564281" lng="-79.993787299891707" zone="Zone 1" incidentdate="2016-08-30" incidenttime="18:01:00" incidentnumber="16163406" address="1100 block Itin St" type="OFFENSE" age="" gender="" description="*********************************************** &lt;br/&gt;13(a)(16), Possession of Controlled Substance&lt;br/&gt;13(a)(32), Paraphernalia - Use or Possession&lt;br/&gt;"/><marker lat="40.434998960338326" lng="-79.988292240712028" zone="Zone 2" incidentdate="2016-08-30" incidenttime="00:01:00" incidentnumber="16163296" address="1100 block Bluff St" type="OFFENSE" age="" gender="" description="*********************************************** &lt;br/&gt;2709(a)(5), Harassment Communicates Repeatedly in Anonymous Manner&lt;br/&gt;"/><marker lat="40.426340817055319" lng="-79.988710303817541" zone="Zone 3" incidentdate="2016-08-30" incidenttime="10:00:00" incidentnumber="16163096" address="S 10th St" type="OFFENSE" age="" gender="" description="*********************************************** &lt;br/&gt;9489, Found Property&lt;br/&gt;"/><marker lat="40.451945421387748" lng="-79.952009729366381" zone="Zone 4" incidentdate="2016-08-30" incidenttime="09:23:00" incidentnumber="16163079" address="4600 block Centre Ave" type="OFFENSE" age="" gender="" description="*********************************************** &lt;br/&gt;3701, Robbery.&lt;br/&gt;"/><marker lat="40.435349879075773" lng="-79.961349739888362" zone="Zone 4" incidentdate="2016-08-30" incidenttime="08:00:00" incidentnumber="16163075" address="300 block Craft Ave" type="OFFENSE" age="" gender="" description="*********************************************** &lt;br/&gt;3921, Theft by Unlawful Taking or Disposition.&lt;br/&gt;"/><marker lat="40.441327020399804" lng="-79.980484441045974" zone="Zone 2" incidentdate="2016-08-30" incidenttime="03:49:00" incidentnumber="16162954" address="300 block Dinwiddie St" type="OFFENSE" age="" gender="" description="*********************************************** &lt;br/&gt;5505, Public Drunkenness&lt;br/&gt;3503.B1I, DEF. TRESPASS ACTUAL COMMUNICATION&lt;br/&gt;5503(a)(3), DISORDERLY CONDUCT - OBSCENE LANG/GEST&lt;br/&gt;2706, Terroristic Threats.&lt;br/&gt;5506, Loitering and Prowling at Night&lt;br/&gt;"/><marker lat="40.450530875214881" lng="-80.024156751122646" zone="Zone 1" incidentdate="2016-08-30" incidenttime="19:20:00" incidentnumber="16163469" address="West End Brg &amp; Western Ave" type="OFFENSE" age="" gender="" description="*********************************************** &lt;br/&gt;5507, Obstructing Highways and Passages.&lt;br/&gt;"/><marker lat="40.456549809141613" lng="-79.901784722397153" zone="Zone 5" incidentdate="2016-08-30" incidenttime="08:00:00" incidentnumber="16163242" address="7000 block Kelly St" type="OFFENSE" age="" gender="" description="*********************************************** &lt;br/&gt;3304, Criminal Mischief.&lt;br/&gt;2709(a)(1), Harassment by Physical Contact, or Attempts or Threats&lt;br/&gt;"/><marker lat="40.443124638792263" lng="-80.039723473600304" zone="Zone 6" incidentdate="2016-08-30" incidenttime="18:26:00" incidentnumber="16163459" address="Marlow St &amp; Chartiers Ave" type="OFFENSE" age="" gender="" description="*********************************************** &lt;br/&gt;13(a)(16), Possession of Controlled Substance&lt;br/&gt;3334, Turning Movements and Required Signals.&lt;br/&gt;"/><marker lat="40.45614291324403" lng="-80.015399745388805" zone="Zone 1" incidentdate="2016-08-30" incidenttime="17:20:00" incidentnumber="16163376" address="800 block pennsylvania Ave" type="OFFENSE" age="" gender="" description="*********************************************** &lt;br/&gt;9489, Found Property&lt;br/&gt;"/><marker lat="40.420801910327498" lng="-79.993642707505515" zone="Zone 3" incidentdate="2016-08-30" incidenttime="23:05:00" incidentnumber="16163606" address="200 block Allen St" type="OFFENSE" age="" gender="" description="*********************************************** &lt;br/&gt;9501, Bench Warrant&lt;br/&gt;"/><marker lat="40.461153906321272" lng="-79.929929046748143" zone="Zone 5" incidentdate="2016-08-30" incidenttime="01:50:00" incidentnumber="16162900" address="200 block S St Clair St" type="OFFENSE" age="" gender="" description="*********************************************** &lt;br/&gt;2701, Simple Assault.&lt;br/&gt;"/><marker lat="40.4521880" lng="-80.0076476" zone="Zone 1" incidentdate="2016-08-30" incidenttime="15:57:00" incidentnumber="16163315" address="West Commons &amp; Ridge Ave" type="OFFENSE" age="" gender="" description="*********************************************** &lt;br/&gt;9501, Bench Warrant&lt;br/&gt;"/><marker lat="40.452133962369352" lng="-80.052647900604114" zone="Zone 6" incidentdate="2016-08-30" incidenttime="14:29:00" incidentnumber="16163265" address="Chartiers Ave &amp; Municipal St" type="OFFENSE" age="" gender="" description="*********************************************** &lt;br/&gt;13(a)(16), Possession of Controlled Substance&lt;br/&gt;3111, Obedience to Traffic-Control Devices.&lt;br/&gt;"/><marker lat="40.473412534288045" lng="-80.031507279213102" zone="Zone 1" incidentdate="2016-08-30" incidenttime="08:00:00" incidentnumber="16163043" address="1300 block Complete St" type="OFFENSE" age="" gender="" description="*********************************************** &lt;br/&gt;3745, Accidents Involving Damage to Unattended Veh.or Prop.&lt;br/&gt;"/><marker lat="40.463109617839962" lng="-79.959411680542019" zone="Zone 2" incidentdate="2016-08-30" incidenttime="13:20:00" incidentnumber="16163479" address="3900 block Howley St" type="OFFENSE" age="" gender="" description="*********************************************** &lt;br/&gt;3745, Accidents Involving Damage to Unattended Veh.or Prop.&lt;br/&gt;"/><marker lat="40.467876401574117" lng="-79.907231654400434" zone="Zone 5" incidentdate="2016-08-30" incidenttime="18:00:00" incidentnumber="16163414" address="100 block Larimer Ave" type="OFFENSE" age="" gender="" description="*********************************************** &lt;br/&gt;3701, Robbery.&lt;br/&gt;903, Criminal Conspiracy.&lt;br/&gt;2901, Kidnapping.&lt;br/&gt;"/><marker lat="40.456885755361007" lng="-80.054867253123305" zone="Zone 6" incidentdate="2016-08-30" incidenttime="16:00:00" incidentnumber="16163391" address="3100 block Bergman St" type="OFFENSE" age="" gender="" description="*********************************************** &lt;br/&gt;2709, Harassment (Non-Specific)&lt;br/&gt;"/><marker lat="40.402282268775629" lng="-80.031032382874159" zone="Zone 6" incidentdate="2016-08-30" incidenttime="17:55:00" incidentnumber="16163453" address="2300 block Fremont Pl" type="OFFENSE" age="" gender="" description="*********************************************** &lt;br/&gt;3304, Criminal Mischief.&lt;br/&gt;3934, Theft from Vehicle&lt;br/&gt;"/><marker lat="40.482879021356389" lng="-80.04453300763744" zone="Zone 1" incidentdate="2016-08-30" incidenttime="03:39:00" incidentnumber="16162956" address="2000 block Termon Ave" type="OFFENSE" age="" gender="" description="*********************************************** &lt;br/&gt;029, Missing Juvenile&lt;br/&gt;"/><marker lat="40.453539170738004" lng="-80.000575279128412" zone="Zone 1" incidentdate="2016-08-30" incidenttime="16:43:00" incidentnumber="16163352" address="500 block east ohio St" type="OFFENSE" age="" gender="" description="*********************************************** &lt;br/&gt;9999, 9999 - (Misc. Incident):&lt;br/&gt;"/><marker lat="40.447070656722659" lng="-79.895151948393476" zone="Zone 4" incidentdate="2016-08-30" incidenttime="08:55:00" incidentnumber="16163070" address="7600 block Penn Ave" type="OFFENSE" age="" gender="" description="*********************************************** &lt;br/&gt;3929, Retail Theft.&lt;br/&gt;"/><marker lat="40.453969822993002" lng="-79.998974758094874" zone="Zone 1" incidentdate="2016-08-30" incidenttime="07:58:00" incidentnumber="16163026" address="600 block East Ohio St" type="OFFENSE" age="" gender="" description="*********************************************** &lt;br/&gt;9488, False  Burglar Alarm&lt;br/&gt;"/><marker lat="40.437850264562179" lng="-80.004567110517371" zone="Zone 2" incidentdate="2016-08-30" incidenttime="10:30:00" incidentnumber="16163185" address="Market St" type="OFFENSE" age="" gender="" description="*********************************************** &lt;br/&gt;9999, 9999 - (Misc. Incident):&lt;br/&gt;"/><marker lat="40.448121549996621" lng="-79.978097750741512" zone="Zone 2" incidentdate="2016-08-30" incidenttime="01:10:00" incidentnumber="16162898" address="2200 block Bedford Ave" type="OFFENSE" age="" gender="" description="*********************************************** &lt;br/&gt;9093, Indirect Criminal Contempt&lt;br/&gt;"/><marker lat="40.476305647188596" lng="-80.02886698543891" zone="Zone 1" incidentdate="2016-08-30" incidenttime="19:30:00" incidentnumber="16163494" address="Mitchell St" type="OFFENSE" age="" gender="" description="*********************************************** &lt;br/&gt;3921, Theft by Unlawful Taking or Disposition.&lt;br/&gt;"/><marker lat="40.428027717038823" lng="-80.066420128286993" zone="Zone 6" incidentdate="2016-08-30" incidenttime="13:30:00" incidentnumber="16163227" address="Oakwood Rd" type="OFFENSE" age="" gender="" description="*********************************************** &lt;br/&gt;3502, Burglary.&lt;br/&gt;"/><marker lat="40.441584204076754" lng="-79.978917134398742" zone="Zone 2" incidentdate="2016-08-30" incidenttime="05:00:00" incidentnumber="16163427" address="2000 block Reed St" type="OFFENSE" age="" gender="" description="*********************************************** &lt;br/&gt;3304, Criminal Mischief.&lt;br/&gt;"/><marker lat="40.418137684912793" lng="-79.98821980610019" zone="Zone 3" incidentdate="2016-08-30" incidenttime="18:00:00" incidentnumber="16163405" address="E Amanda Ave &amp; Orchard Pl" type="OFFENSE" age="" gender="" description="*********************************************** &lt;br/&gt;13(a)(31), Marijuana: Possession Small Amount&lt;br/&gt;"/><marker lat="40.48033948473261" lng="-79.93470094037329" zone="Zone 5" incidentdate="2016-08-30" incidenttime="20:39:00" incidentnumber="16163492" address="4800 block Stanton Ave" type="OFFENSE" age="" gender="" description="*********************************************** &lt;br/&gt;3921(a), Theft by Unlawful Taking or Disposition - Movable item&lt;br/&gt;"/><marker lat="40.471304508754208" lng="-79.930344301288414" zone="Zone 5" incidentdate="2016-08-30" incidenttime="02:30:00" incidentnumber="16162938" address="700 block Chislett St" type="OFFENSE" age="" gender="" description="*********************************************** &lt;br/&gt;3502, Burglary.&lt;br/&gt;"/><marker lat="40.458124412082178" lng="-79.893503500341438" zone="Zone 5" incidentdate="2016-08-30" incidenttime="18:20:00" incidentnumber="16163401" address="7300 block Race St" type="OFFENSE" age="" gender="" description="*********************************************** &lt;br/&gt;9497, Aided Case&lt;br/&gt;"/><marker lat="40.454080431958992" lng="-80.001938757944643" zone="Zone 1" incidentdate="2016-08-30" incidenttime="00:25:00" incidentnumber="16162883" address="Cedar Ave &amp; Foreland St" type="OFFENSE" age="" gender="" description="*********************************************** &lt;br/&gt;13(a)(31), Marijuana: Possession Small Amount&lt;br/&gt;13(a)(32), Paraphernalia - Use or Possession&lt;br/&gt;3334, Turning Movements and Required Signals.&lt;br/&gt;3802(d)(2), DUI - Drug - Impaired Ability&lt;br/&gt;"/><marker lat="40.451517737096538" lng="-80.018897190699079" zone="Zone 1" incidentdate="2016-08-30" incidenttime="15:30:00" incidentnumber="16163408" address="Western Ave &amp; Allegheny Ave" type="OFFENSE" age="" gender="" description="*********************************************** &lt;br/&gt;3743, Accidents Involving Damage to Attended Veh. or Property&lt;br/&gt;"/><marker lat="40.464910803610429" lng="-79.968731516884219" zone="Zone 2" incidentdate="2016-08-30" incidenttime="10:30:00" incidentnumber="16163121" address="100 block 35th St" type="OFFENSE" age="" gender="" description="*********************************************** &lt;br/&gt;3745, Accidents Involving Damage to Unattended Veh.or Prop.&lt;br/&gt;"/><marker lat="40.467375034401172" lng="-79.957944364123122" zone="Zone 6" incidentdate="2016-08-30" incidenttime="17:00:00" incidentnumber="16163458" address="300 block S Main St" type="OFFENSE" age="" gender="" description="*********************************************** &lt;br/&gt;901, Criminal Attempt&lt;br/&gt;"/><marker lat="40.452931212106165" lng="-79.901362272561926" zone="Zone 4" incidentdate="2016-08-30" incidenttime="01:55:00" incidentnumber="16162913" address="N Lang Ave &amp; Jonathan St" type="OFFENSE" age="" gender="" description="*********************************************** &lt;br/&gt;13(a)(32), Paraphernalia - Use or Possession&lt;br/&gt;"/><marker lat="40.461263755824248" lng="-79.946362797859464" zone="Zone 5" incidentdate="2016-08-30" incidenttime="10:15:00" incidentnumber="16163149" address="4800 block Friendship Ave" type="OFFENSE" age="" gender="" description="*********************************************** &lt;br/&gt;3745, Accidents Involving Damage to Unattended Veh.or Prop.&lt;br/&gt;"/><marker lat="40.460623402161843" lng="-79.932766652756285" zone="Zone 5" incidentdate="2016-08-30" incidenttime="02:04:00" incidentnumber="16162915" address="300 block S Negley Ave" type="OFFENSE" age="" gender="" description="*********************************************** &lt;br/&gt;3802(a)(1), DUI - General Impairment&lt;br/&gt;"/><marker lat="40.475991792684219" lng="-79.998237934488159" zone="Zone 1" incidentdate="2016-08-30" incidenttime="19:55:00" incidentnumber="16163569" address="700 block Mt Pleasant Rd" type="OFFENSE" age="" gender="" description="*********************************************** &lt;br/&gt;2709(a)(1), Harassment by Physical Contact, or Attempts or Threats&lt;br/&gt;"/><marker lat="40.437985502986635" lng="-80.056949470511995" zone="Zone 6" incidentdate="2016-08-30" incidenttime="16:49:00" incidentnumber="16163348" address="1500 block Cumberland St" type="OFFENSE" age="" gender="" description="*********************************************** &lt;br/&gt;2702, Aggravated Assault.&lt;br/&gt;3701, Robbery.&lt;br/&gt;"/><marker lat="40.473386569383784" lng="-79.916428974909394" zone="Zone 5" incidentdate="2016-08-30" incidenttime="07:30:00" incidentnumber="16163014" address="1100 block Sheridan Ave" type="OFFENSE" age="" gender="" description="*********************************************** &lt;br/&gt;3921, Theft by Unlawful Taking or Disposition.&lt;br/&gt;"/><marker lat="40.430020824945359" lng="-79.976813326700821" zone="Zone 3" incidentdate="2016-08-30" incidenttime="12:30:00" incidentnumber="16163197" address="2000 block Wharton St" type="OFFENSE" age="" gender="" description="*********************************************** &lt;br/&gt;3929(a)(1), Retail Theft; takes possession of, carries away, or transfers displayed merchandise&lt;br/&gt;"/><marker lat="40.42836267901361" lng="-79.973607738371669" zone="Zone 2" incidentdate="2016-08-30" incidenttime="16:40:00" incidentnumber="16163366" address="Birmingham Brg &amp; E Carson St" type="OFFENSE" age="" gender="" description="*********************************************** &lt;br/&gt;9999, 9999 - (Misc. Incident):&lt;br/&gt;"/><marker lat="40.442888113190847" lng="-79.997936520552642" zone="Zone 2" incidentdate="2016-08-30" incidenttime="04:00:00" incidentnumber="16157959" address="900 block Liberty Ave" type="ARREST" age="26" gender="M" description="*********************************************** &lt;br/&gt;2701(a)(1), Simple Assault - Intent., Know., Reckless.Cause Bod. Injury&lt;br/&gt;"/><marker lat="40.462918358928398" lng="-79.951864182678776" zone="Zone 5" incidentdate="2016-08-30" incidenttime="09:16:00" incidentnumber="16153347" address="4500 block Liberty Ave" type="ARREST" age="22" gender="M" description="*********************************************** &lt;br/&gt;3921(a), Theft by Unlawful Taking or Disposition - Movable item&lt;br/&gt;3701, Robbery.&lt;br/&gt;4906, False Reports to Law Enforcement Authorities.&lt;br/&gt;"/><marker lat="40.461399382564281" lng="-79.993787299891707" zone="Zone 1" incidentdate="2016-08-30" incidenttime="18:11:00" incidentnumber="16163406" address="1100 block Itin St" type="ARREST" age="24" gender="M" description="*********************************************** &lt;br/&gt;13(a)(16), Possession of Controlled Substance&lt;br/&gt;13(a)(32), Paraphernalia - Use or Possession&lt;br/&gt;"/><marker lat="40.452931212106165" lng="-79.901362272561926" zone="Zone 4" incidentdate="2016-08-30" incidenttime="02:00:00" incidentnumber="16162913" address="N Lang Ave &amp; Jonathan St" type="ARREST" age="45" gender="F" description="*********************************************** &lt;br/&gt;13(a)(32), Paraphernalia - Use or Possession&lt;br/&gt;"/><marker lat="40.483246555096763" lng="-80.035194746264679" zone="Zone 1" incidentdate="2016-08-30" incidenttime="21:00:00" incidentnumber="16161285" address="3700 block Brighton Rd" type="ARREST" age="35" gender="M" description="*********************************************** &lt;br/&gt;3701, Robbery.&lt;br/&gt;"/><marker lat="40.454080431958992" lng="-80.001938757944643" zone="Zone 1" incidentdate="2016-08-30" incidenttime="00:25:00" incidentnumber="16162883" address="Cedar Ave &amp; Foreland St" type="ARREST" age="26" gender="M" description="*********************************************** &lt;br/&gt;13(a)(31), Marijuana: Possession Small Amount&lt;br/&gt;13(a)(32), Paraphernalia - Use or Possession&lt;br/&gt;3334, Turning Movements and Required Signals.&lt;br/&gt;3802(d)(2), DUI - Drug - Impaired Ability&lt;br/&gt;"/><marker lat="40.452133962369352" lng="-80.052647900604114" zone="Zone 6" incidentdate="2016-08-30" incidenttime="14:29:00" incidentnumber="16163265" address="Chartiers Ave &amp; Municipal St" type="ARREST" age="42" gender="F" description="*********************************************** &lt;br/&gt;13(a)(16), Possession of Controlled Substance&lt;br/&gt;3111, Obedience to Traffic-Control Devices.&lt;br/&gt;"/><marker lat="40.441327020399804" lng="-79.980484441045974" zone="Zone 2" incidentdate="2016-08-30" incidenttime="03:49:00" incidentnumber="16162954" address="300 block Dinwiddie St" type="ARREST" age="60" gender="M" description="*********************************************** &lt;br/&gt;5505, Public Drunkenness&lt;br/&gt;3503.B1I, DEF. TRESPASS ACTUAL COMMUNICATION&lt;br/&gt;5503(a)(3), DISORDERLY CONDUCT - OBSCENE LANG/GEST&lt;br/&gt;2706, Terroristic Threats.&lt;br/&gt;5506, Loitering and Prowling at Night&lt;br/&gt;"/><marker lat="40.45602292684412" lng="-79.887898557413209" zone="Zone 5" incidentdate="2016-08-30" incidenttime="19:30:00" incidentnumber="16162823" address="Forest Way &amp; Brushton Ave" type="ARREST" age="25" gender="F" description="*********************************************** &lt;br/&gt;2705, Recklessly Endangering Another Person.&lt;br/&gt;4581, Restraint Systems.&lt;br/&gt;1543, Driving While Operating Privilege is Suspended or Revoked.&lt;br/&gt;3714, Careless Driving&lt;br/&gt;4906, False Reports to Law Enforcement Authorities.&lt;br/&gt;"/><marker lat="40.460594319900963" lng="-79.922716789802806" zone="Zone 5" incidentdate="2016-08-30" incidenttime="16:50:00" incidentnumber="16163318" address="6200 block Penn Ave" type="ARREST" age="22" gender="F" description="*********************************************** &lt;br/&gt;3929, Retail Theft.&lt;br/&gt;903, Criminal Conspiracy.&lt;br/&gt;"/><marker lat="40.460594319900963" lng="-79.922716789802806" zone="Zone 5" incidentdate="2016-08-30" incidenttime="16:50:00" incidentnumber="16163318" address="6200 block Penn Ave" type="ARREST" age="27" gender="M" description="*********************************************** &lt;br/&gt;3929, Retail Theft.&lt;br/&gt;903, Criminal Conspiracy.&lt;br/&gt;"/><marker lat="40.443124638792263" lng="-80.039723473600304" zone="Zone 6" incidentdate="2016-08-30" incidenttime="18:45:00" incidentnumber="16163459" address="Marlow St &amp; Chartiers Ave" type="ARREST" age="23" gender="F" description="*********************************************** &lt;br/&gt;13(a)(16), Possession of Controlled Substance&lt;br/&gt;3334, Turning Movements and Required Signals.&lt;br/&gt;"/><marker lat="40.48033948473261" lng="-79.93470094037329" zone="Zone 5" incidentdate="2016-08-30" incidenttime="20:39:00" incidentnumber="16163492" address="4800 block Stanton Ave" type="ARREST" age="28" gender="M" description="*********************************************** &lt;br/&gt;3921(a), Theft by Unlawful Taking or Disposition - Movable item&lt;br/&gt;"/><marker lat="40.434696587775576" lng="-79.996300985228572" zone="Zone 2" incidentdate="2016-08-30" incidenttime="13:27:00" incidentnumber="16154582" address="600 block 1st Ave" type="ARREST" age="19" gender="F" description="*********************************************** &lt;br/&gt;9093, Indirect Criminal Contempt&lt;br/&gt;2706, Terroristic Threats.&lt;br/&gt;"/><marker lat="40.415121074302149" lng="-79.988083685854207" zone="Zone 3" incidentdate="2016-08-30" incidenttime="07:30:00" incidentnumber="16141743" address="100 block Rochelle St" type="ARREST" age="28" gender="F" description="*********************************************** &lt;br/&gt;2701(a)(1), Simple Assault - Intent., Know., Reckless.Cause Bod. Injury&lt;br/&gt;"/><marker lat="40.475991792684219" lng="-79.998237934488159" zone="Zone 1" incidentdate="2016-08-30" incidenttime="09:18:00" incidentnumber="16144365" address="700 block Mt Pleasant Rd" type="ARREST" age="22" gender="F" description="*********************************************** &lt;br/&gt;3502, Burglary.&lt;br/&gt;2705, Recklessly Endangering Another Person.&lt;br/&gt;2701(a)(3), Simple Assault - Attempts by Physical Menace&lt;br/&gt;"/><marker lat="40.452133962369352" lng="-80.052647900604114" zone="Zone 6" incidentdate="2016-08-30" incidenttime="14:29:00" incidentnumber="16163265" address="Chartiers Ave &amp; Municipal St" type="ARREST" age="43" gender="M" description="*********************************************** &lt;br/&gt;13(a)(16), Possession of Controlled Substance&lt;br/&gt;3111, Obedience to Traffic-Control Devices.&lt;br/&gt;"/><marker lat="40.442092052039932" lng="-79.999423512399062" zone="Zone 2" incidentdate="2016-08-30" incidenttime="11:00:00" incidentnumber="16141919" address="600 block Wood St" type="ARREST" age="38" gender="M" description="*********************************************** &lt;br/&gt;4915, Failure to Comply with Megans Law&lt;br/&gt;"/><marker lat="40.426666138172813" lng="-79.966892407610601" zone="Zone 3" incidentdate="2016-08-30" incidenttime="09:15:00" incidentnumber="15125202" address="2700 block E Carson St" type="ARREST" age="25" gender="F" description="*********************************************** &lt;br/&gt;3921(a), Theft by Unlawful Taking or Disposition - Movable item&lt;br/&gt;"/><marker lat="40.430020824945359" lng="-79.976813326700821" zone="Zone 3" incidentdate="2016-08-30" incidenttime="12:50:00" incidentnumber="16163197" address="2000 block Wharton St" type="ARREST" age="22" gender="M" description="*********************************************** &lt;br/&gt;3929(a)(1), Retail Theft; takes possession of, carries away, or transfers displayed merchandise&lt;br/&gt;"/><marker lat="40.475092576234594" lng="-80.008756111908795" zone="Zone 1" incidentdate="2016-08-30" incidenttime="00:32:00" incidentnumber="16162738" address="E Marshall Ave" type="ARREST" age="16" gender="M" description="*********************************************** &lt;br/&gt;2705, Recklessly Endangering Another Person.&lt;br/&gt;2702, Aggravated Assault.&lt;br/&gt;6110.1, Possesion of Firearm by Minor&lt;br/&gt;"/><marker lat="40.420801910327498" lng="-79.993642707505515" zone="Zone 3" incidentdate="2016-08-30" incidenttime="23:30:00" incidentnumber="16163606" address="200 block Allen St" type="ARREST" age="34" gender="M" description="*********************************************** &lt;br/&gt;9501, Bench Warrant&lt;br/&gt;"/><marker lat="40.418137684912793" lng="-79.98821980610019" zone="Zone 3" incidentdate="2016-08-30" incidenttime="18:00:00" incidentnumber="16163405" address="E Amanda Ave &amp; Orchard Pl" type="ARREST" age="48" gender="M" description="*********************************************** &lt;br/&gt;13(a)(31), Marijuana: Possession Small Amount&lt;br/&gt;"/><marker lat="40.4521880" lng="-80.0076476" zone="Zone 1" incidentdate="2016-08-30" incidenttime="15:57:00" incidentnumber="16163315" address="West Commons &amp; Ridge Ave" type="ARREST" age="53" gender="M" description="*********************************************** &lt;br/&gt;9501, Bench Warrant&lt;br/&gt;"/><marker lat="40.440841979883878" lng="-80.006751980364669" zone="Zone 2" incidentdate="2016-08-30" incidenttime="08:00:00" incidentnumber="16052357" address="Liberty Ave &amp; Commonwealth Pl" type="ARREST" age="48" gender="F" description="*********************************************** &lt;br/&gt;9015, Failure To Appear/Arrest on Attachment Order&lt;br/&gt;5902(a)(1), Prostitution&lt;br/&gt;903, Criminal Conspiracy.&lt;br/&gt;5902(b)(8), Prostitution - receiving benefit from&lt;br/&gt;5902(b)(6), Transporting for the purpose of engaging in prostitution&lt;br/&gt;"/></markers>
