<?xml version="1.0"?>
<markers><marker lat="40.445099987229362" lng="-79.999050002208406" zone="Zone 2" incidentdate="2016-10-18" incidenttime="13:30:00" incidentnumber="16196893" address="100 block 9th St" type="OFFENSE" age="" gender="" description="*********************************************** &lt;br/&gt;5511, Cruelty to Animals.&lt;br/&gt;"/><marker lat="40.458166689746925" lng="-80.011791771187603" zone="Zone 1" incidentdate="2016-10-18" incidenttime="09:19:00" incidentnumber="16196741" address="400 block Alpine Ave" type="OFFENSE" age="" gender="" description="*********************************************** &lt;br/&gt;9488, False  Burglar Alarm&lt;br/&gt;"/><marker lat="40.482879021356389" lng="-80.04453300763744" zone="Zone 1" incidentdate="2016-10-18" incidenttime="10:06:00" incidentnumber="16196775" address="2000 block Termon Ave" type="OFFENSE" age="" gender="" description="*********************************************** &lt;br/&gt;9490, Missing Persons (18 and Over)&lt;br/&gt;"/><marker lat="40.42620995626234" lng="-79.999915385535033" zone="Zone 3" incidentdate="2016-10-18" incidenttime="08:15:00" incidentnumber="16196749" address="Kambach St &amp; Judicial St" type="OFFENSE" age="" gender="" description="*********************************************** &lt;br/&gt;3934, Theft from Vehicle&lt;br/&gt;"/><marker lat="40.456649278593069" lng="-80.081232432099114" zone="Zone 6" incidentdate="2016-10-18" incidenttime="07:43:00" incidentnumber="16196703" address="3700 block Haven St" type="OFFENSE" age="" gender="" description="*********************************************** &lt;br/&gt;9999, 9999 - (Misc. Incident):&lt;br/&gt;"/><marker lat="40.451045132413221" lng="-80.016218714889277" zone="Zone 1" incidentdate="2016-10-18" incidenttime="14:10:00" incidentnumber="16196941" address="Galveston Ave &amp; N Lincoln Ave" type="OFFENSE" age="" gender="" description="*********************************************** &lt;br/&gt;3745, Accidents Involving Damage to Unattended Veh.or Prop.&lt;br/&gt;"/><marker lat="40.434135136775652" lng="-80.051974285227899" zone="Zone 6" incidentdate="2016-10-18" incidenttime="13:00:00" incidentnumber="16196891" address="1900 block Vare St" type="OFFENSE" age="" gender="" description="*********************************************** &lt;br/&gt;9488, False  Burglar Alarm&lt;br/&gt;"/><marker lat="40.466887128304442" lng="-80.025013063862957" zone="Zone 1" incidentdate="2016-10-18" incidenttime="17:50:00" incidentnumber="16197077" address="Marshall Ave &amp; Brighton Rd" type="OFFENSE" age="" gender="" description="*********************************************** &lt;br/&gt;3743, Accidents Involving Damage to Attended Veh. or Property&lt;br/&gt;"/><marker lat="40.445589993893975" lng="-80.041243931486775" zone="Zone 6" incidentdate="2016-10-18" incidenttime="12:35:00" incidentnumber="16196905" address="1100 block Strahley Pl" type="OFFENSE" age="" gender="" description="*********************************************** &lt;br/&gt;2709(a)(1), Harassment by Physical Contact, or Attempts or Threats&lt;br/&gt;"/><marker lat="40.439754675673591" lng="-80.052449224076412" zone="Zone 6" incidentdate="2016-10-18" incidenttime="04:30:00" incidentnumber="16196804" address="1200 block Clairhaven St" type="OFFENSE" age="" gender="" description="*********************************************** &lt;br/&gt;3934, Theft from Vehicle&lt;br/&gt;"/><marker lat="40.427040948223102" lng="-80.009163098121036" zone="Zone 3" incidentdate="2016-10-18" incidenttime="11:30:00" incidentnumber="16196821" address="100 block Southern Ave" type="OFFENSE" age="" gender="" description="*********************************************** &lt;br/&gt;9496, Dead on Arrival (DOA)&lt;br/&gt;"/><marker lat="40.450113129898341" lng="-80.062093315146058" zone="Zone 6" incidentdate="2016-10-18" incidenttime="10:40:00" incidentnumber="16196947" address="1400 block Hillsboro St" type="OFFENSE" age="" gender="" description="*********************************************** &lt;br/&gt;2709(a)(5), Harassment Communicates Repeatedly in Anonymous Manner&lt;br/&gt;"/><marker lat="40.409907809469559" lng="-79.944055701424162" zone="Zone 4" incidentdate="2016-10-18" incidenttime="10:41:00" incidentnumber="16196789" address="4900 block 2nd Ave" type="OFFENSE" age="" gender="" description="*********************************************** &lt;br/&gt;2702, Aggravated Assault.&lt;br/&gt;"/><marker lat="40.449715639024333" lng="-80.018247612075271" zone="Zone 1" incidentdate="2016-10-18" incidenttime="02:33:00" incidentnumber="16196619" address="700 block Allegheny Ave" type="OFFENSE" age="" gender="" description="*********************************************** &lt;br/&gt;9488, False  Burglar Alarm&lt;br/&gt;"/><marker lat="40.437850264562179" lng="-80.004567110517371" zone="Zone 2" incidentdate="2016-10-18" incidenttime="16:37:00" incidentnumber="16196335" address="Market St" type="OFFENSE" age="" gender="" description="*********************************************** &lt;br/&gt;9999, 9999 - (Misc. Incident):&lt;br/&gt;"/><marker lat="40.456351790713306" lng="-79.932528767533697" zone="Zone 4" incidentdate="2016-10-18" incidenttime="03:08:00" incidentnumber="16196633" address="500 block Summerlea St" type="OFFENSE" age="" gender="" description="*********************************************** &lt;br/&gt;3502, Burglary.&lt;br/&gt;"/><marker lat="40.443439664205378" lng="-79.895255791595332" zone="Zone 4" incidentdate="2016-10-18" incidenttime="18:20:00" incidentnumber="16191124" address="7700 block Lyman St" type="OFFENSE" age="" gender="" description="*********************************************** &lt;br/&gt;3304, Criminal Mischief.&lt;br/&gt;3921(a), Theft by Unlawful Taking or Disposition - Movable item&lt;br/&gt;3503, Criminal Trespass&lt;br/&gt;"/><marker lat="40.461549739595185" lng="-79.935145694244198" zone="Zone 5" incidentdate="2016-10-18" incidenttime="07:55:00" incidentnumber="16196721" address="300 block Roup Ave" type="OFFENSE" age="" gender="" description="*********************************************** &lt;br/&gt;3934, Theft from Vehicle&lt;br/&gt;"/><marker lat="40.471808178512958" lng="-80.030251717196691" zone="Zone 1" incidentdate="2016-10-18" incidenttime="13:30:00" incidentnumber="16196939" address="3000 block Frederick St" type="OFFENSE" age="" gender="" description="*********************************************** &lt;br/&gt;2709(a)(1), Harassment by Physical Contact, or Attempts or Threats&lt;br/&gt;"/><marker lat="40.427908148048772" lng="-79.970792974138448" zone="Zone 3" incidentdate="2016-10-18" incidenttime="13:10:00" incidentnumber="16196942" address="2400 block E Carson St" type="OFFENSE" age="" gender="" description="*********************************************** &lt;br/&gt;9501, Bench Warrant&lt;br/&gt;"/><marker lat="40.430020824945359" lng="-79.976813326700821" zone="Zone 3" incidentdate="2016-10-18" incidenttime="17:40:00" incidentnumber="16197111" address="2000 block Wharton St" type="OFFENSE" age="" gender="" description="*********************************************** &lt;br/&gt;3929, Retail Theft.&lt;br/&gt;"/><marker lat="40.438169441142144" lng="-79.996063267425882" zone="Zone 2" incidentdate="2016-10-18" incidenttime="12:31:00" incidentnumber="16196862" address="500 block Forbes Ave" type="OFFENSE" age="" gender="" description="*********************************************** &lt;br/&gt;3304(a)(5), CRIMINAL MISCHIEF - Intentionally Damages Real Or Personal Property Of Another&lt;br/&gt;"/><marker lat="40.440479716215464" lng="-79.965333815773448" zone="Zone 4" incidentdate="2016-10-18" incidenttime="07:00:00" incidentnumber="16196700" address="200 block Robinson St" type="OFFENSE" age="" gender="" description="*********************************************** &lt;br/&gt;3745, Accidents Involving Damage to Unattended Veh.or Prop.&lt;br/&gt;"/><marker lat="40.4024193" lng="-79.9425894" zone="Zone 4" incidentdate="2016-10-18" incidenttime="08:30:00" incidentnumber="16196770" address="5200 block Dyke St" type="OFFENSE" age="" gender="" description="*********************************************** &lt;br/&gt;3745, Accidents Involving Damage to Unattended Veh.or Prop.&lt;br/&gt;"/><marker lat="40.432440265993229" lng="-80.004042507126258" zone="Zone 3" incidentdate="2016-10-18" incidenttime="08:30:00" incidentnumber="16196735" address="100 block E Carson St" type="OFFENSE" age="" gender="" description="*********************************************** &lt;br/&gt;3745, Accidents Involving Damage to Unattended Veh.or Prop.&lt;br/&gt;"/><marker lat="40.454410692106848" lng="-79.996707609094031" zone="Zone 1" incidentdate="2016-10-18" incidenttime="11:45:00" incidentnumber="16196814" address="800 block East Ohio St" type="OFFENSE" age="" gender="" description="*********************************************** &lt;br/&gt;3304(a)(4), CRIMINAL MISCHIEF- Intentionally Damage Property (By Graffiti, Aerosol Spray Paint, Broad Tip Marker, or Similar)&lt;br/&gt;"/><marker lat="40.435766213718487" lng="-79.972954875995924" zone="Zone 3" incidentdate="2016-10-18" incidenttime="15:50:00" incidentnumber="16197001" address="Birmingham Brg" type="OFFENSE" age="" gender="" description="*********************************************** &lt;br/&gt;3745, Accidents Involving Damage to Unattended Veh.or Prop.&lt;br/&gt;"/><marker lat="40.470459914974732" lng="-79.908540011902716" zone="Zone 5" incidentdate="2016-10-18" incidenttime="09:47:00" incidentnumber="16196759" address="1400 block Washington Blvd" type="OFFENSE" age="" gender="" description="*********************************************** &lt;br/&gt;9489, Found Property&lt;br/&gt;"/><marker lat="40.453312242754301" lng="-80.001693845474151" zone="Zone 1" incidentdate="2016-10-18" incidenttime="13:10:00" incidentnumber="16154150" address="Cedar Ave &amp; East Ohio St" type="OFFENSE" age="" gender="" description="*********************************************** &lt;br/&gt;13(a)(32), Paraphernalia - Use or Possession&lt;br/&gt;9015, Failure To Appear/Arrest on Attachment Order&lt;br/&gt;"/><marker lat="40.478342153527642" lng="-80.009370204997907" zone="Zone 1" incidentdate="2016-10-18" incidenttime="14:28:00" incidentnumber="16196946" address="Tretow St" type="OFFENSE" age="" gender="" description="*********************************************** &lt;br/&gt;9497, Aided Case&lt;br/&gt;"/><marker lat="40.457009596182559" lng="-80.014480795448918" zone="Zone 1" incidentdate="2016-10-18" incidenttime="19:29:00" incidentnumber="16197127" address="1500 block Buena Vista St" type="OFFENSE" age="" gender="" description="*********************************************** &lt;br/&gt;029, Missing Juvenile&lt;br/&gt;"/><marker lat="40.456313482740313" lng="-79.887606547758622" zone="Zone 5" incidentdate="2016-10-18" incidenttime="21:30:00" incidentnumber="16197204" address="7700 block Baxter St" type="OFFENSE" age="" gender="" description="*********************************************** &lt;br/&gt;2701, Simple Assault.&lt;br/&gt;"/><marker lat="40.455086950467525" lng="-80.02679572214997" zone="Zone 1" incidentdate="2016-10-18" incidenttime="07:50:00" incidentnumber="16196710" address="1400 block Liverpool St" type="OFFENSE" age="" gender="" description="*********************************************** &lt;br/&gt;3934, Theft from Vehicle&lt;br/&gt;"/><marker lat="40.476792918012528" lng="-79.999444064892103" zone="Zone 1" incidentdate="2016-10-18" incidenttime="21:15:00" incidentnumber="16197194" address="600 block Mt Pleasant Rd" type="OFFENSE" age="" gender="" description="*********************************************** &lt;br/&gt;3304, Criminal Mischief.&lt;br/&gt;2709, Harassment (Non-Specific)&lt;br/&gt;"/><marker lat="40.470574729052494" lng="-80.011167472355908" zone="Zone 1" incidentdate="2016-10-18" incidenttime="11:00:00" incidentnumber="16196802" address="2600 block Shelton Ave" type="OFFENSE" age="" gender="" description="*********************************************** &lt;br/&gt;3921(a), Theft by Unlawful Taking or Disposition - Movable item&lt;br/&gt;"/><marker lat="40.447502334719239" lng="-80.051783949854453" zone="Zone 6" incidentdate="2016-10-18" incidenttime="01:00:00" incidentnumber="16196536" address="1600 block Crucible St" type="OFFENSE" age="" gender="" description="*********************************************** &lt;br/&gt;2709(a)(3), Harassment No Legitimate Purpose&lt;br/&gt;"/><marker lat="40.4613620" lng="-79.9827298" zone="Zone 1" incidentdate="2016-10-18" incidenttime="14:00:00" incidentnumber="16196931" address="200 block East Ohio St" type="OFFENSE" age="" gender="" description="*********************************************** &lt;br/&gt;13(a)(31), Marijuana: Possession Small Amount&lt;br/&gt;"/><marker lat="40.4583464564897" lng="-79.927363955243038" zone="Zone 4" incidentdate="2016-10-18" incidenttime="14:30:00" incidentnumber="16196967" address="Ellsworth Ave &amp; Spahr St" type="OFFENSE" age="" gender="" description="*********************************************** &lt;br/&gt;3701, Robbery.&lt;br/&gt;"/><marker lat="40.4600940" lng="-79.9238524" zone="Zone 4" incidentdate="2016-10-18" incidenttime="15:35:00" incidentnumber="16197018" address="6300 block Shakespeare St" type="OFFENSE" age="" gender="" description="*********************************************** &lt;br/&gt;3924, Theft of Property Lost, Mislaid or Delivered by Mistake.&lt;br/&gt;"/><marker lat="40.446965308281754" lng="-80.060846970572456" zone="Zone 6" incidentdate="2016-10-18" incidenttime="14:51:00" incidentnumber="16196960" address="2800 block Middletown Rd" type="OFFENSE" age="" gender="" description="*********************************************** &lt;br/&gt;9490, Missing Persons (18 and Over)&lt;br/&gt;"/><marker lat="40.41991043826863" lng="-80.030268069432026" zone="Zone 6" incidentdate="2016-10-18" incidenttime="07:30:00" incidentnumber="16196840" address="1100 block Banksville Rd" type="OFFENSE" age="" gender="" description="*********************************************** &lt;br/&gt;3921(a), Theft by Unlawful Taking or Disposition - Movable item&lt;br/&gt;"/><marker lat="40.440706378317003" lng="-80.053907974498244" zone="Zone 6" incidentdate="2016-10-18" incidenttime="03:00:00" incidentnumber="16196747" address="1600 block Norwalk St" type="OFFENSE" age="" gender="" description="*********************************************** &lt;br/&gt;3921(a), Theft by Unlawful Taking or Disposition - Movable item&lt;br/&gt;"/><marker lat="40.4364433" lng="-80.0582390" zone="Zone 6" incidentdate="2016-10-18" incidenttime="09:00:00" incidentnumber="16196826" address="1500 block Barr Ave" type="OFFENSE" age="" gender="" description="*********************************************** &lt;br/&gt;3934, Theft from Vehicle&lt;br/&gt;"/><marker lat="40.469257392481524" lng="-79.978846464391097" zone="Zone 1" incidentdate="2016-10-18" incidenttime="10:17:00" incidentnumber="16196779" address="2100 block Lowrie St" type="OFFENSE" age="" gender="" description="*********************************************** &lt;br/&gt;9496, Dead on Arrival (DOA)&lt;br/&gt;"/><marker lat="40.469013374663945" lng="-80.027240700484498" zone="Zone 1" incidentdate="2016-10-18" incidenttime="05:40:00" incidentnumber="16196668" address="1200 block Thelma St" type="OFFENSE" age="" gender="" description="*********************************************** &lt;br/&gt;9093, Indirect Criminal Contempt&lt;br/&gt;"/><marker lat="40.471761717617269" lng="-80.036534077321946" zone="Zone 1" incidentdate="2016-10-18" incidenttime="06:00:00" incidentnumber="16196673" address="Lecky Ave &amp; Eckert St" type="OFFENSE" age="" gender="" description="*********************************************** &lt;br/&gt;9122, Miscellaneous Fire Vehicle Investigation to Continue&lt;br/&gt;"/><marker lat="40.464667917447393" lng="-79.898975699096511" zone="Zone 5" incidentdate="2016-10-18" incidenttime="19:45:00" incidentnumber="16197142" address="Apple Ave &amp; Lincoln Ave" type="OFFENSE" age="" gender="" description="*********************************************** &lt;br/&gt;9093, Indirect Criminal Contempt&lt;br/&gt;"/><marker lat="40.446948744266606" lng="-80.036137321764954" zone="Zone 6" incidentdate="2016-10-18" incidenttime="15:45:00" incidentnumber="16197007" address="1000 block Elkton St" type="OFFENSE" age="" gender="" description="*********************************************** &lt;br/&gt;3502, Burglary.&lt;br/&gt;"/><marker lat="40.420913132249694" lng="-79.925255583042343" zone="Zone 4" incidentdate="2016-10-18" incidenttime="13:05:00" incidentnumber="16196894" address="4300 block Ludwick St" type="OFFENSE" age="" gender="" description="*********************************************** &lt;br/&gt;9488, False  Burglar Alarm&lt;br/&gt;"/><marker lat="40.439754675673591" lng="-80.052449224076412" zone="Zone 6" incidentdate="2016-10-18" incidenttime="04:00:00" incidentnumber="16196791" address="1200 block Clairhaven St" type="OFFENSE" age="" gender="" description="*********************************************** &lt;br/&gt;3934, Theft from Vehicle&lt;br/&gt;"/><marker lat="40.456219220028117" lng="-80.002621271585497" zone="Zone 1" incidentdate="2016-10-18" incidenttime="02:27:00" incidentnumber="16196615" address="E North Ave &amp; Cedar Ave" type="OFFENSE" age="" gender="" description="*********************************************** &lt;br/&gt;13(a)(16), Possession of Controlled Substance&lt;br/&gt;13(a)(32), Paraphernalia - Use or Possession&lt;br/&gt;1543, Driving While Operating Privilege is Suspended or Revoked.&lt;br/&gt;3334, Turning Movements and Required Signals.&lt;br/&gt;"/><marker lat="40.429535784391163" lng="-79.979001639466091" zone="Zone 3" incidentdate="2016-10-18" incidenttime="00:16:00" incidentnumber="16196561" address="1900 block Sidney St" type="OFFENSE" age="" gender="" description="*********************************************** &lt;br/&gt;2701, Simple Assault.&lt;br/&gt;"/><marker lat="40.463632336831807" lng="-79.95263642198006" zone="Zone 5" incidentdate="2016-10-18" incidenttime="20:20:00" incidentnumber="16197167" address="4400 block Liberty Ave" type="OFFENSE" age="" gender="" description="*********************************************** &lt;br/&gt;13(a)(16), Possession of Controlled Substance&lt;br/&gt;13(a)(30), Possession w/ Intent to Del. Controlled Substance&lt;br/&gt;4910, Tampering with or Fabricating Physical Evidence.&lt;br/&gt;5104, Resisting Arrest or Other Law Enforcement.&lt;br/&gt;5121, Escape.&lt;br/&gt;7512, Criminal Use of Communication&lt;br/&gt;"/><marker lat="40.482879021356389" lng="-80.04453300763744" zone="Zone 1" incidentdate="2016-10-18" incidenttime="19:58:00" incidentnumber="16197151" address="2000 block Termon Ave" type="OFFENSE" age="" gender="" description="*********************************************** &lt;br/&gt;5104, Resisting Arrest or Other Law Enforcement.&lt;br/&gt;2702, Aggravated Assault.&lt;br/&gt;5503(a)(4), DISORDERLY CONDUCT - HAZARDOUS/PHYS. OFF&lt;br/&gt;"/><marker lat="40.479496781171243" lng="-80.032454825576309" zone="Zone 1" incidentdate="2016-10-18" incidenttime="15:28:00" incidentnumber="16196975" address="3500 block Simen Ave" type="OFFENSE" age="" gender="" description="*********************************************** &lt;br/&gt;9999, 9999 - (Misc. Incident):&lt;br/&gt;"/><marker lat="40.448376001131102" lng="-80.025308854016927" zone="Zone 1" incidentdate="2016-10-18" incidenttime="06:30:00" incidentnumber="16196707" address="North Point Dr &amp; Belmont St" type="OFFENSE" age="" gender="" description="*********************************************** &lt;br/&gt;3921, Theft by Unlawful Taking or Disposition.&lt;br/&gt;3503, Criminal Trespass&lt;br/&gt;"/><marker lat="40.458118677265396" lng="-79.934597267839095" zone="Zone 5" incidentdate="2016-10-18" incidenttime="17:00:00" incidentnumber="16197132" address="Roup Ave &amp; Baum Blvd" type="OFFENSE" age="" gender="" description="*********************************************** &lt;br/&gt;3745, Accidents Involving Damage to Unattended Veh.or Prop.&lt;br/&gt;"/><marker lat="40.417286338485056" lng="-79.965653302450889" zone="Zone 3" incidentdate="2016-10-18" incidenttime="18:51:00" incidentnumber="16197128" address="3000 block Arlington Ave" type="OFFENSE" age="" gender="" description="*********************************************** &lt;br/&gt;2705, Recklessly Endangering Another Person.&lt;br/&gt;2702, Aggravated Assault.&lt;br/&gt;"/><marker lat="40.4640400" lng="-79.9865637" zone="Zone 1" incidentdate="2016-10-18" incidenttime="18:47:00" incidentnumber="16197123" address="900 block High St" type="OFFENSE" age="" gender="" description="*********************************************** &lt;br/&gt;3304, Criminal Mischief.&lt;br/&gt;2709(a)(1), Harassment by Physical Contact, or Attempts or Threats&lt;br/&gt;"/><marker lat="40.484550069346753" lng="-80.035692783449747" zone="Zone 1" incidentdate="2016-10-18" incidenttime="16:25:00" incidentnumber="16197030" address="3800 block Brighton Rd" type="OFFENSE" age="" gender="" description="*********************************************** &lt;br/&gt;9501, Bench Warrant&lt;br/&gt;"/><marker lat="40.392615090772772" lng="-79.979236418031803" zone="Zone 3" incidentdate="2016-10-18" incidenttime="10:00:00" incidentnumber="16196777" address="2400 block Custer Ave" type="OFFENSE" age="" gender="" description="*********************************************** &lt;br/&gt;9496, Dead on Arrival (DOA)&lt;br/&gt;"/><marker lat="40.475337712169235" lng="-79.958457563970711" zone="Zone 2" incidentdate="2016-10-18" incidenttime="20:09:00" incidentnumber="16197158" address="4700 block Plummer St" type="OFFENSE" age="" gender="" description="*********************************************** &lt;br/&gt;3743, Accidents Involving Damage to Attended Veh. or Property&lt;br/&gt;"/><marker lat="40.4415461" lng="-79.9569808" zone="Zone 4" incidentdate="2016-10-18" incidenttime="08:10:00" incidentnumber="16196704" address="200 block Oakland Ave" type="OFFENSE" age="" gender="" description="*********************************************** &lt;br/&gt;9490, Missing Persons (18 and Over)&lt;br/&gt;"/><marker lat="40.456895489567806" lng="-80.010261962761234" zone="Zone 1" incidentdate="2016-10-18" incidenttime="16:30:00" incidentnumber="16197029" address="300 block N Taylor Ave" type="OFFENSE" age="" gender="" description="*********************************************** &lt;br/&gt;9488, False  Burglar Alarm&lt;br/&gt;"/><marker lat="40.398915184429292" lng="-79.986129239166701" zone="Zone 3" incidentdate="2016-10-18" incidenttime="08:00:00" incidentnumber="16196921" address="200 block E Cherryhill St" type="OFFENSE" age="" gender="" description="*********************************************** &lt;br/&gt;3921, Theft by Unlawful Taking or Disposition.&lt;br/&gt;"/><marker lat="40.439611501763579" lng="-79.937397985159194" zone="Zone 5" incidentdate="2016-10-18" incidenttime="22:25:00" incidentnumber="16197226" address="100 block Schenley Manor Dr" type="OFFENSE" age="" gender="" description="*********************************************** &lt;br/&gt;2701(a)(1), Simple Assault - Intent., Know., Reckless.Cause Bod. Injury&lt;br/&gt;"/><marker lat="40.446207760459167" lng="-79.906250319730987" zone="Zone 4" incidentdate="2016-10-18" incidenttime="18:00:00" incidentnumber="16196997" address="500 block S Lang Ave" type="OFFENSE" age="" gender="" description="*********************************************** &lt;br/&gt;8104, CLASS 1 - Suspicious Package or Device&lt;br/&gt;"/><marker lat="40.417700575672761" lng="-79.963485428710001" zone="Zone 3" incidentdate="2016-10-18" incidenttime="12:33:00" incidentnumber="16196864" address="Cordell Pl &amp; Arlington Ave" type="OFFENSE" age="" gender="" description="*********************************************** &lt;br/&gt;9501, Bench Warrant&lt;br/&gt;"/><marker lat="40.422116840196409" lng="-79.927751501874127" zone="Zone 4" incidentdate="2016-10-18" incidenttime="19:48:00" incidentnumber="16197155" address="Beechwood Blvd &amp; Loretta St" type="OFFENSE" age="" gender="" description="*********************************************** &lt;br/&gt;13(a)(16), Possession of Controlled Substance&lt;br/&gt;1543, Driving While Operating Privilege is Suspended or Revoked.&lt;br/&gt;4914, False Identification to Law Enforcement Authorities&lt;br/&gt;3809(a), Restriction on Alcoholic Beverages in Vehicle&lt;br/&gt;"/><marker lat="40.471411423607833" lng="-79.959830139270579" zone="Zone 2" incidentdate="2016-10-18" incidenttime="17:29:00" incidentnumber="16197068" address="200 block 4th Ave" type="OFFENSE" age="" gender="" description="*********************************************** &lt;br/&gt;3745, Accidents Involving Damage to Unattended Veh.or Prop.&lt;br/&gt;"/><marker lat="40.432702002999356" lng="-80.020878302944851" zone="Zone 3" incidentdate="2016-10-18" incidenttime="06:00:00" incidentnumber="16196801" address="400 block Oneida St" type="OFFENSE" age="" gender="" description="*********************************************** &lt;br/&gt;3934, Theft from Vehicle&lt;br/&gt;"/><marker lat="40.441525254290028" lng="-79.997405508645585" zone="Zone 2" incidentdate="2016-10-18" incidenttime="14:26:00" incidentnumber="16196944" address="600 block Smithfield St" type="OFFENSE" age="" gender="" description="*********************************************** &lt;br/&gt;13(a)(16), Possession of Controlled Substance&lt;br/&gt;9501, Bench Warrant&lt;br/&gt;3929(a)(1), Retail Theft; takes possession of, carries away, or transfers displayed merchandise&lt;br/&gt;"/><marker lat="40.456219220028117" lng="-80.002621271585497" zone="Zone 1" incidentdate="2016-10-18" incidenttime="04:30:00" incidentnumber="16196876" address="E North Ave &amp; Cedar Ave" type="OFFENSE" age="" gender="" description="*********************************************** &lt;br/&gt;2702, Aggravated Assault.&lt;br/&gt;"/><marker lat="40.482879021356389" lng="-80.04453300763744" zone="Zone 1" incidentdate="2016-10-18" incidenttime="10:06:00" incidentnumber="16196772" address="2000 block Termon Ave" type="OFFENSE" age="" gender="" description="*********************************************** &lt;br/&gt;029, Missing Juvenile&lt;br/&gt;"/><marker lat="40.419119165871031" lng="-79.988020009516745" zone="Zone 3" incidentdate="2016-10-18" incidenttime="17:07:00" incidentnumber="16197053" address="E Amanda Ave" type="OFFENSE" age="" gender="" description="*********************************************** &lt;br/&gt;5104, Resisting Arrest or Other Law Enforcement.&lt;br/&gt;3304(a)(5), CRIMINAL MISCHIEF - Intentionally Damages Real Or Personal Property Of Another&lt;br/&gt;5121, Escape.&lt;br/&gt;5126, Flight to Avoid Apprehension, Trial or Punishment.&lt;br/&gt;"/><marker lat="40.475754751962889" lng="-80.000806246214438" zone="Zone 1" incidentdate="2016-10-18" incidenttime="14:00:00" incidentnumber="16196898" address="300 block Penfort St" type="OFFENSE" age="" gender="" description="*********************************************** &lt;br/&gt;029, Missing Juvenile&lt;br/&gt;"/><marker lat="40.466622454058715" lng="-79.995552204385959" zone="Zone 1" incidentdate="2016-10-18" incidenttime="08:10:00" incidentnumber="16196887" address="2100 block Lappe Ln" type="OFFENSE" age="" gender="" description="*********************************************** &lt;br/&gt;2709(a)(4), Harassment Communicates Prohibited Acts&lt;br/&gt;"/><marker lat="40.410484896027484" lng="-79.941009460309303" zone="Zone 4" incidentdate="2016-10-18" incidenttime="20:00:00" incidentnumber="16197156" address="Morse Way" type="OFFENSE" age="" gender="" description="*********************************************** &lt;br/&gt;3502, Burglary.&lt;br/&gt;"/><marker lat="40.466772646024531" lng="-79.964043690486676" zone="Zone 2" incidentdate="2016-10-18" incidenttime="10:30:00" incidentnumber="16196782" address="3800 block Butler St" type="OFFENSE" age="" gender="" description="*********************************************** &lt;br/&gt;9489, Found Property&lt;br/&gt;"/><marker lat="40.464667917447393" lng="-79.898975699096511" zone="Zone 5" incidentdate="2016-10-18" incidenttime="18:29:00" incidentnumber="16197081" address="Apple Ave &amp; Lincoln Ave" type="OFFENSE" age="" gender="" description="*********************************************** &lt;br/&gt;13(a)(16), Possession of Controlled Substance&lt;br/&gt;13(a)(32), Paraphernalia - Use or Possession&lt;br/&gt;1501, Drivers Required to be Licensed.&lt;br/&gt;3334, Turning Movements and Required Signals.&lt;br/&gt;1301, Registration and Certificate of Title Required.&lt;br/&gt;"/><marker lat="40.45614291324403" lng="-80.015399745388805" zone="Zone 1" incidentdate="2016-10-18" incidenttime="15:12:00" incidentnumber="16196966" address="800 block Pennsylvania Ave" type="OFFENSE" age="" gender="" description="*********************************************** &lt;br/&gt;2709(a)(1), Harassment by Physical Contact, or Attempts or Threats&lt;br/&gt;"/><marker lat="40.451700889335505" lng="-80.029551093005011" zone="Zone 1" incidentdate="2016-10-18" incidenttime="18:37:00" incidentnumber="16197122" address="W North Ave" type="OFFENSE" age="" gender="" description="*********************************************** &lt;br/&gt;9501, Bench Warrant&lt;br/&gt;"/><marker lat="40.430020824945359" lng="-79.976813326700821" zone="Zone 3" incidentdate="2016-10-18" incidenttime="11:05:00" incidentnumber="16196798" address="2000 block Wharton St" type="OFFENSE" age="" gender="" description="*********************************************** &lt;br/&gt;3701, Robbery.&lt;br/&gt;"/><marker lat="40.481761709544834" lng="-80.033936887390325" zone="Zone 1" incidentdate="2016-10-18" incidenttime="12:21:00" incidentnumber="16196849" address="3600 block Brighton Rd" type="OFFENSE" age="" gender="" description="*********************************************** &lt;br/&gt;9488, False  Burglar Alarm&lt;br/&gt;"/><marker lat="40.459550086778869" lng="-80.017657395716739" zone="Zone 1" incidentdate="2016-10-18" incidenttime="08:30:00" incidentnumber="16196961" address="1800 block Brighton Pl" type="OFFENSE" age="" gender="" description="*********************************************** &lt;br/&gt;3921, Theft by Unlawful Taking or Disposition.&lt;br/&gt;"/><marker lat="40.481062354176309" lng="-80.037922044038851" zone="Zone 1" incidentdate="2016-10-18" incidenttime="18:36:00" incidentnumber="16197114" address="1500 block Davis Ave" type="OFFENSE" age="" gender="" description="*********************************************** &lt;br/&gt;3502, Burglary.&lt;br/&gt;"/><marker lat="40.465548066245979" lng="-79.989492305852551" zone="Zone 1" incidentdate="2016-10-18" incidenttime="07:16:00" incidentnumber="16196694" address="Rockledge St &amp; Damas St" type="OFFENSE" age="" gender="" description="*********************************************** &lt;br/&gt;5505, Public Drunkenness&lt;br/&gt;"/><marker lat="40.433137931459051" lng="-80.016482695036132" zone="Zone 3" incidentdate="2016-10-18" incidenttime="08:00:00" incidentnumber="16196728" address="300 block La Belle St" type="OFFENSE" age="" gender="" description="*********************************************** &lt;br/&gt;3934, Theft from Vehicle&lt;br/&gt;"/><marker lat="40.464667917447393" lng="-79.898975699096511" zone="Zone 5" incidentdate="2016-10-18" incidenttime="19:50:00" incidentnumber="16197142" address="Apple Ave &amp; Lincoln Ave" type="ARREST" age="45" gender="F" description="*********************************************** &lt;br/&gt;9093, Indirect Criminal Contempt&lt;br/&gt;"/><marker lat="40.469013374663945" lng="-80.027240700484498" zone="Zone 1" incidentdate="2016-10-18" incidenttime="05:40:00" incidentnumber="16196668" address="1200 block Thelma St" type="ARREST" age="27" gender="M" description="*********************************************** &lt;br/&gt;9093, Indirect Criminal Contempt&lt;br/&gt;"/><marker lat="40.484550069346753" lng="-80.035692783449747" zone="Zone 1" incidentdate="2016-10-18" incidenttime="16:25:00" incidentnumber="16197030" address="3800 block Brighton Rd" type="ARREST" age="47" gender="M" description="*********************************************** &lt;br/&gt;9501, Bench Warrant&lt;br/&gt;"/><marker lat="40.417700575672761" lng="-79.963485428710001" zone="Zone 3" incidentdate="2016-10-18" incidenttime="12:33:00" incidentnumber="16196864" address="Cordell Pl &amp; Arlington Ave" type="ARREST" age="23" gender="M" description="*********************************************** &lt;br/&gt;9501, Bench Warrant&lt;br/&gt;"/><marker lat="40.453312242754301" lng="-80.001693845474151" zone="Zone 1" incidentdate="2016-10-18" incidenttime="13:20:00" incidentnumber="16154150" address="Cedar Ave &amp; East Ohio St" type="ARREST" age="29" gender="M" description="*********************************************** &lt;br/&gt;13(a)(32), Paraphernalia - Use or Possession&lt;br/&gt;9015, Failure To Appear/Arrest on Attachment Order&lt;br/&gt;"/><marker lat="40.443315554772433" lng="-79.959560343748407" zone="Zone 4" incidentdate="2016-10-18" incidenttime="08:57:00" incidentnumber="16179552" address="3800 block O Hara St" type="ARREST" age="54" gender="M" description="*********************************************** &lt;br/&gt;9015, Failure To Appear/Arrest on Attachment Order&lt;br/&gt;2701(a)(1), Simple Assault - Intent., Know., Reckless.Cause Bod. Injury&lt;br/&gt;"/><marker lat="40.437577457374786" lng="-79.996384145625058" zone="Zone 2" incidentdate="2016-10-18" incidenttime="08:57:00" incidentnumber="16179601" address="400 block Ross St" type="ARREST" age="54" gender="M" description="*********************************************** &lt;br/&gt;13(a)(16), Possession of Controlled Substance&lt;br/&gt;13(a)(30), Possession w/ Intent to Del. Controlled Substance&lt;br/&gt;13(a)(32), Paraphernalia - Use or Possession&lt;br/&gt;"/><marker lat="40.466157023204467" lng="-79.98535298496779" zone="Zone 1" incidentdate="2016-10-18" incidenttime="02:50:00" incidentnumber="16183096" address="1600 block Spring Garden Ave" type="ARREST" age="41" gender="M" description="*********************************************** &lt;br/&gt;2701(a)(1), Simple Assault - Intent., Know., Reckless.Cause Bod. Injury&lt;br/&gt;"/><marker lat="40.435095503606554" lng="-79.993077686753679" zone="Zone 2" incidentdate="2016-10-18" incidenttime="11:38:00" incidentnumber="16181683" address="900 block 2nd Ave" type="ARREST" age="23" gender="M" description="*********************************************** &lt;br/&gt;3921(a), Theft by Unlawful Taking or Disposition - Movable item&lt;br/&gt;"/><marker lat="40.4613620" lng="-79.9827298" zone="Zone 1" incidentdate="2016-10-18" incidenttime="14:00:00" incidentnumber="16196931" address="200 block East Ohio St" type="ARREST" age="25" gender="M" description="*********************************************** &lt;br/&gt;13(a)(31), Marijuana: Possession Small Amount&lt;br/&gt;"/><marker lat="40.482879021356389" lng="-80.04453300763744" zone="Zone 1" incidentdate="2016-10-18" incidenttime="20:34:00" incidentnumber="16197151" address="2000 block Termon Ave" type="ARREST" age="16" gender="F" description="*********************************************** &lt;br/&gt;5104, Resisting Arrest or Other Law Enforcement.&lt;br/&gt;2702, Aggravated Assault.&lt;br/&gt;5503(a)(4), DISORDERLY CONDUCT - HAZARDOUS/PHYS. OFF&lt;br/&gt;"/><marker lat="40.421154212897541" lng="-79.998921366890187" zone="Zone 3" incidentdate="2016-10-18" incidenttime="17:30:00" incidentnumber="16187647" address="Curtin Ave &amp; E Warrington Ave" type="ARREST" age="35" gender="M" description="*********************************************** &lt;br/&gt;2701, Simple Assault.&lt;br/&gt;2701(a)(1), Simple Assault - Intent., Know., Reckless.Cause Bod. Injury&lt;br/&gt;"/><marker lat="40.463632336831807" lng="-79.95263642198006" zone="Zone 5" incidentdate="2016-10-18" incidenttime="20:20:00" incidentnumber="16197167" address="4400 block Liberty Ave" type="ARREST" age="20" gender="M" description="*********************************************** &lt;br/&gt;13(a)(16), Possession of Controlled Substance&lt;br/&gt;13(a)(30), Possession w/ Intent to Del. Controlled Substance&lt;br/&gt;4910, Tampering with or Fabricating Physical Evidence.&lt;br/&gt;5104, Resisting Arrest or Other Law Enforcement.&lt;br/&gt;5121, Escape.&lt;br/&gt;7512, Criminal Use of Communication&lt;br/&gt;"/><marker lat="40.456219220028117" lng="-80.002621271585497" zone="Zone 1" incidentdate="2016-10-18" incidenttime="02:27:00" incidentnumber="16196615" address="E North Ave &amp; Cedar Ave" type="ARREST" age="32" gender="M" description="*********************************************** &lt;br/&gt;13(a)(16), Possession of Controlled Substance&lt;br/&gt;13(a)(32), Paraphernalia - Use or Possession&lt;br/&gt;1543, Driving While Operating Privilege is Suspended or Revoked.&lt;br/&gt;3334, Turning Movements and Required Signals.&lt;br/&gt;"/><marker lat="40.468580872260155" lng="-79.916948156029093" zone="Zone 5" incidentdate="2016-10-18" incidenttime="13:10:00" incidentnumber="16056268" address="stanton Ave &amp; Heberton St" type="ARREST" age="19" gender="M" description="*********************************************** &lt;br/&gt;2706, Terroristic Threats.&lt;br/&gt;"/><marker lat="40.443401123165344" lng="-80.03999033976784" zone="Zone 6" incidentdate="2016-10-18" incidenttime="13:15:00" incidentnumber="16098824" address="800 block Ernie St" type="ARREST" age="19" gender="M" description="*********************************************** &lt;br/&gt;3502, Burglary.&lt;br/&gt;2701, Simple Assault.&lt;br/&gt;6106, Firearms not to be Carried without a License.&lt;br/&gt;2706, Terroristic Threats.&lt;br/&gt;"/><marker lat="40.451700889335505" lng="-80.029551093005011" zone="Zone 1" incidentdate="2016-10-18" incidenttime="18:37:00" incidentnumber="16197122" address="W North Ave" type="ARREST" age="49" gender="M" description="*********************************************** &lt;br/&gt;9501, Bench Warrant&lt;br/&gt;"/><marker lat="40.462466179200078" lng="-80.032822489055775" zone="Zone 1" incidentdate="2016-10-18" incidenttime="14:30:00" incidentnumber="16177231" address="2300 block Beaver Ave" type="ARREST" age="41" gender="M" description="*********************************************** &lt;br/&gt;3921(a), Theft by Unlawful Taking or Disposition - Movable item&lt;br/&gt;903, Criminal Conspiracy.&lt;br/&gt;"/><marker lat="40.434696587775576" lng="-79.996300985228572" zone="Zone 2" incidentdate="2016-10-18" incidenttime="11:40:00" incidentnumber="16179807" address="600 block 1st Ave" type="ARREST" age="37" gender="M" description="*********************************************** &lt;br/&gt;2702, Aggravated Assault.&lt;br/&gt;2701, Simple Assault.&lt;br/&gt;907, Possessing Instruments of Crime.&lt;br/&gt;"/><marker lat="40.441525254290028" lng="-79.997405508645585" zone="Zone 2" incidentdate="2016-10-18" incidenttime="14:47:00" incidentnumber="16196944" address="600 block Smithfield St" type="ARREST" age="37" gender="F" description="*********************************************** &lt;br/&gt;13(a)(16), Possession of Controlled Substance&lt;br/&gt;9501, Bench Warrant&lt;br/&gt;3929(a)(1), Retail Theft; takes possession of, carries away, or transfers displayed merchandise&lt;br/&gt;"/><marker lat="40.471049803413059" lng="-79.924878997342091" zone="Zone 5" incidentdate="2016-10-18" incidenttime="13:10:00" incidentnumber="16142614" address="800 block Mellon St" type="ARREST" age="19" gender="M" description="*********************************************** &lt;br/&gt;2701(a)(3), Simple Assault - Attempts by Physical Menace&lt;br/&gt;"/><marker lat="40.475342512841486" lng="-80.030374651560734" zone="Zone 1" incidentdate="2016-10-18" incidenttime="02:07:00" incidentnumber="16192621" address="Brighton Rd &amp; Wadlow St" type="ARREST" age="60" gender="M" description="*********************************************** &lt;br/&gt;5104, Resisting Arrest or Other Law Enforcement.&lt;br/&gt;2702, Aggravated Assault.&lt;br/&gt;5505, Public Drunkenness&lt;br/&gt;5503(a)(3), DISORDERLY CONDUCT - OBSCENE LANG/GEST&lt;br/&gt;2706, Terroristic Threats.&lt;br/&gt;4912, Impersonating a Public Servant.&lt;br/&gt;"/><marker lat="40.439611501763579" lng="-79.937397985159194" zone="Zone 5" incidentdate="2016-10-18" incidenttime="22:50:00" incidentnumber="16197226" address="100 block Schenley Manor Dr" type="ARREST" age="71" gender="M" description="*********************************************** &lt;br/&gt;2701(a)(1), Simple Assault - Intent., Know., Reckless.Cause Bod. Injury&lt;br/&gt;"/><marker lat="40.422116840196409" lng="-79.927751501874127" zone="Zone 4" incidentdate="2016-10-18" incidenttime="19:48:00" incidentnumber="16197155" address="Beechwood Blvd &amp; Loretta St" type="ARREST" age="66" gender="M" description="*********************************************** &lt;br/&gt;13(a)(16), Possession of Controlled Substance&lt;br/&gt;1543, Driving While Operating Privilege is Suspended or Revoked.&lt;br/&gt;4914, False Identification to Law Enforcement Authorities&lt;br/&gt;3809(a), Restriction on Alcoholic Beverages in Vehicle&lt;br/&gt;"/><marker lat="40.464667917447393" lng="-79.898975699096511" zone="Zone 5" incidentdate="2016-10-18" incidenttime="19:30:00" incidentnumber="16197081" address="Apple Ave &amp; Lincoln Ave" type="ARREST" age="35" gender="M" description="*********************************************** &lt;br/&gt;13(a)(16), Possession of Controlled Substance&lt;br/&gt;13(a)(32), Paraphernalia - Use or Possession&lt;br/&gt;1501, Drivers Required to be Licensed.&lt;br/&gt;3334, Turning Movements and Required Signals.&lt;br/&gt;1301, Registration and Certificate of Title Required.&lt;br/&gt;"/><marker lat="40.427908148048772" lng="-79.970792974138448" zone="Zone 3" incidentdate="2016-10-18" incidenttime="13:26:00" incidentnumber="16196942" address="2400 block E Carson St" type="ARREST" age="20" gender="M" description="*********************************************** &lt;br/&gt;9501, Bench Warrant&lt;br/&gt;"/><marker lat="40.456313482740313" lng="-79.887606547758622" zone="Zone 5" incidentdate="2016-10-18" incidenttime="21:35:00" incidentnumber="16197204" address="7700 block Baxter St" type="ARREST" age="25" gender="M" description="*********************************************** &lt;br/&gt;2701, Simple Assault.&lt;br/&gt;"/><marker lat="40.4539247715024" lng="-79.997839351546148" zone="Zone 1" incidentdate="2016-10-18" incidenttime="15:00:00" incidentnumber="16153543" address="East St &amp; East Ohio St" type="ARREST" age="54" gender="M" description="*********************************************** &lt;br/&gt;5507, Obstructing Highways and Passages.&lt;br/&gt;9015, Failure To Appear/Arrest on Attachment Order&lt;br/&gt;"/><marker lat="40.422116840196409" lng="-79.927751501874127" zone="Zone 4" incidentdate="2016-10-18" incidenttime="19:48:00" incidentnumber="16197155" address="Beechwood Blvd &amp; Loretta St" type="ARREST" age="42" gender="M" description="*********************************************** &lt;br/&gt;13(a)(16), Possession of Controlled Substance&lt;br/&gt;1543, Driving While Operating Privilege is Suspended or Revoked.&lt;br/&gt;4914, False Identification to Law Enforcement Authorities&lt;br/&gt;3809(a), Restriction on Alcoholic Beverages in Vehicle&lt;br/&gt;"/><marker lat="40.428799178836528" lng="-79.984145739682731" zone="Zone 3" incidentdate="2016-10-18" incidenttime="11:45:00" incidentnumber="16163197" address="S 14th St &amp; E Carson St" type="ARREST" age="23" gender="M" description="*********************************************** &lt;br/&gt;9015, Failure To Appear/Arrest on Attachment Order&lt;br/&gt;3929(a)(1), Retail Theft; takes possession of, carries away, or transfers displayed merchandise&lt;br/&gt;"/><marker lat="40.454948691850667" lng="-80.009640272832598" zone="Zone 1" incidentdate="2016-10-18" incidenttime="15:00:00" incidentnumber="16162220" address="300 block E North Ave" type="ARREST" age="54" gender="M" description="*********************************************** &lt;br/&gt;9015, Failure To Appear/Arrest on Attachment Order&lt;br/&gt;3503.B1I, DEF. TRESPASS ACTUAL COMMUNICATION&lt;br/&gt;3213, Prohibited Acts.&lt;br/&gt;"/><marker lat="40.459184133187158" lng="-79.931030705073482" zone="Zone 5" incidentdate="2016-10-18" incidenttime="13:10:00" incidentnumber="16112393" address="Baum Blvd &amp; S St Clair St" type="ARREST" age="19" gender="M" description="*********************************************** &lt;br/&gt;2705, Recklessly Endangering Another Person.&lt;br/&gt;3736, Reckless Driving&lt;br/&gt;5121, Escape.&lt;br/&gt;3733, Fleeing or Attempting to Elude Police Officer&lt;br/&gt;3323, Stop Signs and Yield Signs.&lt;br/&gt;3111, Obedience to Traffic-Control Devices.&lt;br/&gt;3308, One-Way Roadways and Rotary Traffic Islands.&lt;br/&gt;"/><marker lat="40.456313482740313" lng="-79.887606547758622" zone="Zone 5" incidentdate="2016-10-18" incidenttime="21:35:00" incidentnumber="16197204" address="7700 block Baxter St" type="ARREST" age="23" gender="M" description="*********************************************** &lt;br/&gt;2701, Simple Assault.&lt;br/&gt;"/><marker lat="40.469771195528878" lng="-80.030299486392565" zone="Zone 1" incidentdate="2016-10-18" incidenttime="10:15:00" incidentnumber="16184909" address="Shadeland Ave &amp; Dickson St" type="ARREST" age="18" gender="F" description="*********************************************** &lt;br/&gt;2701(a)(1), Simple Assault - Intent., Know., Reckless.Cause Bod. Injury&lt;br/&gt;"/></markers>
