<?xml version="1.0"?>
<markers><marker lat="40.454374975757673" lng="-80.024820107475946" zone="Zone 1" incidentdate="2016-05-24" incidenttime="13:00:00" incidentnumber="16095263" address="1300 block Pennsylvania Ave" type="OFFENSE" age="" gender="" description="*********************************************** &lt;br/&gt;3502, Burglary.&lt;br/&gt;"/><marker lat="40.468949448621721" lng="-79.999184217115484" zone="Zone 1" incidentdate="2016-05-24" incidenttime="17:31:00" incidentnumber="16095277" address="900 block Mina St" type="OFFENSE" age="" gender="" description="*********************************************** &lt;br/&gt;2709(a)(1), Harassment by Physical Contact, or Attempts or Threats&lt;br/&gt;"/><marker lat="40.421745129795497" lng="-79.990481180721886" zone="Zone 3" incidentdate="2016-05-24" incidenttime="19:50:00" incidentnumber="16095380" address="900 block E Warrington Ave" type="OFFENSE" age="" gender="" description="*********************************************** &lt;br/&gt;9490, Missing Persons (18 and Over)&lt;br/&gt;"/><marker lat="40.449530388454392" lng="-79.929020082763714" zone="Zone 4" incidentdate="2016-05-24" incidenttime="15:45:00" incidentnumber="16095211" address="5700 block 5th Ave" type="OFFENSE" age="" gender="" description="*********************************************** &lt;br/&gt;3743, Accidents Involving Damage to Attended Veh. or Property&lt;br/&gt;"/><marker lat="40.45297697721896" lng="-79.942563534970191" zone="Zone 4" incidentdate="2016-05-24" incidenttime="15:00:00" incidentnumber="16095187" address="Bayard Rd" type="OFFENSE" age="" gender="" description="*********************************************** &lt;br/&gt;3745, Accidents Involving Damage to Unattended Veh.or Prop.&lt;br/&gt;"/><marker lat="40.456642496402679" lng="-79.949944137808941" zone="Zone 5" incidentdate="2016-05-24" incidenttime="15:00:00" incidentnumber="16095194" address="Hemingway St" type="OFFENSE" age="" gender="" description="*********************************************** &lt;br/&gt;4120, Identity Theft&lt;br/&gt;"/><marker lat="40.456515048695316" lng="-80.016515559088219" zone="Zone 1" incidentdate="2016-05-24" incidenttime="18:00:00" incidentnumber="16095318" address="1500 block Brighton Rd" type="OFFENSE" age="" gender="" description="*********************************************** &lt;br/&gt;9124, Drug Investigation&lt;br/&gt;"/><marker lat="40.414309475534907" lng="-79.990557634779719" zone="Zone 3" incidentdate="2016-05-24" incidenttime="03:00:00" incidentnumber="16094854" address="200 block Bausman St" type="OFFENSE" age="" gender="" description="*********************************************** &lt;br/&gt;5503(a)(4), DISORDERLY CONDUCT - HAZARDOUS/PHYS. OFF&lt;br/&gt;"/><marker lat="40.457236785072851" lng="-80.000037384604653" zone="Zone 1" incidentdate="2016-05-24" incidenttime="17:49:00" incidentnumber="16095290" address="1200 block Middle St" type="OFFENSE" age="" gender="" description="*********************************************** &lt;br/&gt;3745, Accidents Involving Damage to Unattended Veh.or Prop.&lt;br/&gt;"/><marker lat="40.44892750810147" lng="-79.90527733368387" zone="Zone 4" incidentdate="2016-05-24" incidenttime="08:00:00" incidentnumber="16095018" address="100 block N Lang Ave" type="OFFENSE" age="" gender="" description="*********************************************** &lt;br/&gt;3745, Accidents Involving Damage to Unattended Veh.or Prop.&lt;br/&gt;"/><marker lat="40.427572615987401" lng="-79.92812988052242" zone="Zone 4" incidentdate="2016-05-24" incidenttime="12:00:00" incidentnumber="16095066" address="3700 block Beechwood Blvd" type="OFFENSE" age="" gender="" description="*********************************************** &lt;br/&gt;9496, Dead on Arrival (DOA)&lt;br/&gt;"/><marker lat="40.4471653" lng="-80.0523328" zone="Zone 6" incidentdate="2016-05-24" incidenttime="18:26:00" incidentnumber="16095321" address="1500 block Crucible St" type="OFFENSE" age="" gender="" description="*********************************************** &lt;br/&gt;2709(a), Harassment.&lt;br/&gt;"/><marker lat="40.444053049704536" lng="-80.036622381710984" zone="Zone 6" incidentdate="2016-05-24" incidenttime="21:21:00" incidentnumber="16095440" address="200 block Fairview Ave" type="OFFENSE" age="" gender="" description="*********************************************** &lt;br/&gt;029, Missing Juvenile&lt;br/&gt;"/><marker lat="40.473385482509244" lng="-80.030779355600146" zone="Zone 1" incidentdate="2016-05-24" incidenttime="01:05:00" incidentnumber="16094778" address="3100 block Frederick St" type="OFFENSE" age="" gender="" description="*********************************************** &lt;br/&gt;9492, Dog Bite&lt;br/&gt;"/><marker lat="40.421511012664602" lng="-79.995485385467873" zone="Zone 3" incidentdate="2016-05-24" incidenttime="12:00:00" incidentnumber="16095075" address="700 block Warrinton Ave" type="OFFENSE" age="" gender="" description="*********************************************** &lt;br/&gt;9999, 9999 - (Misc. Incident):&lt;br/&gt;"/><marker lat="40.457708930211595" lng="-79.935327377456005" zone="Zone 5" incidentdate="2016-05-24" incidenttime="08:15:00" incidentnumber="16094990" address="5600 block Baum Blvd" type="OFFENSE" age="" gender="" description="*********************************************** &lt;br/&gt;3701, Robbery.&lt;br/&gt;2701(a)(3), Simple Assault - Attempts by Physical Menace&lt;br/&gt;"/><marker lat="40.419421352718459" lng="-79.987700562273858" zone="Zone 3" incidentdate="2016-05-24" incidenttime="17:00:00" incidentnumber="16095413" address="S 18th St" type="OFFENSE" age="" gender="" description="*********************************************** &lt;br/&gt;3921, Theft by Unlawful Taking or Disposition.&lt;br/&gt;"/><marker lat="40.43613571442409" lng="-79.998995831756133" zone="Zone 2" incidentdate="2016-05-24" incidenttime="22:01:00" incidentnumber="16095460" address="Grant St &amp; Fort Pitt Blvd" type="OFFENSE" age="" gender="" description="*********************************************** &lt;br/&gt;13(a)(32), Paraphernalia - Use or Possession&lt;br/&gt;1501, Drivers Required to be Licensed.&lt;br/&gt;3802(a)(1), DUI - General Impairment&lt;br/&gt;3802(c), DUI - Highest Rate of Alcohol - BAC &gt;= .16%&lt;br/&gt;3714, Careless Driving&lt;br/&gt;3112, Traffic-Control Signals.&lt;br/&gt;"/><marker lat="40.38515772475057" lng="-79.995148189584569" zone="Zone 3" incidentdate="2016-05-24" incidenttime="13:00:00" incidentnumber="16095108" address="2400 block Saw Mill Run Blvd" type="OFFENSE" age="" gender="" description="*********************************************** &lt;br/&gt;3503(b)(1)(i), Actual Communication&lt;br/&gt;"/><marker lat="40.419549183995024" lng="-79.993617873536905" zone="Zone 3" incidentdate="2016-05-24" incidenttime="15:00:00" incidentnumber="16095191" address="Allen St" type="OFFENSE" age="" gender="" description="*********************************************** &lt;br/&gt;3745, Accidents Involving Damage to Unattended Veh.or Prop.&lt;br/&gt;"/><marker lat="40.455863850234607" lng="-80.002165995755718" zone="Zone 1" incidentdate="2016-05-24" incidenttime="16:04:00" incidentnumber="16095210" address="1000 block Cedar Ave" type="OFFENSE" age="" gender="" description="*********************************************** &lt;br/&gt;9488, False  Burglar Alarm&lt;br/&gt;"/><marker lat="40.4393734" lng="-79.9684101" zone="Zone 2" incidentdate="2016-05-24" incidenttime="14:10:00" incidentnumber="16095113" address="200 block Oak Hill Dr" type="OFFENSE" age="" gender="" description="*********************************************** &lt;br/&gt;9093, Indirect Criminal Contempt&lt;br/&gt;"/><marker lat="40.421531877189601" lng="-79.993577564166102" zone="Zone 3" incidentdate="2016-05-24" incidenttime="14:30:00" incidentnumber="16094627" address="800 block E Warrington Ave" type="OFFENSE" age="" gender="" description="*********************************************** &lt;br/&gt;13(a)(16), Possession of Controlled Substance&lt;br/&gt;13(a)(30), Possession w/ Intent to Del. Controlled Substance&lt;br/&gt;13(a)(30)*, Delivery of Controlled Substance&lt;br/&gt;7512, Criminal Use of Communication&lt;br/&gt;"/><marker lat="40.452993055983015" lng="-79.887157686463098" zone="Zone 5" incidentdate="2016-05-24" incidenttime="10:17:00" incidentnumber="16095055" address="7800 block Kelly St" type="OFFENSE" age="" gender="" description="*********************************************** &lt;br/&gt;9501, Bench Warrant&lt;br/&gt;"/><marker lat="40.438219522469147" lng="-80.034614263575634" zone="Zone 6" incidentdate="2016-05-24" incidenttime="16:55:00" incidentnumber="16095247" address="100 block Wabash St" type="OFFENSE" age="" gender="" description="*********************************************** &lt;br/&gt;029, Missing Juvenile&lt;br/&gt;"/><marker lat="40.421647870695793" lng="-79.997400077748267" zone="Zone 3" incidentdate="2016-05-24" incidenttime="18:34:00" incidentnumber="16095332" address="Beltzhoover Ave &amp; E Warrington Ave" type="OFFENSE" age="" gender="" description="*********************************************** &lt;br/&gt;9999, 9999 - (Misc. Incident):&lt;br/&gt;"/><marker lat="40.454067145548059" lng="-79.927460449100622" zone="Zone 4" incidentdate="2016-05-24" incidenttime="06:30:00" incidentnumber="16094907" address="5900 block Elwood St" type="OFFENSE" age="" gender="" description="*********************************************** &lt;br/&gt;3934, Theft from Vehicle&lt;br/&gt;"/><marker lat="40.38752306889517" lng="-80.011589025254864" zone="Zone 6" incidentdate="2016-05-24" incidenttime="14:53:00" incidentnumber="16095166" address="1600 block Chelton Ave" type="OFFENSE" age="" gender="" description="*********************************************** &lt;br/&gt;9496, Dead on Arrival (DOA)&lt;br/&gt;"/><marker lat="40.45466502689699" lng="-80.045514685684182" zone="Zone 6" incidentdate="2016-05-24" incidenttime="17:00:00" incidentnumber="16095320" address="2600 block Glasgow St" type="OFFENSE" age="" gender="" description="*********************************************** &lt;br/&gt;9999, 9999 - (Misc. Incident):&lt;br/&gt;"/><marker lat="40.4406248" lng="-79.9958864" zone="Zone 4" incidentdate="2016-05-24" incidenttime="17:05:00" incidentnumber="16095333" address="2nd Ave &amp; Hot Metal St Brg" type="OFFENSE" age="" gender="" description="*********************************************** &lt;br/&gt;3743, Accidents Involving Damage to Attended Veh. or Property&lt;br/&gt;"/><marker lat="40.4465130866515" lng="-80.037158834926501" zone="Zone 6" incidentdate="2016-05-24" incidenttime="20:00:00" incidentnumber="16095390" address="400 block Lorenz Ave" type="OFFENSE" age="" gender="" description="*********************************************** &lt;br/&gt;2709, Harassment (Non-Specific)&lt;br/&gt;"/><marker lat="40.428131277738437" lng="-79.980832811884397" zone="Zone 3" incidentdate="2016-05-24" incidenttime="20:00:00" incidentnumber="16095408" address="100 block S 18th St" type="OFFENSE" age="" gender="" description="*********************************************** &lt;br/&gt;9489, Found Property&lt;br/&gt;"/><marker lat="40.428027717038823" lng="-80.066420128286993" zone="Zone 6" incidentdate="2016-05-24" incidenttime="21:00:00" incidentnumber="16095439" address="Oakwood Rd" type="OFFENSE" age="" gender="" description="*********************************************** &lt;br/&gt;2701(a)(1), Simple Assault - Intent., Know., Reckless.Cause Bod. Injury&lt;br/&gt;"/><marker lat="40.459241184494772" lng="-80.005548013998464" zone="Zone 1" incidentdate="2016-05-24" incidenttime="17:39:00" incidentnumber="16095281" address="1600 block Sandusky Ct" type="OFFENSE" age="" gender="" description="*********************************************** &lt;br/&gt;13(a)(31), Marijuana: Possession Small Amount&lt;br/&gt;3503(b)(1)(i), Actual Communication&lt;br/&gt;"/><marker lat="40.396551153721404" lng="-79.984765185820294" zone="Zone 3" incidentdate="2016-05-24" incidenttime="17:55:00" incidentnumber="16095299" address="200 block Poplargrove St" type="OFFENSE" age="" gender="" description="*********************************************** &lt;br/&gt;2709, Harassment (Non-Specific)&lt;br/&gt;"/><marker lat="40.472582782653994" lng="-80.011101209396486" zone="Zone 1" incidentdate="2016-05-24" incidenttime="12:00:00" incidentnumber="16095078" address="2700 block Ellis St" type="OFFENSE" age="" gender="" description="*********************************************** &lt;br/&gt;3502, Burglary.&lt;br/&gt;"/><marker lat="40.455825321690654" lng="-79.96595386662618" zone="Zone 2" incidentdate="2016-05-24" incidenttime="01:33:00" incidentnumber="16094795" address="3300 block Bigelow Blvd" type="OFFENSE" age="" gender="" description="*********************************************** &lt;br/&gt;13(a)(31), Marijuana: Possession Small Amount&lt;br/&gt;1543, Driving While Operating Privilege is Suspended or Revoked.&lt;br/&gt;4703, Operation of Vehicle without Official Certif. of Inspection&lt;br/&gt;3362, Maximum Speed Limits.&lt;br/&gt;"/><marker lat="40.3890199" lng="-79.9633905" zone="Zone OSC" incidentdate="2016-05-24" incidenttime="16:00:00" incidentnumber="16095216" address="1000 block Glass Run Rd" type="OFFENSE" age="" gender="" description="*********************************************** &lt;br/&gt;3921(a), Theft by Unlawful Taking or Disposition - Movable item&lt;br/&gt;4106, Access Device Fraud&lt;br/&gt;"/><marker lat="40.421821897112089" lng="-80.010299848912638" zone="Zone 3" incidentdate="2016-05-24" incidenttime="20:06:00" incidentnumber="16095397" address="200 block Lelia St" type="OFFENSE" age="" gender="" description="*********************************************** &lt;br/&gt;3304, Criminal Mischief.&lt;br/&gt;3302, Causing or Risking Catastrophe.&lt;br/&gt;3301, Arson&lt;br/&gt;"/><marker lat="40.473582473737856" lng="-80.029794879089607" zone="Zone 1" incidentdate="2016-05-24" incidenttime="16:33:00" incidentnumber="16095233" address="3100 block Wadlow St" type="OFFENSE" age="" gender="" description="*********************************************** &lt;br/&gt;9488, False  Burglar Alarm&lt;br/&gt;"/><marker lat="40.397123531939101" lng="-79.9881756213681" zone="Zone 3" incidentdate="2016-05-24" incidenttime="15:30:00" incidentnumber="16095309" address="1800 block Brownsville Rd" type="OFFENSE" age="" gender="" description="*********************************************** &lt;br/&gt;3921(a), Theft by Unlawful Taking or Disposition - Movable item&lt;br/&gt;"/><marker lat="40.445306262274144" lng="-79.976235568682668" zone="Zone 2" incidentdate="2016-05-24" incidenttime="18:33:00" incidentnumber="16095301" address="Centre Ave &amp; Kirkpatrick St" type="OFFENSE" age="" gender="" description="*********************************************** &lt;br/&gt;13(a)(32), Paraphernalia - Use or Possession&lt;br/&gt;4910, Tampering with or Fabricating Physical Evidence.&lt;br/&gt;5503, Disorderly Conduct.&lt;br/&gt;"/><marker lat="40.477889228323242" lng="-80.017710420228042" zone="Zone 1" incidentdate="2016-05-24" incidenttime="06:30:00" incidentnumber="16094906" address="Riverview Park" type="OFFENSE" age="" gender="" description="*********************************************** &lt;br/&gt;3502, Burglary.&lt;br/&gt;"/><marker lat="40.482879021356389" lng="-80.04453300763744" zone="Zone 1" incidentdate="2016-05-24" incidenttime="13:00:00" incidentnumber="16087063" address="2000 block Termon Ave" type="OFFENSE" age="" gender="" description="*********************************************** &lt;br/&gt;029, Missing Juvenile&lt;br/&gt;"/><marker lat="40.453361003346977" lng="-79.958014229001819" zone="Zone 2" incidentdate="2016-05-24" incidenttime="20:01:00" incidentnumber="16095387" address="3500 block Camp St" type="OFFENSE" age="" gender="" description="*********************************************** &lt;br/&gt;3304, Criminal Mischief.&lt;br/&gt;"/><marker lat="40.441851400929977" lng="-80.048579053490229" zone="Zone 6" incidentdate="2016-05-24" incidenttime="23:09:00" incidentnumber="16095486" address="1300 block Steuben St" type="OFFENSE" age="" gender="" description="*********************************************** &lt;br/&gt;2501, Criminal Homicide.&lt;br/&gt;"/><marker lat="40.473458083797311" lng="-79.923313472062361" zone="Zone 5" incidentdate="2016-05-24" incidenttime="18:30:00" incidentnumber="16095330" address="5700 block Wellesley Ave" type="OFFENSE" age="" gender="" description="*********************************************** &lt;br/&gt;2709(a), Harassment.&lt;br/&gt;"/><marker lat="40.438002713939021" lng="-79.977529599564193" zone="Zone 4" incidentdate="2016-05-24" incidenttime="08:30:00" incidentnumber="16094943" address="2000 block 5th Ave" type="OFFENSE" age="" gender="" description="*********************************************** &lt;br/&gt;3921, Theft by Unlawful Taking or Disposition.&lt;br/&gt;"/><marker lat="40.485070104693577" lng="-79.946015671800723" zone="Zone 5" incidentdate="2016-05-24" incidenttime="08:47:00" incidentnumber="16094955" address="5700 block Butler St" type="OFFENSE" age="" gender="" description="*********************************************** &lt;br/&gt;3921(a), Theft by Unlawful Taking or Disposition - Movable item&lt;br/&gt;"/><marker lat="40.477665943852287" lng="-79.92076056121121" zone="Zone 5" incidentdate="2016-05-24" incidenttime="10:30:00" incidentnumber="16095032" address="5700 block Callowhill St" type="OFFENSE" age="" gender="" description="*********************************************** &lt;br/&gt;4120, Identity Theft&lt;br/&gt;"/><marker lat="40.45969047652752" lng="-80.029525450252436" zone="Zone 1" incidentdate="2016-05-24" incidenttime="20:00:00" incidentnumber="16095435" address="Hoffman St &amp; Knott St" type="OFFENSE" age="" gender="" description="*********************************************** &lt;br/&gt;9489, Found Property&lt;br/&gt;"/><marker lat="40.438801706740989" lng="-79.990846918992844" zone="Zone 2" incidentdate="2016-05-24" incidenttime="15:30:00" incidentnumber="16095286" address="5th Ave &amp; Washington Pl" type="OFFENSE" age="" gender="" description="*********************************************** &lt;br/&gt;3934, Theft from Vehicle&lt;br/&gt;"/><marker lat="40.45466502689699" lng="-80.045514685684182" zone="Zone 6" incidentdate="2016-05-24" incidenttime="19:00:00" incidentnumber="16095287" address="2600 block Glasgow St" type="OFFENSE" age="" gender="" description="*********************************************** &lt;br/&gt;3934, Theft from Vehicle&lt;br/&gt;"/><marker lat="40.440697119948119" lng="-80.003946068250272" zone="Zone 2" incidentdate="2016-05-24" incidenttime="00:18:00" incidentnumber="16094753" address="100 block Forbes Ave" type="OFFENSE" age="" gender="" description="*********************************************** &lt;br/&gt;9497, Aided Case&lt;br/&gt;"/><marker lat="40.453470511792048" lng="-80.001533243378148" zone="Zone 1" incidentdate="2016-05-24" incidenttime="01:19:00" incidentnumber="16094785" address="400 block East Ohio St" type="OFFENSE" age="" gender="" description="*********************************************** &lt;br/&gt;9488, False  Burglar Alarm&lt;br/&gt;"/><marker lat="40.449181299643776" lng="-79.901316350637387" zone="Zone 4" incidentdate="2016-05-24" incidenttime="16:09:00" incidentnumber="16095214" address="Penn Ave &amp; N Homewood Ave" type="OFFENSE" age="" gender="" description="*********************************************** &lt;br/&gt;4910, Tampering with or Fabricating Physical Evidence.&lt;br/&gt;3809(a), Restriction on Alcoholic Beverages in Vehicle&lt;br/&gt;"/><marker lat="40.3900637" lng="-79.9903681" zone="Zone 3" incidentdate="2016-05-24" incidenttime="06:16:00" incidentnumber="16094891" address="2200 block Almont St" type="OFFENSE" age="" gender="" description="*********************************************** &lt;br/&gt;3502, Burglary.&lt;br/&gt;"/><marker lat="40.397123531939101" lng="-79.9881756213681" zone="Zone 3" incidentdate="2016-05-24" incidenttime="17:10:00" incidentnumber="16095319" address="1800 block Brownsville Rd" type="OFFENSE" age="" gender="" description="*********************************************** &lt;br/&gt;3924, Theft of Property Lost, Mislaid or Delivered by Mistake.&lt;br/&gt;"/><marker lat="40.392871479647226" lng="-80.019186485910737" zone="Zone 6" incidentdate="2016-05-24" incidenttime="15:59:00" incidentnumber="16095195" address="900 block Brookline Blvd" type="OFFENSE" age="" gender="" description="*********************************************** &lt;br/&gt;9496, Dead on Arrival (DOA)&lt;br/&gt;"/><marker lat="40.414309475534907" lng="-79.990557634779719" zone="Zone 3" incidentdate="2016-05-24" incidenttime="02:53:00" incidentnumber="16094840" address="200 block Bausman St" type="OFFENSE" age="" gender="" description="*********************************************** &lt;br/&gt;9999, 9999 - (Misc. Incident):&lt;br/&gt;1501, Drivers Required to be Licensed.&lt;br/&gt;1543, Driving While Operating Privilege is Suspended or Revoked.&lt;br/&gt;1574, Permitting Unauthorized Person to Drive.&lt;br/&gt;1785, Proof of Financial Responsibility Following Accident.&lt;br/&gt;"/><marker lat="40.456542939615126" lng="-79.887664136937502" zone="Zone 5" incidentdate="2016-05-24" incidenttime="19:44:00" incidentnumber="16095343" address="1000 block Brushton Ave" type="OFFENSE" age="" gender="" description="*********************************************** &lt;br/&gt;9999, 9999 - (Misc. Incident):&lt;br/&gt;"/><marker lat="40.454074811291946" lng="-80.021051277011892" zone="Zone 1" incidentdate="2016-05-24" incidenttime="08:30:00" incidentnumber="16094948" address="1000 block Sheffield St" type="OFFENSE" age="" gender="" description="*********************************************** &lt;br/&gt;2709(a)(1), Harassment by Physical Contact, or Attempts or Threats&lt;br/&gt;"/><marker lat="40.437694537589067" lng="-79.972643159209809" zone="Zone 2" incidentdate="2016-05-24" incidenttime="03:14:00" incidentnumber="16094842" address="Birmingham Brg &amp; 5th Ave" type="OFFENSE" age="" gender="" description="*********************************************** &lt;br/&gt;9498, 302 (Mental)&lt;br/&gt;"/><marker lat="40.421786260807202" lng="-80.010407390440832" zone="Zone 3" incidentdate="2016-05-24" incidenttime="16:00:00" incidentnumber="16095181" address="600 block Boggs Ave" type="OFFENSE" age="" gender="" description="*********************************************** &lt;br/&gt;9497, Aided Case&lt;br/&gt;"/><marker lat="40.385689717671077" lng="-79.978258312156967" zone="Zone 3" incidentdate="2016-05-24" incidenttime="12:51:00" incidentnumber="16095093" address="2600 block Churchview Ave" type="OFFENSE" age="" gender="" description="*********************************************** &lt;br/&gt;3502, Burglary.&lt;br/&gt;3701, Robbery.&lt;br/&gt;"/><marker lat="40.465621752684946" lng="-79.92940137798729" zone="Zone 5" incidentdate="2016-05-24" incidenttime="00:30:00" incidentnumber="16094761" address="N Negley Ave &amp; Rural St" type="OFFENSE" age="" gender="" description="*********************************************** &lt;br/&gt;3701, Robbery.&lt;br/&gt;"/><marker lat="40.475639774908238" lng="-80.030763711820484" zone="Zone 1" incidentdate="2016-05-24" incidenttime="14:43:00" incidentnumber="16095193" address="3200 block Brighton Rd" type="OFFENSE" age="" gender="" description="*********************************************** &lt;br/&gt;3929, Retail Theft.&lt;br/&gt;"/><marker lat="40.46184182208286" lng="-79.937611431319027" zone="Zone 5" incidentdate="2016-05-24" incidenttime="07:27:00" incidentnumber="16094913" address="5400 block Friendship Ave" type="OFFENSE" age="" gender="" description="*********************************************** &lt;br/&gt;3921, Theft by Unlawful Taking or Disposition.&lt;br/&gt;"/><marker lat="40.43007247445037" lng="-80.053908499092216" zone="Zone 6" incidentdate="2016-05-24" incidenttime="22:45:00" incidentnumber="16095479" address="2200 block Noblestown Rd" type="OFFENSE" age="" gender="" description="*********************************************** &lt;br/&gt;3701, Robbery.&lt;br/&gt;"/><marker lat="40.421930837424696" lng="-79.962761080771699" zone="Zone 3" incidentdate="2016-05-24" incidenttime="07:20:00" incidentnumber="16095365" address="2000 block Jane St" type="OFFENSE" age="" gender="" description="*********************************************** &lt;br/&gt;3745, Accidents Involving Damage to Unattended Veh.or Prop.&lt;br/&gt;"/><marker lat="40.454037290922265" lng="-79.912423615195806" zone="Zone 4" incidentdate="2016-05-24" incidenttime="12:36:00" incidentnumber="16095070" address="penn Ave &amp; 5th Ave" type="OFFENSE" age="" gender="" description="*********************************************** &lt;br/&gt;9501, Bench Warrant&lt;br/&gt;"/><marker lat="40.456129468098958" lng="-80.005653454006023" zone="Zone 1" incidentdate="2016-05-24" incidenttime="09:00:00" incidentnumber="16095020" address="1200 block Boyle St" type="OFFENSE" age="" gender="" description="*********************************************** &lt;br/&gt;3304, Criminal Mischief.&lt;br/&gt;3503, Criminal Trespass&lt;br/&gt;"/><marker lat="40.482386011855226" lng="-80.00290703640357" zone="Zone 1" incidentdate="2016-05-24" incidenttime="15:29:00" incidentnumber="16095185" address="300 block Mt Pleasant Rd" type="OFFENSE" age="" gender="" description="*********************************************** &lt;br/&gt;9999, 9999 - (Misc. Incident):&lt;br/&gt;"/><marker lat="40.42346132959193" lng="-79.977703832721545" zone="Zone 3" incidentdate="2016-05-24" incidenttime="08:00:00" incidentnumber="16094933" address="S 18th St &amp; Gregory St" type="OFFENSE" age="" gender="" description="*********************************************** &lt;br/&gt;3745, Accidents Involving Damage to Unattended Veh.or Prop.&lt;br/&gt;"/><marker lat="40.404822944398759" lng="-79.934938582152668" zone="Zone 4" incidentdate="2016-05-24" incidenttime="00:15:00" incidentnumber="16094748" address="600 block Johnston Ave" type="OFFENSE" age="" gender="" description="*********************************************** &lt;br/&gt;029, Missing Juvenile&lt;br/&gt;"/><marker lat="40.408859147762882" lng="-79.93835842196431" zone="Zone 4" incidentdate="2016-05-24" incidenttime="20:15:00" incidentnumber="16095406" address="5000 block Ampere St" type="OFFENSE" age="" gender="" description="*********************************************** &lt;br/&gt;2701, Simple Assault.&lt;br/&gt;"/><marker lat="40.456515048695316" lng="-80.016515559088219" zone="Zone 1" incidentdate="2016-05-24" incidenttime="18:00:00" incidentnumber="16095317" address="1500 block Brighton Rd" type="OFFENSE" age="" gender="" description="*********************************************** &lt;br/&gt;9124, Drug Investigation&lt;br/&gt;"/><marker lat="40.440853258494826" lng="-79.973948477918739" zone="Zone 4" incidentdate="2016-05-24" incidenttime="22:15:00" incidentnumber="16095458" address="Kirkpatrick St &amp; Bentley Dr" type="OFFENSE" age="" gender="" description="*********************************************** &lt;br/&gt;13(a)(16), Possession of Controlled Substance&lt;br/&gt;13(a)(30), Possession w/ Intent to Del. Controlled Substance&lt;br/&gt;13(a)(31), Marijuana: Possession Small Amount&lt;br/&gt;13(a)(32), Paraphernalia - Use or Possession&lt;br/&gt;1543, Driving While Operating Privilege is Suspended or Revoked.&lt;br/&gt;3323, Stop Signs and Yield Signs.&lt;br/&gt;"/><marker lat="40.428382669379467" lng="-80.068005422090536" zone="Zone 6" incidentdate="2016-05-24" incidenttime="06:00:00" incidentnumber="16095001" address="100 block Balver Ave" type="OFFENSE" age="" gender="" description="*********************************************** &lt;br/&gt;3745, Accidents Involving Damage to Unattended Veh.or Prop.&lt;br/&gt;"/><marker lat="40.459241184494772" lng="-80.005548013998464" zone="Zone 1" incidentdate="2016-05-24" incidenttime="17:53:00" incidentnumber="16095307" address="1600 block Sandusky Ct" type="OFFENSE" age="" gender="" description="*********************************************** &lt;br/&gt;13(a)(16), Possession of Controlled Substance&lt;br/&gt;13(a)(32), Paraphernalia - Use or Possession&lt;br/&gt;"/><marker lat="40.445506184299511" lng="-79.978998857397144" zone="Zone 2" incidentdate="2016-05-24" incidenttime="18:30:00" incidentnumber="15095353" address="Trent St" type="OFFENSE" age="" gender="" description="*********************************************** &lt;br/&gt;2709(a)(5), Harassment Communicates Repeatedly in Anonymous Manner&lt;br/&gt;"/><marker lat="40.4552494" lng="-79.9506930" zone="Zone 3" incidentdate="2016-05-24" incidenttime="17:14:00" incidentnumber="16095266" address="Saw Mill Run Blvd Ramp &amp; West Liberty Ave Ramp" type="OFFENSE" age="" gender="" description="*********************************************** &lt;br/&gt;3743, Accidents Involving Damage to Attended Veh. or Property&lt;br/&gt;"/><marker lat="40.463451043977862" lng="-80.013184837156714" zone="Zone 1" incidentdate="2016-05-24" incidenttime="05:30:00" incidentnumber="16094960" address="2000 block Perrysville Ave" type="OFFENSE" age="" gender="" description="*********************************************** &lt;br/&gt;9999, 9999 - (Misc. Incident):&lt;br/&gt;"/><marker lat="40.411124027831086" lng="-79.979471722977692" zone="Zone 3" incidentdate="2016-05-24" incidenttime="00:01:00" incidentnumber="16095274" address="500 block Fisher St" type="OFFENSE" age="" gender="" description="*********************************************** &lt;br/&gt;9504, Lost Property&lt;br/&gt;"/><marker lat="40.439379016095707" lng="-80.001301554130308" zone="Zone 2" incidentdate="2016-05-24" incidenttime="16:57:00" incidentnumber="16095249" address="4th Ave &amp; Wood St" type="OFFENSE" age="" gender="" description="*********************************************** &lt;br/&gt;5104, Resisting Arrest or Other Law Enforcement.&lt;br/&gt;2702, Aggravated Assault.&lt;br/&gt;5101, Obstructing Admin. of Law&lt;br/&gt;903, Criminal Conspiracy.&lt;br/&gt;5121, Escape.&lt;br/&gt;5503(a)(1), DISORDERLY CONDUCT - ENGAGE IN FIGHTING&lt;br/&gt;2905, Interference with Custody of Committed Persons.&lt;br/&gt;"/><marker lat="40.4404627" lng="-80.0536390" zone="Zone 6" incidentdate="2016-05-24" incidenttime="07:00:00" incidentnumber="16095234" address="1500 block Norwalk St" type="OFFENSE" age="" gender="" description="*********************************************** &lt;br/&gt;3921, Theft by Unlawful Taking or Disposition.&lt;br/&gt;"/><marker lat="40.439379016095707" lng="-80.001301554130308" zone="Zone 2" incidentdate="2016-05-24" incidenttime="16:57:00" incidentnumber="16095249" address="4th Ave &amp; Wood St" type="ARREST" age="28" gender="F" description="*********************************************** &lt;br/&gt;5104, Resisting Arrest or Other Law Enforcement.&lt;br/&gt;2702, Aggravated Assault.&lt;br/&gt;5101, Obstructing Admin. of Law&lt;br/&gt;903, Criminal Conspiracy.&lt;br/&gt;5121, Escape.&lt;br/&gt;5503(a)(1), DISORDERLY CONDUCT - ENGAGE IN FIGHTING&lt;br/&gt;2905, Interference with Custody of Committed Persons.&lt;br/&gt;"/><marker lat="40.459241184494772" lng="-80.005548013998464" zone="Zone 1" incidentdate="2016-05-24" incidenttime="17:53:00" incidentnumber="16095307" address="1600 block Sandusky Ct" type="ARREST" age="37" gender="F" description="*********************************************** &lt;br/&gt;13(a)(16), Possession of Controlled Substance&lt;br/&gt;13(a)(32), Paraphernalia - Use or Possession&lt;br/&gt;"/><marker lat="40.459241184494772" lng="-80.005548013998464" zone="Zone 1" incidentdate="2016-05-24" incidenttime="17:39:00" incidentnumber="16095281" address="1600 block Sandusky Ct" type="ARREST" age="22" gender="M" description="*********************************************** &lt;br/&gt;13(a)(31), Marijuana: Possession Small Amount&lt;br/&gt;3503(b)(1)(i), Actual Communication&lt;br/&gt;"/><marker lat="40.4402966" lng="-80.0069485" zone="Zone 2" incidentdate="2016-05-24" incidenttime="10:53:00" incidentnumber="16048087" address="Commonwealth Pl &amp; Blvd of Allies" type="ARREST" age="38" gender="M" description="*********************************************** &lt;br/&gt;3921(a), Theft by Unlawful Taking or Disposition - Movable item&lt;br/&gt;9015, Failure To Appear/Arrest on Attachment Order&lt;br/&gt;"/><marker lat="40.445306262274144" lng="-79.976235568682668" zone="Zone 2" incidentdate="2016-05-24" incidenttime="18:03:00" incidentnumber="16095301" address="Centre Ave &amp; Kirkpatrick St" type="ARREST" age="67" gender="M" description="*********************************************** &lt;br/&gt;13(a)(32), Paraphernalia - Use or Possession&lt;br/&gt;4910, Tampering with or Fabricating Physical Evidence.&lt;br/&gt;5503, Disorderly Conduct.&lt;br/&gt;"/><marker lat="40.459241184494772" lng="-80.005548013998464" zone="Zone 1" incidentdate="2016-05-24" incidenttime="17:53:00" incidentnumber="16095307" address="1600 block Sandusky Ct" type="ARREST" age="28" gender="M" description="*********************************************** &lt;br/&gt;13(a)(16), Possession of Controlled Substance&lt;br/&gt;13(a)(32), Paraphernalia - Use or Possession&lt;br/&gt;"/><marker lat="40.445306262274144" lng="-79.976235568682668" zone="Zone 2" incidentdate="2016-05-24" incidenttime="18:03:00" incidentnumber="16095301" address="Centre Ave &amp; Kirkpatrick St" type="ARREST" age="59" gender="M" description="*********************************************** &lt;br/&gt;13(a)(32), Paraphernalia - Use or Possession&lt;br/&gt;4910, Tampering with or Fabricating Physical Evidence.&lt;br/&gt;5503, Disorderly Conduct.&lt;br/&gt;"/><marker lat="40.4291077" lng="-79.9992410" zone="Zone 3" incidentdate="2016-05-24" incidenttime="04:40:00" incidentnumber="16083974" address="Liberty Brg &amp; P J Mc Ardle Rdwy" type="ARREST" age="20" gender="F" description="*********************************************** &lt;br/&gt;6308(a), Underage Purchase, Consume, Possessed or Transport Liquor&lt;br/&gt;2705, Recklessly Endangering Another Person.&lt;br/&gt;3736, Reckless Driving&lt;br/&gt;3802(a)(1), DUI - General Impairment&lt;br/&gt;3802(c), DUI - Highest Rate of Alcohol - BAC &gt;= .16%&lt;br/&gt;"/><marker lat="40.439379016095707" lng="-80.001301554130308" zone="Zone 2" incidentdate="2016-05-24" incidenttime="17:05:00" incidentnumber="16095249" address="4th Ave &amp; Wood St" type="ARREST" age="22" gender="F" description="*********************************************** &lt;br/&gt;5104, Resisting Arrest or Other Law Enforcement.&lt;br/&gt;2702, Aggravated Assault.&lt;br/&gt;5101, Obstructing Admin. of Law&lt;br/&gt;903, Criminal Conspiracy.&lt;br/&gt;5121, Escape.&lt;br/&gt;5503(a)(1), DISORDERLY CONDUCT - ENGAGE IN FIGHTING&lt;br/&gt;2905, Interference with Custody of Committed Persons.&lt;br/&gt;"/><marker lat="40.440853258494826" lng="-79.973948477918739" zone="Zone 4" incidentdate="2016-05-24" incidenttime="22:15:00" incidentnumber="16095458" address="Kirkpatrick St &amp; Bentley Dr" type="ARREST" age="25" gender="M" description="*********************************************** &lt;br/&gt;13(a)(16), Possession of Controlled Substance&lt;br/&gt;13(a)(30), Possession w/ Intent to Del. Controlled Substance&lt;br/&gt;13(a)(31), Marijuana: Possession Small Amount&lt;br/&gt;13(a)(32), Paraphernalia - Use or Possession&lt;br/&gt;1543, Driving While Operating Privilege is Suspended or Revoked.&lt;br/&gt;3323, Stop Signs and Yield Signs.&lt;br/&gt;"/><marker lat="40.428585203983602" lng="-79.981869007680203" zone="Zone 3" incidentdate="2016-05-24" incidenttime="10:20:00" incidentnumber="16094276" address="1700 block E Carson St" type="ARREST" age="23" gender="M" description="*********************************************** &lt;br/&gt;5104, Resisting Arrest or Other Law Enforcement.&lt;br/&gt;5505, Public Drunkenness&lt;br/&gt;3503.B1I, DEF. TRESPASS ACTUAL COMMUNICATION&lt;br/&gt;"/><marker lat="40.454037290922265" lng="-79.912423615195806" zone="Zone 4" incidentdate="2016-05-24" incidenttime="12:36:00" incidentnumber="16095070" address="penn Ave &amp; 5th Ave" type="ARREST" age="30" gender="M" description="*********************************************** &lt;br/&gt;9501, Bench Warrant&lt;br/&gt;"/><marker lat="40.452993055983015" lng="-79.887157686463098" zone="Zone 5" incidentdate="2016-05-24" incidenttime="10:38:00" incidentnumber="16095055" address="7800 block Kelly St" type="ARREST" age="34" gender="F" description="*********************************************** &lt;br/&gt;9501, Bench Warrant&lt;br/&gt;"/><marker lat="40.455825321690654" lng="-79.96595386662618" zone="Zone 2" incidentdate="2016-05-24" incidenttime="01:33:00" incidentnumber="16094795" address="3300 block Bigelow Blvd" type="ARREST" age="26" gender="M" description="*********************************************** &lt;br/&gt;13(a)(31), Marijuana: Possession Small Amount&lt;br/&gt;1543, Driving While Operating Privilege is Suspended or Revoked.&lt;br/&gt;4703, Operation of Vehicle without Official Certif. of Inspection&lt;br/&gt;3362, Maximum Speed Limits.&lt;br/&gt;"/><marker lat="40.43613571442409" lng="-79.998995831756133" zone="Zone 2" incidentdate="2016-05-24" incidenttime="22:11:00" incidentnumber="16095460" address="Grant St &amp; Fort Pitt Blvd" type="ARREST" age="51" gender="M" description="*********************************************** &lt;br/&gt;13(a)(32), Paraphernalia - Use or Possession&lt;br/&gt;1501, Drivers Required to be Licensed.&lt;br/&gt;3802(a)(1), DUI - General Impairment&lt;br/&gt;3802(c), DUI - Highest Rate of Alcohol - BAC &gt;= .16%&lt;br/&gt;3714, Careless Driving&lt;br/&gt;3112, Traffic-Control Signals.&lt;br/&gt;"/><marker lat="40.421821897112089" lng="-80.010299848912638" zone="Zone 3" incidentdate="2016-05-24" incidenttime="20:45:00" incidentnumber="16095397" address="200 block Lelia St" type="ARREST" age="26" gender="M" description="*********************************************** &lt;br/&gt;3304, Criminal Mischief.&lt;br/&gt;3302, Causing or Risking Catastrophe.&lt;br/&gt;3301, Arson&lt;br/&gt;"/><marker lat="40.440853258494826" lng="-79.973948477918739" zone="Zone 4" incidentdate="2016-05-24" incidenttime="22:15:00" incidentnumber="16095458" address="Kirkpatrick St &amp; Bentley Dr" type="ARREST" age="21" gender="M" description="*********************************************** &lt;br/&gt;13(a)(16), Possession of Controlled Substance&lt;br/&gt;13(a)(30), Possession w/ Intent to Del. Controlled Substance&lt;br/&gt;13(a)(31), Marijuana: Possession Small Amount&lt;br/&gt;13(a)(32), Paraphernalia - Use or Possession&lt;br/&gt;1543, Driving While Operating Privilege is Suspended or Revoked.&lt;br/&gt;3323, Stop Signs and Yield Signs.&lt;br/&gt;"/><marker lat="40.421531877189601" lng="-79.993577564166102" zone="Zone 3" incidentdate="2016-05-24" incidenttime="14:30:00" incidentnumber="16094627" address="800 block E Warrington Ave" type="ARREST" age="29" gender="M" description="*********************************************** &lt;br/&gt;13(a)(16), Possession of Controlled Substance&lt;br/&gt;13(a)(30), Possession w/ Intent to Del. Controlled Substance&lt;br/&gt;13(a)(30)*, Delivery of Controlled Substance&lt;br/&gt;7512, Criminal Use of Communication&lt;br/&gt;"/><marker lat="40.439379016095707" lng="-80.001301554130308" zone="Zone 2" incidentdate="2016-05-24" incidenttime="16:57:00" incidentnumber="16095249" address="4th Ave &amp; Wood St" type="ARREST" age="" gender="M" description="*********************************************** &lt;br/&gt;5104, Resisting Arrest or Other Law Enforcement.&lt;br/&gt;2702, Aggravated Assault.&lt;br/&gt;5101, Obstructing Admin. of Law&lt;br/&gt;903, Criminal Conspiracy.&lt;br/&gt;5121, Escape.&lt;br/&gt;5503(a)(1), DISORDERLY CONDUCT - ENGAGE IN FIGHTING&lt;br/&gt;2905, Interference with Custody of Committed Persons.&lt;br/&gt;"/><marker lat="40.385689717671077" lng="-79.978258312156967" zone="Zone 3" incidentdate="2016-05-24" incidenttime="12:51:00" incidentnumber="16095093" address="2600 block Churchview Ave" type="ARREST" age="33" gender="M" description="*********************************************** &lt;br/&gt;3502, Burglary.&lt;br/&gt;3701, Robbery.&lt;br/&gt;"/><marker lat="40.428027717038823" lng="-80.066420128286993" zone="Zone 6" incidentdate="2016-05-24" incidenttime="21:50:00" incidentnumber="16095439" address="Oakwood Rd" type="ARREST" age="22" gender="M" description="*********************************************** &lt;br/&gt;2701(a)(1), Simple Assault - Intent., Know., Reckless.Cause Bod. Injury&lt;br/&gt;"/></markers>
