<?xml version="1.0"?>
<markers><marker lat="40.446346164512178" lng="-79.994318011299683" zone="Zone 2" incidentdate="2015-09-29" incidenttime="17:40:00" incidentnumber="15186544" address="11th St" type="OFFENSE" age="" gender="" description="*********************************************** &lt;br/&gt;3503.B1I, DEF. TRESPASS ACTUAL COMMUNICATION&lt;br/&gt;5503, Disorderly Conduct.&lt;br/&gt;"/><marker lat="40.455273086676286" lng="-80.008870414965187" zone="Zone 1" incidentdate="2015-09-29" incidenttime="00:10:00" incidentnumber="15186073" address="200 block North Shore Dr" type="OFFENSE" age="" gender="" description="*********************************************** &lt;br/&gt;3921(a), Theft by Unlawful Taking or Disposition - Movable item&lt;br/&gt;"/><marker lat="40.428746746224945" lng="-79.982646526389246" zone="Zone 3" incidentdate="2015-09-29" incidenttime="13:00:00" incidentnumber="15186362" address="1600 block E Carson St" type="OFFENSE" age="" gender="" description="*********************************************** &lt;br/&gt;3926(a)(4), Theft of services; ACQUISITION OF SERVICES - refusal to pay or offer to pay for a service (hotels and restarants)&lt;br/&gt;"/><marker lat="40.4357950" lng="-79.9815658" zone="Zone 2" incidentdate="2015-09-29" incidenttime="15:00:00" incidentnumber="15186447" address="500 block Miltenberger St" type="OFFENSE" age="" gender="" description="*********************************************** &lt;br/&gt;3745, Accidents Involving Damage to Unattended Veh.or Prop.&lt;br/&gt;"/><marker lat="40.414025346472606" lng="-80.021157289979655" zone="Zone 6" incidentdate="2015-09-29" incidenttime="06:45:00" incidentnumber="15186227" address="Alton St &amp; Andick Way" type="OFFENSE" age="" gender="" description="*********************************************** &lt;br/&gt;9489, Found Property&lt;br/&gt;"/><marker lat="40.472670793251439" lng="-80.010103337691234" zone="Zone 1" incidentdate="2015-09-29" incidenttime="17:20:00" incidentnumber="15186514" address="2700 block Perrysville Ave" type="OFFENSE" age="" gender="" description="*********************************************** &lt;br/&gt;9490, Missing Persons (18 and Over)&lt;br/&gt;"/><marker lat="40.416506722175939" lng="-80.000249681763691" zone="Zone 3" incidentdate="2015-09-29" incidenttime="01:12:00" incidentnumber="15186139" address="400 block Chalfont St" type="OFFENSE" age="" gender="" description="*********************************************** &lt;br/&gt;3745, Accidents Involving Damage to Unattended Veh.or Prop.&lt;br/&gt;"/><marker lat="40.394126558946894" lng="-79.985230393155035" zone="Zone 3" incidentdate="2015-09-29" incidenttime="15:30:00" incidentnumber="15186466" address="100 block Madeline St" type="OFFENSE" age="" gender="" description="*********************************************** &lt;br/&gt;3745, Accidents Involving Damage to Unattended Veh.or Prop.&lt;br/&gt;"/><marker lat="40.456249975527761" lng="-80.00093692366552" zone="Zone 1" incidentdate="2015-09-29" incidenttime="20:00:00" incidentnumber="15186590" address="500 block Tripoli St" type="OFFENSE" age="" gender="" description="*********************************************** &lt;br/&gt;9999, 9999 - (Misc. Incident):&lt;br/&gt;"/><marker lat="40.423701811107328" lng="-79.997552630724996" zone="Zone 3" incidentdate="2015-09-29" incidenttime="15:00:00" incidentnumber="15186508" address="Beltzhoover Ave" type="OFFENSE" age="" gender="" description="*********************************************** &lt;br/&gt;3502, Burglary.&lt;br/&gt;"/><marker lat="40.444369957146044" lng="-80.039692716183538" zone="Zone 6" incidentdate="2015-09-29" incidenttime="00:00:00" incidentnumber="15186056" address="Ainsworth St" type="OFFENSE" age="" gender="" description="*********************************************** &lt;br/&gt;3304, Criminal Mischief.&lt;br/&gt;2709(a), Harassment.&lt;br/&gt;"/><marker lat="40.426782755059683" lng="-79.970135206789706" zone="Zone 3" incidentdate="2015-09-29" incidenttime="14:30:00" incidentnumber="15186520" address="2500 block Sarah St" type="OFFENSE" age="" gender="" description="*********************************************** &lt;br/&gt;3745, Accidents Involving Damage to Unattended Veh.or Prop.&lt;br/&gt;"/><marker lat="40.419755416785335" lng="-80.002263610370221" zone="Zone 3" incidentdate="2015-09-29" incidenttime="00:01:00" incidentnumber="15186510" address="300 block Climax St" type="OFFENSE" age="" gender="" description="*********************************************** &lt;br/&gt;2709(a), Harassment.&lt;br/&gt;"/><marker lat="40.4600940" lng="-79.9238524" zone="Zone 4" incidentdate="2015-09-29" incidenttime="15:00:00" incidentnumber="15186457" address="6300 block Shakespeare St" type="OFFENSE" age="" gender="" description="*********************************************** &lt;br/&gt;3929(a)(1), Retail Theft; takes possession of, carries away, or transfers displayed merchandise&lt;br/&gt;"/><marker lat="40.451921546613278" lng="-79.887659087141799" zone="Zone 5" incidentdate="2015-09-29" incidenttime="10:55:00" incidentnumber="15186316" address="7800 block Mulford St" type="OFFENSE" age="" gender="" description="*********************************************** &lt;br/&gt;3304, Criminal Mischief.&lt;br/&gt;901, Criminal Attempt&lt;br/&gt;"/><marker lat="40.449920330979076" lng="-79.974597253786143" zone="Zone 2" incidentdate="2015-09-29" incidenttime="13:55:00" incidentnumber="15186408" address="2400 block Chauncey Dr" type="OFFENSE" age="" gender="" description="*********************************************** &lt;br/&gt;3701, Robbery.&lt;br/&gt;2705, Recklessly Endangering Another Person.&lt;br/&gt;3502, Burglary.&lt;br/&gt;"/><marker lat="40.405034590189672" lng="-79.94517601664387" zone="Zone 4" incidentdate="2015-09-29" incidenttime="17:30:00" incidentnumber="15186576" address="5200 block Lytle St" type="OFFENSE" age="" gender="" description="*********************************************** &lt;br/&gt;2902, Unlawful Restraint.&lt;br/&gt;13(a)(16), Possession of Controlled Substance&lt;br/&gt;2706, Terroristic Threats.&lt;br/&gt;2701(a)(1), Simple Assault - Intent., Know., Reckless.Cause Bod. Injury&lt;br/&gt;"/><marker lat="40.418113180355292" lng="-79.988290306359971" zone="Zone 3" incidentdate="2015-09-29" incidenttime="14:45:00" incidentnumber="15186434" address="Amanda Ave" type="OFFENSE" age="" gender="" description="*********************************************** &lt;br/&gt;2709, Harassment (Non-Specific)&lt;br/&gt;"/><marker lat="40.396333473457872" lng="-80.00977960038432" zone="Zone 6" incidentdate="2015-09-29" incidenttime="09:35:00" incidentnumber="15186265" address="2300 block Whited St" type="OFFENSE" age="" gender="" description="*********************************************** &lt;br/&gt;2701(a)(3), Simple Assault - Attempts by Physical Menace&lt;br/&gt;3304(a)(5), CRIMINAL MISCHIEF - Intentionally Damages Real Or Personal Property Of Another&lt;br/&gt;3502, Burglary.&lt;br/&gt;2706, Terroristic Threats.&lt;br/&gt;"/><marker lat="40.424215578915053" lng="-79.968373885968475" zone="Zone 3" incidentdate="2015-09-29" incidenttime="06:13:00" incidentnumber="15186192" address="2800 block Mary St" type="OFFENSE" age="" gender="" description="*********************************************** &lt;br/&gt;9496, Dead on Arrival (DOA)&lt;br/&gt;"/><marker lat="40.4288731" lng="-80.0242083" zone="Zone 3" incidentdate="2015-09-29" incidenttime="09:00:00" incidentnumber="15186258" address="Saw Mill Run Blvd &amp; Woodruff St" type="OFFENSE" age="" gender="" description="*********************************************** &lt;br/&gt;3743, Accidents Involving Damage to Attended Veh. or Property&lt;br/&gt;"/><marker lat="40.442995337917743" lng="-80.05265671099248" zone="Zone 6" incidentdate="2015-09-29" incidenttime="09:00:00" incidentnumber="15186225" address="Steuben St &amp; Obey Ave" type="OFFENSE" age="" gender="" description="*********************************************** &lt;br/&gt;9504, Lost Property&lt;br/&gt;"/><marker lat="40.451267088745752" lng="-79.963535157078368" zone="Zone 2" incidentdate="2015-09-29" incidenttime="06:30:00" incidentnumber="15186203" address="600 block Ossipee St" type="OFFENSE" age="" gender="" description="*********************************************** &lt;br/&gt;3921(a), Theft by Unlawful Taking or Disposition - Movable item&lt;br/&gt;"/><marker lat="40.458058567851843" lng="-79.960490936308204" zone="Zone 2" incidentdate="2015-09-29" incidenttime="15:30:00" incidentnumber="15186484" address="3500 block Bigelow Blvd" type="OFFENSE" age="" gender="" description="*********************************************** &lt;br/&gt;3304(a)(4), CRIMINAL MISCHIEF- Intentionally Damage Property (By Graffiti, Aerosol Spray Paint, Broad Tip Marker, or Similar)&lt;br/&gt;"/><marker lat="40.465229725180876" lng="-79.91445677406" zone="Zone 5" incidentdate="2015-09-29" incidenttime="17:38:00" incidentnumber="15186543" address="500 block Larimer Ave" type="OFFENSE" age="" gender="" description="*********************************************** &lt;br/&gt;903, Criminal Conspiracy.&lt;br/&gt;3503(a), Criminal Trespass&lt;br/&gt;"/><marker lat="40.424239879552452" lng="-79.991984717425339" zone="Zone 3" incidentdate="2015-09-29" incidenttime="17:30:00" incidentnumber="15186625" address="Emerald St" type="OFFENSE" age="" gender="" description="*********************************************** &lt;br/&gt;3502, Burglary.&lt;br/&gt;"/><marker lat="40.417740125103577" lng="-79.995556616841256" zone="Zone 3" incidentdate="2015-09-29" incidenttime="22:03:00" incidentnumber="15186695" address="400 block Orchard Pl" type="OFFENSE" age="" gender="" description="*********************************************** &lt;br/&gt;13(a)(31), Marijuana: Possession Small Amount&lt;br/&gt;3802(a)(1), DUI - General Impairment&lt;br/&gt;3802(b), DUI - High Rate of Alchol - BAC &gt;=.10% &lt;.16%&lt;br/&gt;"/><marker lat="40.458532837073371" lng="-79.925434742971191" zone="Zone 4" incidentdate="2015-09-29" incidenttime="19:40:00" incidentnumber="15186593" address="200 block S Highland Ave" type="OFFENSE" age="" gender="" description="*********************************************** &lt;br/&gt;9999, 9999 - (Misc. Incident):&lt;br/&gt;"/><marker lat="40.424156605592387" lng="-79.995810670450524" zone="Zone 3" incidentdate="2015-09-29" incidenttime="18:00:00" incidentnumber="15186582" address="700 block Mc Lain St" type="OFFENSE" age="" gender="" description="*********************************************** &lt;br/&gt;3502, Burglary.&lt;br/&gt;"/><marker lat="40.481661037270847" lng="-80.025697523159209" zone="Zone 1" incidentdate="2015-09-29" incidenttime="10:45:00" incidentnumber="15186305" address="800 block Woods Run Ave" type="OFFENSE" age="" gender="" description="*********************************************** &lt;br/&gt;9999, 9999 - (Misc. Incident):&lt;br/&gt;"/><marker lat="40.462342577271848" lng="-79.943218192536818" zone="Zone 5" incidentdate="2015-09-29" incidenttime="07:00:00" incidentnumber="15186205" address="Friendship Ave &amp; S Winebiddle St" type="OFFENSE" age="" gender="" description="*********************************************** &lt;br/&gt;3743, Accidents Involving Damage to Attended Veh. or Property&lt;br/&gt;"/><marker lat="40.469498895079255" lng="-79.892138971033631" zone="Zone 5" incidentdate="2015-09-29" incidenttime="07:00:00" incidentnumber="15186206" address="1600 block Westmoreland St" type="OFFENSE" age="" gender="" description="*********************************************** &lt;br/&gt;2709(b), Stalking&lt;br/&gt;"/><marker lat="40.456026397140533" lng="-80.006488644201866" zone="Zone 1" incidentdate="2015-09-29" incidenttime="11:25:00" incidentnumber="15186325" address="1200 block Federal St N" type="OFFENSE" age="" gender="" description="*********************************************** &lt;br/&gt;2709(a), Harassment.&lt;br/&gt;"/><marker lat="40.454872729032772" lng="-79.992399941611808" zone="Zone 1" incidentdate="2015-09-29" incidenttime="18:00:00" incidentnumber="15186548" address="Heinz St &amp; N Canal St" type="OFFENSE" age="" gender="" description="*********************************************** &lt;br/&gt;9999, 9999 - (Misc. Incident):&lt;br/&gt;"/><marker lat="40.434696587775576" lng="-79.996300985228572" zone="Zone 2" incidentdate="2015-09-29" incidenttime="19:00:00" incidentnumber="15132166" address="600 block 1st Ave" type="OFFENSE" age="" gender="" description="*********************************************** &lt;br/&gt;2701, Simple Assault.&lt;br/&gt;"/><marker lat="40.437801695240545" lng="-79.972791491902257" zone="Zone 4" incidentdate="2015-09-29" incidenttime="13:00:00" incidentnumber="15186397" address="2300 block 5th Ave" type="OFFENSE" age="" gender="" description="*********************************************** &lt;br/&gt;3921(a), Theft by Unlawful Taking or Disposition - Movable item&lt;br/&gt;"/><marker lat="40.39696591041421" lng="-79.978684471874487" zone="Zone 3" incidentdate="2015-09-29" incidenttime="02:02:00" incidentnumber="15186124" address="Becks Run Rd &amp; E Agnew Ave" type="OFFENSE" age="" gender="" description="*********************************************** &lt;br/&gt;13(a)(16), Possession of Controlled Substance&lt;br/&gt;1543, Driving While Operating Privilege is Suspended or Revoked.&lt;br/&gt;3323, Stop Signs and Yield Signs.&lt;br/&gt;13(a)(32), Paraphernalia - Use or Possession&lt;br/&gt;3736, Reckless Driving&lt;br/&gt;3112, Traffic-Control Signals.&lt;br/&gt;"/><marker lat="40.4553802" lng="-80.0536626" zone="Zone 6" incidentdate="2015-09-29" incidenttime="19:13:00" incidentnumber="15186598" address="3000 block Bergman St" type="OFFENSE" age="" gender="" description="*********************************************** &lt;br/&gt;2705, Recklessly Endangering Another Person.&lt;br/&gt;2701, Simple Assault.&lt;br/&gt;"/><marker lat="40.472670793251439" lng="-80.010103337691234" zone="Zone 1" incidentdate="2015-09-29" incidenttime="17:20:00" incidentnumber="15186547" address="2700 block Perrysville Ave" type="OFFENSE" age="" gender="" description="*********************************************** &lt;br/&gt;029, Missing Juvenile&lt;br/&gt;"/><marker lat="40.459754172232486" lng="-79.92480766252595" zone="Zone 5" incidentdate="2015-09-29" incidenttime="07:00:00" incidentnumber="15186216" address="6000 block Centre Ave" type="OFFENSE" age="" gender="" description="*********************************************** &lt;br/&gt;3745, Accidents Involving Damage to Unattended Veh.or Prop.&lt;br/&gt;"/><marker lat="40.419999007062813" lng="-79.997821209588878" zone="Zone 3" incidentdate="2015-09-29" incidenttime="01:08:00" incidentnumber="15186128" address="Climax St &amp; Ardale Way" type="OFFENSE" age="" gender="" description="*********************************************** &lt;br/&gt;3745, Accidents Involving Damage to Unattended Veh.or Prop.&lt;br/&gt;"/><marker lat="40.476668780872309" lng="-79.898534956217532" zone="Zone 5" incidentdate="2015-09-29" incidenttime="10:00:00" incidentnumber="15186262" address="700 block Highland Dr" type="OFFENSE" age="" gender="" description="*********************************************** &lt;br/&gt;4106, Access Device Fraud&lt;br/&gt;4101, Forgery.&lt;br/&gt;"/><marker lat="40.423716601822711" lng="-79.991726998272028" zone="Zone 3" incidentdate="2015-09-29" incidenttime="17:58:00" incidentnumber="15186553" address="900 block Eureka St" type="OFFENSE" age="" gender="" description="*********************************************** &lt;br/&gt;3304, Criminal Mischief.&lt;br/&gt;3503, Criminal Trespass&lt;br/&gt;"/><marker lat="40.440696417919249" lng="-79.954591082015028" zone="Zone 4" incidentdate="2015-09-29" incidenttime="16:35:00" incidentnumber="15186501" address="300 block S Bouquet St" type="OFFENSE" age="" gender="" description="*********************************************** &lt;br/&gt;3743, Accidents Involving Damage to Attended Veh. or Property&lt;br/&gt;"/><marker lat="40.434343894395738" lng="-79.918744815929443" zone="Zone 4" incidentdate="2015-09-29" incidenttime="08:45:00" incidentnumber="15186246" address="Hobart St &amp; Shady Ave" type="OFFENSE" age="" gender="" description="*********************************************** &lt;br/&gt;3304, Criminal Mischief.&lt;br/&gt;2709, Harassment (Non-Specific)&lt;br/&gt;"/><marker lat="40.38567003466293" lng="-79.984117215164446" zone="Zone 3" incidentdate="2015-09-29" incidenttime="14:35:00" incidentnumber="15186442" address="Biscayne Dr &amp; Valera St" type="OFFENSE" age="" gender="" description="*********************************************** &lt;br/&gt;2701, Simple Assault.&lt;br/&gt;3714, Careless Driving&lt;br/&gt;"/><marker lat="40.446346164512178" lng="-79.994318011299683" zone="Zone 2" incidentdate="2015-09-29" incidenttime="20:40:00" incidentnumber="15186637" address="11th St" type="OFFENSE" age="" gender="" description="*********************************************** &lt;br/&gt;13(a)(31), Marijuana: Possession Small Amount&lt;br/&gt;13(a)(16), Possession of Controlled Substance&lt;br/&gt;13(a)(30), Possession w/ Intent to Del. Controlled Substance&lt;br/&gt;13(a)(32), Paraphernalia - Use or Possession&lt;br/&gt;6106, Firearms not to be Carried without a License.&lt;br/&gt;5104, Resisting Arrest or Other Law Enforcement.&lt;br/&gt;"/><marker lat="40.461568650299363" lng="-79.967091212055948" zone="Zone 2" incidentdate="2015-09-29" incidenttime="17:47:00" incidentnumber="15186542" address="Herron Ave Brg &amp; Liberty Ave" type="OFFENSE" age="" gender="" description="*********************************************** &lt;br/&gt;13(a)(16), Possession of Controlled Substance&lt;br/&gt;5507(a), Obstructing highway, railroad or public passage&lt;br/&gt;"/><marker lat="40.387040737230748" lng="-80.00224956741755" zone="Zone 3" incidentdate="2015-09-29" incidenttime="18:10:00" incidentnumber="15186506" address="Glenbury St" type="OFFENSE" age="" gender="" description="*********************************************** &lt;br/&gt;2709(a)(1), Harassment by Physical Contact, or Attempts or Threats&lt;br/&gt;"/><marker lat="40.3816471" lng="-79.9803554" zone="Zone 3" incidentdate="2015-09-29" incidenttime="06:23:00" incidentnumber="15186197" address="100 block Newburn Ave" type="OFFENSE" age="" gender="" description="*********************************************** &lt;br/&gt;3928, Unauthorized Use of Automobile and Other Vehicles.&lt;br/&gt;"/><marker lat="40.455232431637143" lng="-80.051231524317927" zone="Zone 6" incidentdate="2015-09-29" incidenttime="02:40:00" incidentnumber="15186141" address="2900 block Glen Mawr St" type="OFFENSE" age="" gender="" description="*********************************************** &lt;br/&gt;3502, Burglary.&lt;br/&gt;"/><marker lat="40.4533743" lng="-80.0775707" zone="Zone 6" incidentdate="2015-09-29" incidenttime="11:09:00" incidentnumber="15186342" address="3600 block Wind Gap Ave" type="OFFENSE" age="" gender="" description="*********************************************** &lt;br/&gt;13(a)(16), Possession of Controlled Substance&lt;br/&gt;7512, Criminal Use of Communication&lt;br/&gt;13(a)(30), Possession w/ Intent to Del. Controlled Substance&lt;br/&gt;13(a)(32), Paraphernalia - Use or Possession&lt;br/&gt;"/><marker lat="40.455449084328052" lng="-79.890173274380018" zone="Zone 5" incidentdate="2015-09-29" incidenttime="01:26:00" incidentnumber="15186107" address="7600 block Felicia Way" type="OFFENSE" age="" gender="" description="*********************************************** &lt;br/&gt;2701, Simple Assault.&lt;br/&gt;3701, Robbery.&lt;br/&gt;"/><marker lat="40.464946051166713" lng="-79.944867088787618" zone="Zone 5" incidentdate="2015-09-29" incidenttime="10:17:00" incidentnumber="15186282" address="4900 block Penn Ave" type="OFFENSE" age="" gender="" description="*********************************************** &lt;br/&gt;3304, Criminal Mischief.&lt;br/&gt;"/><marker lat="40.450892721440539" lng="-80.000843891836467" zone="Zone 1" incidentdate="2015-09-29" incidenttime="13:15:00" incidentnumber="15186476" address="300 block Cedar Ave" type="OFFENSE" age="" gender="" description="*********************************************** &lt;br/&gt;3745, Accidents Involving Damage to Unattended Veh.or Prop.&lt;br/&gt;"/><marker lat="40.459227130464114" lng="-80.005623690982688" zone="Zone 1" incidentdate="2015-09-29" incidenttime="08:13:00" incidentnumber="15186224" address="Sandusky Ct &amp; Henderson St" type="OFFENSE" age="" gender="" description="*********************************************** &lt;br/&gt;9501, Bench Warrant&lt;br/&gt;13(a)(32), Paraphernalia - Use or Possession&lt;br/&gt;"/><marker lat="40.4406248" lng="-79.9958864" zone="Zone 1" incidentdate="2015-09-29" incidenttime="15:10:00" incidentnumber="15186496" address="West End Brg &amp; West End Brg Ramp" type="OFFENSE" age="" gender="" description="*********************************************** &lt;br/&gt;9999, 9999 - (Misc. Incident):&lt;br/&gt;"/><marker lat="40.450083821549214" lng="-80.053079992828629" zone="Zone 6" incidentdate="2015-09-29" incidenttime="17:20:00" incidentnumber="15186521" address="700 block Fairston St" type="OFFENSE" age="" gender="" description="*********************************************** &lt;br/&gt;2701, Simple Assault.&lt;br/&gt;"/><marker lat="40.459241184494772" lng="-80.005548013998464" zone="Zone 1" incidentdate="2015-09-29" incidenttime="00:35:00" incidentnumber="15186089" address="1600 block Sandusky Ct" type="OFFENSE" age="" gender="" description="*********************************************** &lt;br/&gt;4910, Tampering with or Fabricating Physical Evidence.&lt;br/&gt;13(a)(16), Possession of Controlled Substance&lt;br/&gt;13(a)(30), Possession w/ Intent to Del. Controlled Substance&lt;br/&gt;13(a)(32), Paraphernalia - Use or Possession&lt;br/&gt;3503(b)(1)(ii), Defiant Trespass Notice Posted by Sign(s)&lt;br/&gt;"/><marker lat="40.4560814306125" lng="-79.91534375922059" zone="Zone 5" incidentdate="2015-09-29" incidenttime="18:50:00" incidentnumber="15186588" address="100 block Bakery Square Blvd" type="OFFENSE" age="" gender="" description="*********************************************** &lt;br/&gt;9504, Lost Property&lt;br/&gt;"/><marker lat="40.39696591041421" lng="-79.978684471874487" zone="Zone 3" incidentdate="2015-09-29" incidenttime="02:03:00" incidentnumber="15186124" address="Becks Run Rd &amp; E Agnew Ave" type="ARREST" age="29" gender="M" description="*********************************************** &lt;br/&gt;13(a)(16), Possession of Controlled Substance&lt;br/&gt;1543, Driving While Operating Privilege is Suspended or Revoked.&lt;br/&gt;3323, Stop Signs and Yield Signs.&lt;br/&gt;13(a)(32), Paraphernalia - Use or Possession&lt;br/&gt;3736, Reckless Driving&lt;br/&gt;3112, Traffic-Control Signals.&lt;br/&gt;"/><marker lat="40.435095503606554" lng="-79.993077686753679" zone="Zone 2" incidentdate="2015-09-29" incidenttime="12:15:00" incidentnumber="15170725" address="900 block Second Ave" type="ARREST" age="27" gender="M" description="*********************************************** &lt;br/&gt;3701, Robbery.&lt;br/&gt;2709(a)(1), Harassment by Physical Contact, or Attempts or Threats&lt;br/&gt;2706, Terroristic Threats.&lt;br/&gt;"/><marker lat="40.465229725180876" lng="-79.91445677406" zone="Zone 5" incidentdate="2015-09-29" incidenttime="17:45:00" incidentnumber="15186543" address="500 block Larimer Ave" type="ARREST" age="19" gender="M" description="*********************************************** &lt;br/&gt;903, Criminal Conspiracy.&lt;br/&gt;3503(a), Criminal Trespass&lt;br/&gt;"/><marker lat="40.461568650299363" lng="-79.967091212055948" zone="Zone 2" incidentdate="2015-09-29" incidenttime="17:42:00" incidentnumber="15186542" address="Herron Ave Brg &amp; Liberty Ave" type="ARREST" age="29" gender="M" description="*********************************************** &lt;br/&gt;13(a)(16), Possession of Controlled Substance&lt;br/&gt;5507(a), Obstructing highway, railroad or public passage&lt;br/&gt;"/><marker lat="40.434696587775576" lng="-79.996300985228572" zone="Zone 2" incidentdate="2015-09-29" incidenttime="19:00:00" incidentnumber="15132166" address="600 block 1st Ave" type="ARREST" age="29" gender="F" description="*********************************************** &lt;br/&gt;2701, Simple Assault.&lt;br/&gt;"/><marker lat="40.405034590189672" lng="-79.94517601664387" zone="Zone 4" incidentdate="2015-09-29" incidenttime="18:51:00" incidentnumber="15186576" address="5200 block Lytle St" type="ARREST" age="43" gender="M" description="*********************************************** &lt;br/&gt;2902, Unlawful Restraint.&lt;br/&gt;13(a)(16), Possession of Controlled Substance&lt;br/&gt;2706, Terroristic Threats.&lt;br/&gt;2701(a)(1), Simple Assault - Intent., Know., Reckless.Cause Bod. Injury&lt;br/&gt;"/><marker lat="40.396333473457872" lng="-80.00977960038432" zone="Zone 6" incidentdate="2015-09-29" incidenttime="10:00:00" incidentnumber="15186265" address="2300 block Whited St" type="ARREST" age="37" gender="M" description="*********************************************** &lt;br/&gt;2701(a)(3), Simple Assault - Attempts by Physical Menace&lt;br/&gt;3304(a)(5), CRIMINAL MISCHIEF - Intentionally Damages Real Or Personal Property Of Another&lt;br/&gt;3502, Burglary.&lt;br/&gt;2706, Terroristic Threats.&lt;br/&gt;"/><marker lat="40.446346164512178" lng="-79.994318011299683" zone="Zone 2" incidentdate="2015-09-29" incidenttime="17:58:00" incidentnumber="15186544" address="11th St" type="ARREST" age="" gender="M" description="*********************************************** &lt;br/&gt;3503.B1I, DEF. TRESPASS ACTUAL COMMUNICATION&lt;br/&gt;5503, Disorderly Conduct.&lt;br/&gt;"/><marker lat="40.456633448414188" lng="-79.936435139782176" zone="Zone 4" incidentdate="2015-09-29" incidenttime="01:40:00" incidentnumber="15174436" address="5500 block Centre Ave" type="ARREST" age="39" gender="M" description="*********************************************** &lt;br/&gt;3929, Retail Theft.&lt;br/&gt;3503(b)(1)(i), Actual Communication&lt;br/&gt;"/><marker lat="40.465229725180876" lng="-79.91445677406" zone="Zone 5" incidentdate="2015-09-29" incidenttime="17:45:00" incidentnumber="15186543" address="500 block Larimer Ave" type="ARREST" age="26" gender="M" description="*********************************************** &lt;br/&gt;903, Criminal Conspiracy.&lt;br/&gt;3503(a), Criminal Trespass&lt;br/&gt;"/><marker lat="40.479496781171243" lng="-80.032454825576309" zone="Zone 1" incidentdate="2015-09-29" incidenttime="01:30:00" incidentnumber="15180071" address="3500 block Simen Ave" type="ARREST" age="22" gender="M" description="*********************************************** &lt;br/&gt;3304, Criminal Mischief.&lt;br/&gt;903, Criminal Conspiracy.&lt;br/&gt;"/><marker lat="40.459227130464114" lng="-80.005623690982688" zone="Zone 1" incidentdate="2015-09-29" incidenttime="08:20:00" incidentnumber="15186224" address="Sandusky Ct &amp; Henderson St" type="ARREST" age="51" gender="M" description="*********************************************** &lt;br/&gt;9501, Bench Warrant&lt;br/&gt;13(a)(32), Paraphernalia - Use or Possession&lt;br/&gt;"/><marker lat="40.434696587775576" lng="-79.996300985228572" zone="Zone 2" incidentdate="2015-09-29" incidenttime="08:30:00" incidentnumber="15177126" address="600 block 1st Ave" type="ARREST" age="39" gender="M" description="*********************************************** &lt;br/&gt;2709, Harassment (Non-Specific)&lt;br/&gt;2709.1, Stalking Conduct or Repeatedly Acts Including Follows&lt;br/&gt;"/><marker lat="40.434696587775576" lng="-79.996300985228572" zone="Zone 2" incidentdate="2015-09-29" incidenttime="15:25:00" incidentnumber="15165634" address="600 block First Ave" type="ARREST" age="25" gender="M" description="*********************************************** &lt;br/&gt;4304(a)(1), Endangering Welfare of Children - Course of Conduct Enhanced&lt;br/&gt;2702, Aggravated Assault.&lt;br/&gt;"/><marker lat="40.434696587775576" lng="-79.996300985228572" zone="Zone 2" incidentdate="2015-09-29" incidenttime="14:40:00" incidentnumber="15185116" address="600 block 1st Ave" type="ARREST" age="60" gender="F" description="*********************************************** &lt;br/&gt;2709(a)(1), Harassment by Physical Contact, or Attempts or Threats&lt;br/&gt;2701, Simple Assault.&lt;br/&gt;5503(a)(4), DISORDERLY CONDUCT - HAZARDOUS/PHYS. OFF&lt;br/&gt;3503.B1I, DEF. TRESPASS ACTUAL COMMUNICATION&lt;br/&gt;3934, Theft from Vehicle&lt;br/&gt;5505, Public Drunkenness&lt;br/&gt;"/><marker lat="40.465229725180876" lng="-79.91445677406" zone="Zone 5" incidentdate="2015-09-29" incidenttime="17:45:00" incidentnumber="15186543" address="500 block Larimer Ave" type="ARREST" age="18" gender="M" description="*********************************************** &lt;br/&gt;903, Criminal Conspiracy.&lt;br/&gt;3503(a), Criminal Trespass&lt;br/&gt;"/><marker lat="40.4533743" lng="-80.0775707" zone="Zone 6" incidentdate="2015-09-29" incidenttime="11:30:00" incidentnumber="15186342" address="3600 block Wind Gap Ave" type="ARREST" age="38" gender="M" description="*********************************************** &lt;br/&gt;13(a)(16), Possession of Controlled Substance&lt;br/&gt;7512, Criminal Use of Communication&lt;br/&gt;13(a)(30), Possession w/ Intent to Del. Controlled Substance&lt;br/&gt;13(a)(32), Paraphernalia - Use or Possession&lt;br/&gt;"/><marker lat="40.446346164512178" lng="-79.994318011299683" zone="Zone 2" incidentdate="2015-09-29" incidenttime="20:35:00" incidentnumber="15186637" address="11th St" type="ARREST" age="20" gender="M" description="*********************************************** &lt;br/&gt;13(a)(31), Marijuana: Possession Small Amount&lt;br/&gt;13(a)(16), Possession of Controlled Substance&lt;br/&gt;13(a)(30), Possession w/ Intent to Del. Controlled Substance&lt;br/&gt;13(a)(32), Paraphernalia - Use or Possession&lt;br/&gt;6106, Firearms not to be Carried without a License.&lt;br/&gt;5104, Resisting Arrest or Other Law Enforcement.&lt;br/&gt;"/><marker lat="40.435095503606554" lng="-79.993077686753679" zone="Zone 2" incidentdate="2015-09-29" incidenttime="12:00:00" incidentnumber="15152390" address="900 block 2nd Ave" type="ARREST" age="27" gender="F" description="*********************************************** &lt;br/&gt;9015, Failure To Appear/Arrest on Attachment Order&lt;br/&gt;13(a)(16), Possession of Controlled Substance&lt;br/&gt;"/><marker lat="40.459241184494772" lng="-80.005548013998464" zone="Zone 1" incidentdate="2015-09-29" incidenttime="00:45:00" incidentnumber="15186089" address="1600 block Sandusky Ct" type="ARREST" age="35" gender="M" description="*********************************************** &lt;br/&gt;4910, Tampering with or Fabricating Physical Evidence.&lt;br/&gt;13(a)(16), Possession of Controlled Substance&lt;br/&gt;13(a)(30), Possession w/ Intent to Del. Controlled Substance&lt;br/&gt;13(a)(32), Paraphernalia - Use or Possession&lt;br/&gt;3503(b)(1)(ii), Defiant Trespass Notice Posted by Sign(s)&lt;br/&gt;"/><marker lat="40.459241184494772" lng="-80.005548013998464" zone="Zone 1" incidentdate="2015-09-29" incidenttime="00:45:00" incidentnumber="15186089" address="1600 block Sandusky Ct" type="ARREST" age="22" gender="M" description="*********************************************** &lt;br/&gt;4910, Tampering with or Fabricating Physical Evidence.&lt;br/&gt;13(a)(16), Possession of Controlled Substance&lt;br/&gt;13(a)(30), Possession w/ Intent to Del. Controlled Substance&lt;br/&gt;13(a)(32), Paraphernalia - Use or Possession&lt;br/&gt;3503(b)(1)(ii), Defiant Trespass Notice Posted by Sign(s)&lt;br/&gt;"/><marker lat="40.417740125103577" lng="-79.995556616841256" zone="Zone 3" incidentdate="2015-09-29" incidenttime="22:28:00" incidentnumber="15186695" address="400 block Orchard Pl" type="ARREST" age="27" gender="M" description="*********************************************** &lt;br/&gt;13(a)(31), Marijuana: Possession Small Amount&lt;br/&gt;3802(a)(1), DUI - General Impairment&lt;br/&gt;3802(b), DUI - High Rate of Alchol - BAC &gt;=.10% &lt;.16%&lt;br/&gt;"/><marker lat="40.4553802" lng="-80.0536626" zone="Zone 6" incidentdate="2015-09-29" incidenttime="19:30:00" incidentnumber="15186598" address="3000 block Bergman St" type="ARREST" age="27" gender="M" description="*********************************************** &lt;br/&gt;2705, Recklessly Endangering Another Person.&lt;br/&gt;2701, Simple Assault.&lt;br/&gt;"/><marker lat="40.470459914974732" lng="-79.908540011902716" zone="Zone 5" incidentdate="2015-09-29" incidenttime="13:10:00" incidentnumber="15151440" address="1400 block Washington Blvd" type="ARREST" age="35" gender="M" description="*********************************************** &lt;br/&gt;3921, Theft by Unlawful Taking or Disposition.&lt;br/&gt;"/><marker lat="40.4530658" lng="-80.0030731" zone="Zone 1" incidentdate="2015-09-29" incidenttime="11:50:00" incidentnumber="15184558" address="200 block East Ohio St" type="ARREST" age="29" gender="M" description="*********************************************** &lt;br/&gt;2702, Aggravated Assault.&lt;br/&gt;13(a)(16), Possession of Controlled Substance&lt;br/&gt;5104, Resisting Arrest or Other Law Enforcement.&lt;br/&gt;13(a)(30), Possession w/ Intent to Del. Controlled Substance&lt;br/&gt;5121, Escape.&lt;br/&gt;3503(b)(1)(ii), Defiant Trespass Notice Posted by Sign(s)&lt;br/&gt;"/><marker lat="40.459227130464114" lng="-80.005623690982688" zone="Zone 1" incidentdate="2015-09-29" incidenttime="08:20:00" incidentnumber="15186224" address="Sandusky Ct &amp; Henderson St" type="ARREST" age="40" gender="F" description="*********************************************** &lt;br/&gt;9501, Bench Warrant&lt;br/&gt;13(a)(32), Paraphernalia - Use or Possession&lt;br/&gt;"/><marker lat="40.428746746224945" lng="-79.982646526389246" zone="Zone 3" incidentdate="2015-09-29" incidenttime="13:30:00" incidentnumber="15186362" address="1600 block E Carson St" type="ARREST" age="39" gender="M" description="*********************************************** &lt;br/&gt;3926(a)(4), Theft of services; ACQUISITION OF SERVICES - refusal to pay or offer to pay for a service (hotels and restarants)&lt;br/&gt;"/></markers>
