<?xml version="1.0"?>
<markers><marker lat="40.405956204950712" lng="-79.989174874462009" zone="Zone 3" incidentdate="2016-05-31" incidenttime="21:30:00" incidentnumber="16100493" address="100 block Calhoun Ave" type="OFFENSE" age="" gender="" description="*********************************************** &lt;br/&gt;13(a)(16), Possession of Controlled Substance&lt;br/&gt;13(a)(30), Possession w/ Intent to Del. Controlled Substance&lt;br/&gt;13(a)(30)*, Delivery of Controlled Substance&lt;br/&gt;13(a)(31), Marijuana: Possession Small Amount&lt;br/&gt;13(a)(32), Paraphernalia - Use or Possession&lt;br/&gt;"/><marker lat="40.440092571650716" lng="-80.003005012857287" zone="Zone 2" incidentdate="2016-05-31" incidenttime="16:30:00" incidentnumber="16100216" address="PPG" type="OFFENSE" age="" gender="" description="*********************************************** &lt;br/&gt;9999, 9999 - (Misc. Incident):&lt;br/&gt;"/><marker lat="40.488081814906529" lng="-79.894317224387123" zone="Zone 5" incidentdate="2016-05-31" incidenttime="16:45:00" incidentnumber="16100302" address="900 block Freeport Rd" type="OFFENSE" age="" gender="" description="*********************************************** &lt;br/&gt;3929, Retail Theft.&lt;br/&gt;"/><marker lat="40.428585203983602" lng="-79.981869007680203" zone="Zone 3" incidentdate="2016-05-31" incidenttime="12:10:00" incidentnumber="16100179" address="1700 block W Carson St" type="OFFENSE" age="" gender="" description="*********************************************** &lt;br/&gt;2709(a)(1), Harassment by Physical Contact, or Attempts or Threats&lt;br/&gt;"/><marker lat="40.432060162036912" lng="-80.016199250286775" zone="Zone 3" incidentdate="2016-05-31" incidenttime="13:00:00" incidentnumber="16100267" address="400 block Sulgrave Rd" type="OFFENSE" age="" gender="" description="*********************************************** &lt;br/&gt;3921(a), Theft by Unlawful Taking or Disposition - Movable item&lt;br/&gt;"/><marker lat="40.450006152960995" lng="-79.995363823342615" zone="Zone 1" incidentdate="2016-05-31" incidenttime="07:00:00" incidentnumber="16100016" address="800 block River Ave" type="OFFENSE" age="" gender="" description="*********************************************** &lt;br/&gt;3304, Criminal Mischief.&lt;br/&gt;3503, Criminal Trespass&lt;br/&gt;3934, Theft from Vehicle&lt;br/&gt;"/><marker lat="40.456699452018242" lng="-80.023246789501684" zone="Zone 1" incidentdate="2016-05-31" incidenttime="11:12:00" incidentnumber="16100127" address="1200 block N Franklin St" type="OFFENSE" age="" gender="" description="*********************************************** &lt;br/&gt;3304(a)(5), CRIMINAL MISCHIEF - Intentionally Damages Real Or Personal Property Of Another&lt;br/&gt;"/><marker lat="40.446332366470997" lng="-79.93345504426523" zone="Zone 4" incidentdate="2016-05-31" incidenttime="02:12:00" incidentnumber="16099926" address="5400 block Wilkins Ave" type="OFFENSE" age="" gender="" description="*********************************************** &lt;br/&gt;3745, Accidents Involving Damage to Unattended Veh.or Prop.&lt;br/&gt;"/><marker lat="40.461353731915985" lng="-79.92481731514026" zone="Zone 5" incidentdate="2016-05-31" incidenttime="15:54:00" incidentnumber="16100266" address="6000 block Penn Ave" type="OFFENSE" age="" gender="" description="*********************************************** &lt;br/&gt;3701, Robbery.&lt;br/&gt;"/><marker lat="40.4406248" lng="-79.9958864" zone="Zone 1" incidentdate="2016-05-31" incidenttime="00:57:00" incidentnumber="16099867" address="East Ohio St &amp; 31st St Brg" type="OFFENSE" age="" gender="" description="*********************************************** &lt;br/&gt;9122, Miscellaneous Fire Vehicle Investigation to Continue&lt;br/&gt;"/><marker lat="40.450113129898341" lng="-80.062093315146058" zone="Zone 6" incidentdate="2016-05-31" incidenttime="09:40:00" incidentnumber="16100081" address="1400 block Hillsboro St" type="OFFENSE" age="" gender="" description="*********************************************** &lt;br/&gt;9488, False  Burglar Alarm&lt;br/&gt;"/><marker lat="40.422966172979606" lng="-79.926495911312728" zone="Zone 4" incidentdate="2016-05-31" incidenttime="07:00:00" incidentnumber="16100360" address="4200 block Saline St" type="OFFENSE" age="" gender="" description="*********************************************** &lt;br/&gt;3934, Theft from Vehicle&lt;br/&gt;"/><marker lat="40.421765137866203" lng="-80.012562866049862" zone="Zone 3" incidentdate="2016-05-31" incidenttime="19:41:00" incidentnumber="15242544" address="Lelia St" type="OFFENSE" age="" gender="" description="*********************************************** &lt;br/&gt;3502, Burglary.&lt;br/&gt;"/><marker lat="40.446367567924469" lng="-79.948912095477979" zone="Zone 4" incidentdate="2016-05-31" incidenttime="11:40:00" incidentnumber="16100234" address="S Craig St &amp; Henry St" type="OFFENSE" age="" gender="" description="*********************************************** &lt;br/&gt;3743, Accidents Involving Damage to Attended Veh. or Property&lt;br/&gt;"/><marker lat="40.458470135421997" lng="-80.006479820139702" zone="Zone 1" incidentdate="2016-05-31" incidenttime="14:17:00" incidentnumber="16100209" address="1500 block Boyle St" type="OFFENSE" age="" gender="" description="*********************************************** &lt;br/&gt;13(a)(32), Paraphernalia - Use or Possession&lt;br/&gt;"/><marker lat="40.449997946905924" lng="-79.903761331848415" zone="Zone 4" incidentdate="2016-05-31" incidenttime="09:00:00" incidentnumber="16100063" address="Penn Ave &amp; N Lang Ave" type="OFFENSE" age="" gender="" description="*********************************************** &lt;br/&gt;8104, CLASS 1 - Suspicious Package or Device&lt;br/&gt;"/><marker lat="40.437743893340482" lng="-79.965357784459528" zone="Zone 4" incidentdate="2016-05-31" incidenttime="21:00:00" incidentnumber="16100466" address="Robinson St &amp; 5th Ave" type="OFFENSE" age="" gender="" description="*********************************************** &lt;br/&gt;9501, Bench Warrant&lt;br/&gt;"/><marker lat="40.479829245655225" lng="-80.001901444196207" zone="Zone 1" incidentdate="2016-05-31" incidenttime="14:04:00" incidentnumber="16100204" address="400 block Mt Pleasant Rd" type="OFFENSE" age="" gender="" description="*********************************************** &lt;br/&gt;9488, False  Burglar Alarm&lt;br/&gt;"/><marker lat="40.449422491543451" lng="-79.97568702815903" zone="Zone 2" incidentdate="2016-05-31" incidenttime="19:07:00" incidentnumber="16100421" address="2200 block Somers Dr" type="OFFENSE" age="" gender="" description="*********************************************** &lt;br/&gt;2702, Aggravated Assault.&lt;br/&gt;"/><marker lat="40.430909808262726" lng="-79.990413220334759" zone="Zone 3" incidentdate="2016-05-31" incidenttime="08:00:00" incidentnumber="16100075" address="300 block S 9th St" type="OFFENSE" age="" gender="" description="*********************************************** &lt;br/&gt;3921(a), Theft by Unlawful Taking or Disposition - Movable item&lt;br/&gt;"/><marker lat="40.469731647057117" lng="-80.027507012884371" zone="Zone 1" incidentdate="2016-05-31" incidenttime="05:45:00" incidentnumber="16100031" address="1200 block Woodland Ave" type="OFFENSE" age="" gender="" description="*********************************************** &lt;br/&gt;3745, Accidents Involving Damage to Unattended Veh.or Prop.&lt;br/&gt;"/><marker lat="40.463618856013817" lng="-79.952885734358844" zone="Zone 5" incidentdate="2016-05-31" incidenttime="17:15:00" incidentnumber="16100329" address="Liberty Ave &amp; Main St" type="OFFENSE" age="" gender="" description="*********************************************** &lt;br/&gt;3745, Accidents Involving Damage to Unattended Veh.or Prop.&lt;br/&gt;"/><marker lat="40.458850816565857" lng="-80.071739479347869" zone="Zone 6" incidentdate="2016-05-31" incidenttime="13:04:00" incidentnumber="16100178" address="3600 block Harlow Pl" type="OFFENSE" age="" gender="" description="*********************************************** &lt;br/&gt;029, Missing Juvenile&lt;br/&gt;"/><marker lat="40.440405419312356" lng="-79.987695575442999" zone="Zone 2" incidentdate="2016-05-31" incidenttime="07:42:00" incidentnumber="16100448" address="1400 block Centre Ave" type="OFFENSE" age="" gender="" description="*********************************************** &lt;br/&gt;3745, Accidents Involving Damage to Unattended Veh.or Prop.&lt;br/&gt;"/><marker lat="40.441406159731216" lng="-80.002873255548053" zone="Zone 2" incidentdate="2016-05-31" incidenttime="15:00:00" incidentnumber="16100398" address="100 block 5th Ave" type="OFFENSE" age="" gender="" description="*********************************************** &lt;br/&gt;2709, Harassment (Non-Specific)&lt;br/&gt;"/><marker lat="40.440086472089142" lng="-79.958320548707789" zone="Zone 4" incidentdate="2016-05-31" incidenttime="17:37:00" incidentnumber="16100337" address="3500 block Forbes Ave" type="OFFENSE" age="" gender="" description="*********************************************** &lt;br/&gt;9498, 302 (Mental)&lt;br/&gt;"/><marker lat="40.392873436674066" lng="-79.978065257076523" zone="Zone 3" incidentdate="2016-05-31" incidenttime="19:00:00" incidentnumber="16100423" address="500 block Brinwood Ave" type="OFFENSE" age="" gender="" description="*********************************************** &lt;br/&gt;3304, Criminal Mischief.&lt;br/&gt;"/><marker lat="40.417520463417553" lng="-79.925863654314981" zone="Zone 4" incidentdate="2016-05-31" incidenttime="08:30:00" incidentnumber="16100051" address="4500 block Browns Hill Rd" type="OFFENSE" age="" gender="" description="*********************************************** &lt;br/&gt;3304, Criminal Mischief.&lt;br/&gt;607.03, Discharging Firearm or Airgun&lt;br/&gt;"/><marker lat="40.454610285615381" lng="-79.888378482601411" zone="Zone 5" incidentdate="2016-05-31" incidenttime="21:25:00" incidentnumber="16100527" address="800 block Brushton Ave" type="OFFENSE" age="" gender="" description="*********************************************** &lt;br/&gt;13(a)(16), Possession of Controlled Substance&lt;br/&gt;13(a)(30), Possession w/ Intent to Del. Controlled Substance&lt;br/&gt;13(a)(31), Marijuana: Possession Small Amount&lt;br/&gt;4910, Tampering with or Fabricating Physical Evidence.&lt;br/&gt;9501, Bench Warrant&lt;br/&gt;5126, Flight to Avoid Apprehension, Trial or Punishment.&lt;br/&gt;"/><marker lat="40.450727186367807" lng="-79.933601263024514" zone="Zone 4" incidentdate="2016-05-31" incidenttime="18:15:00" incidentnumber="16100395" address="Bellefonte St &amp; Comet Way" type="OFFENSE" age="" gender="" description="*********************************************** &lt;br/&gt;3745, Accidents Involving Damage to Unattended Veh.or Prop.&lt;br/&gt;"/><marker lat="40.390301010687921" lng="-80.01859620759565" zone="Zone 6" incidentdate="2016-05-31" incidenttime="12:30:00" incidentnumber="16100167" address="1000 block WOODBOURNE Ave" type="OFFENSE" age="" gender="" description="*********************************************** &lt;br/&gt;3304, Criminal Mischief.&lt;br/&gt;"/><marker lat="40.451194769675077" lng="-80.016514286517747" zone="Zone 1" incidentdate="2016-05-31" incidenttime="23:30:00" incidentnumber="16100634" address="900 block N Lincoln Ave" type="OFFENSE" age="" gender="" description="*********************************************** &lt;br/&gt;3921(a), Theft by Unlawful Taking or Disposition - Movable item&lt;br/&gt;3304(a)(5), CRIMINAL MISCHIEF - Intentionally Damages Real Or Personal Property Of Another&lt;br/&gt;3934, Theft from Vehicle&lt;br/&gt;"/><marker lat="40.462280903246388" lng="-79.91381987819436" zone="Zone 5" incidentdate="2016-05-31" incidenttime="18:00:00" incidentnumber="16100334" address="200 block Mayflower St" type="OFFENSE" age="" gender="" description="*********************************************** &lt;br/&gt;13(a)(16), Possession of Controlled Substance&lt;br/&gt;13(a)(32), Paraphernalia - Use or Possession&lt;br/&gt;1543, Driving While Operating Privilege is Suspended or Revoked.&lt;br/&gt;4303, General Lighting Requirements.&lt;br/&gt;"/><marker lat="40.443134337433094" lng="-79.980896891654254" zone="Zone 2" incidentdate="2016-05-31" incidenttime="18:35:00" incidentnumber="16100412" address="1900 block Centre Ave" type="OFFENSE" age="" gender="" description="*********************************************** &lt;br/&gt;2709, Harassment (Non-Specific)&lt;br/&gt;"/><marker lat="40.417602224588251" lng="-79.98644795186604" zone="Zone 3" incidentdate="2016-05-31" incidenttime="16:02:00" incidentnumber="16100268" address="Arlington Ave &amp; S 18th St" type="OFFENSE" age="" gender="" description="*********************************************** &lt;br/&gt;3921(a), Theft by Unlawful Taking or Disposition - Movable item&lt;br/&gt;"/><marker lat="40.438466834802064" lng="-79.988141392414235" zone="Zone 2" incidentdate="2016-05-31" incidenttime="10:37:00" incidentnumber="16100102" address="1300 block 5th Ave" type="OFFENSE" age="" gender="" description="*********************************************** &lt;br/&gt;9497, Aided Case&lt;br/&gt;"/><marker lat="40.473644989536311" lng="-80.028714377115747" zone="Zone 1" incidentdate="2016-05-31" incidenttime="11:30:00" incidentnumber="16100173" address="3100 block Westborn St" type="OFFENSE" age="" gender="" description="*********************************************** &lt;br/&gt;9489, Found Property&lt;br/&gt;"/><marker lat="40.441923779784247" lng="-80.001794396078409" zone="Zone 2" incidentdate="2016-05-31" incidenttime="18:45:00" incidentnumber="16100406" address="6th St &amp; Liberty Ave" type="OFFENSE" age="" gender="" description="*********************************************** &lt;br/&gt;3743, Accidents Involving Damage to Attended Veh. or Property&lt;br/&gt;"/><marker lat="40.454262553839705" lng="-79.953093462653555" zone="Zone 4" incidentdate="2016-05-31" incidenttime="12:00:00" incidentnumber="16100454" address="400 block N Craig St" type="OFFENSE" age="" gender="" description="*********************************************** &lt;br/&gt;3502, Burglary.&lt;br/&gt;"/><marker lat="40.475420046326981" lng="-80.011783542690495" zone="Zone 1" incidentdate="2016-05-31" incidenttime="10:14:00" incidentnumber="16100092" address="2900 block Perrysville Ave" type="OFFENSE" age="" gender="" description="*********************************************** &lt;br/&gt;3928, Unauthorized Use of Automobile and Other Vehicles.&lt;br/&gt;"/><marker lat="40.451518177722548" lng="-80.013728373555793" zone="Zone 1" incidentdate="2016-05-31" incidenttime="23:30:00" incidentnumber="16100599" address="Brighton Rd &amp; N Lincoln Ave" type="OFFENSE" age="" gender="" description="*********************************************** &lt;br/&gt;3304, Criminal Mischief.&lt;br/&gt;"/><marker lat="40.481661037270847" lng="-80.025697523159209" zone="Zone 1" incidentdate="2016-05-31" incidenttime="12:00:00" incidentnumber="16100439" address="800 block Woods Run Ave" type="OFFENSE" age="" gender="" description="*********************************************** &lt;br/&gt;3921, Theft by Unlawful Taking or Disposition.&lt;br/&gt;"/><marker lat="40.457306732974757" lng="-79.901409454912638" zone="Zone 5" incidentdate="2016-05-31" incidenttime="09:00:00" incidentnumber="16100060" address="7000 block Bennett St" type="OFFENSE" age="" gender="" description="*********************************************** &lt;br/&gt;2910, Luring a Child into a Motor Vehicle.&lt;br/&gt;"/><marker lat="40.440801466835453" lng="-79.998159468312707" zone="Zone 2" incidentdate="2016-05-31" incidenttime="16:12:00" incidentnumber="15100276" address="Smithfield St &amp; Oliver Ave" type="OFFENSE" age="" gender="" description="*********************************************** &lt;br/&gt;5505, Public Drunkenness&lt;br/&gt;602.04(b)(1)(b), Panhandling-Hindrance to traffic: Intentionally and Unreasonable causes a pedestrian or vehicle operator to take evasive Action&lt;br/&gt;"/><marker lat="40.4365474" lng="-80.0010604" zone="Zone 2" incidentdate="2016-05-31" incidenttime="18:40:00" incidentnumber="16100418" address="Fort Pitt Blvd &amp; Smithfield St" type="OFFENSE" age="" gender="" description="*********************************************** &lt;br/&gt;3743, Accidents Involving Damage to Attended Veh. or Property&lt;br/&gt;"/><marker lat="40.451518177722548" lng="-80.013728373555793" zone="Zone 1" incidentdate="2016-05-31" incidenttime="23:30:00" incidentnumber="16100617" address="N Lincoln Ave &amp; Brighton Rd" type="OFFENSE" age="" gender="" description="*********************************************** &lt;br/&gt;3304, Criminal Mischief.&lt;br/&gt;3934, Theft from Vehicle&lt;br/&gt;"/><marker lat="40.388284267190109" lng="-80.017369143335557" zone="Zone 6" incidentdate="2016-05-31" incidenttime="06:30:00" incidentnumber="16100065" address="1200 block Fortuna Ave" type="OFFENSE" age="" gender="" description="*********************************************** &lt;br/&gt;3934, Theft from Vehicle&lt;br/&gt;"/><marker lat="40.44923028512747" lng="-79.887209840525756" zone="Zone 5" incidentdate="2016-05-31" incidenttime="00:43:00" incidentnumber="16099887" address="500 block Rosedale St" type="OFFENSE" age="" gender="" description="*********************************************** &lt;br/&gt;2705, Recklessly Endangering Another Person.&lt;br/&gt;2707.1, Discharge of a Firearm into Occupied Structure&lt;br/&gt;8106, Shots Fired&lt;br/&gt;"/><marker lat="40.46185405594904" lng="-79.911853708240017" zone="Zone 5" incidentdate="2016-05-31" incidenttime="05:30:00" incidentnumber="16100100" address="6400 block Carver St" type="OFFENSE" age="" gender="" description="*********************************************** &lt;br/&gt;3934, Theft from Vehicle&lt;br/&gt;"/><marker lat="40.477186168396166" lng="-80.033420226851874" zone="Zone 1" incidentdate="2016-05-31" incidenttime="10:30:00" incidentnumber="16100107" address="3300 block Harbison St" type="OFFENSE" age="" gender="" description="*********************************************** &lt;br/&gt;3304, Criminal Mischief.&lt;br/&gt;3934, Theft from Vehicle&lt;br/&gt;"/><marker lat="40.457563513130026" lng="-79.997923771045023" zone="Zone 1" incidentdate="2016-05-31" incidenttime="08:00:00" incidentnumber="16100058" address="800 block Concord St" type="OFFENSE" age="" gender="" description="*********************************************** &lt;br/&gt;9999, 9999 - (Misc. Incident):&lt;br/&gt;"/><marker lat="40.425535639433569" lng="-80.002978818959178" zone="Zone 3" incidentdate="2016-05-31" incidenttime="08:30:00" incidentnumber="16100071" address="Haberman Ave" type="OFFENSE" age="" gender="" description="*********************************************** &lt;br/&gt;3921(a), Theft by Unlawful Taking or Disposition - Movable item&lt;br/&gt;"/><marker lat="40.445899823505272" lng="-80.052204137456769" zone="Zone 6" incidentdate="2016-05-31" incidenttime="17:02:00" incidentnumber="16100344" address="900 block Woodlow St" type="OFFENSE" age="" gender="" description="*********************************************** &lt;br/&gt;9501, Bench Warrant&lt;br/&gt;"/><marker lat="40.484360562326486" lng="-79.947991867765452" zone="Zone 2" incidentdate="2016-05-31" incidenttime="17:01:00" incidentnumber="16100315" address="5600 block Butler St" type="OFFENSE" age="" gender="" description="*********************************************** &lt;br/&gt;13(a)(16), Possession of Controlled Substance&lt;br/&gt;13(a)(32), Paraphernalia - Use or Possession&lt;br/&gt;4910, Tampering with or Fabricating Physical Evidence.&lt;br/&gt;1501, Drivers Required to be Licensed.&lt;br/&gt;"/><marker lat="40.434933953627883" lng="-80.04682872921758" zone="Zone 6" incidentdate="2016-05-31" incidenttime="08:00:00" incidentnumber="16100279" address="1200 block Colescott St" type="OFFENSE" age="" gender="" description="*********************************************** &lt;br/&gt;901, Criminal Attempt&lt;br/&gt;"/><marker lat="40.443610698976059" lng="-79.998043561602501" zone="Zone 2" incidentdate="2016-05-31" incidenttime="16:40:00" incidentnumber="16100333" address="900 block Penn Ave" type="OFFENSE" age="" gender="" description="*********************************************** &lt;br/&gt;2701, Simple Assault.&lt;br/&gt;"/><marker lat="40.456969199290526" lng="-79.898818806307872" zone="Zone 5" incidentdate="2016-05-31" incidenttime="12:30:00" incidentnumber="16100169" address="800 block Collins Ave" type="OFFENSE" age="" gender="" description="*********************************************** &lt;br/&gt;3921(a), Theft by Unlawful Taking or Disposition - Movable item&lt;br/&gt;"/><marker lat="40.452404907195394" lng="-80.014018734056577" zone="Zone 1" incidentdate="2016-05-31" incidenttime="23:50:00" incidentnumber="16100612" address="Brighton Rd &amp; Western Ave" type="OFFENSE" age="" gender="" description="*********************************************** &lt;br/&gt;3934, Theft from Vehicle&lt;br/&gt;"/><marker lat="40.442099610175106" lng="-79.999498348299113" zone="Zone 2" incidentdate="2016-05-31" incidenttime="11:32:00" incidentnumber="16100123" address="6th Ave &amp; Wood St" type="OFFENSE" age="" gender="" description="*********************************************** &lt;br/&gt;2701, Simple Assault.&lt;br/&gt;"/><marker lat="40.42917390228812" lng="-79.980469886110996" zone="Zone 3" incidentdate="2016-05-31" incidenttime="10:45:00" incidentnumber="16100139" address="1800 block Wrights Way" type="OFFENSE" age="" gender="" description="*********************************************** &lt;br/&gt;2709(a)(1), Harassment by Physical Contact, or Attempts or Threats&lt;br/&gt;"/><marker lat="40.405956204950712" lng="-79.989174874462009" zone="Zone 3" incidentdate="2016-05-31" incidenttime="21:00:00" incidentnumber="16100493" address="100 block Calhoun Ave" type="ARREST" age="39" gender="F" description="*********************************************** &lt;br/&gt;13(a)(16), Possession of Controlled Substance&lt;br/&gt;13(a)(30), Possession w/ Intent to Del. Controlled Substance&lt;br/&gt;13(a)(30)*, Delivery of Controlled Substance&lt;br/&gt;13(a)(31), Marijuana: Possession Small Amount&lt;br/&gt;13(a)(32), Paraphernalia - Use or Possession&lt;br/&gt;"/><marker lat="40.406927429092086" lng="-79.938047831453403" zone="Zone 4" incidentdate="2016-05-31" incidenttime="19:15:00" incidentnumber="15185687" address="100 block Ashton Ave" type="ARREST" age="36" gender="F" description="*********************************************** &lt;br/&gt;3502, Burglary.&lt;br/&gt;9501, Bench Warrant&lt;br/&gt;"/><marker lat="40.487093945777872" lng="-79.932317634538222" zone="Zone 5" incidentdate="2016-05-31" incidenttime="10:20:00" incidentnumber="16023132" address="100 block Hawthorne Ct" type="ARREST" age="21" gender="M" description="*********************************************** &lt;br/&gt;2701, Simple Assault.&lt;br/&gt;2701(a)(1), Simple Assault - Intent., Know., Reckless.Cause Bod. Injury&lt;br/&gt;"/><marker lat="40.462280903246388" lng="-79.91381987819436" zone="Zone 5" incidentdate="2016-05-31" incidenttime="17:40:00" incidentnumber="16100334" address="200 block Mayflower St" type="ARREST" age="25" gender="F" description="*********************************************** &lt;br/&gt;13(a)(16), Possession of Controlled Substance&lt;br/&gt;13(a)(32), Paraphernalia - Use or Possession&lt;br/&gt;1543, Driving While Operating Privilege is Suspended or Revoked.&lt;br/&gt;4303, General Lighting Requirements.&lt;br/&gt;"/><marker lat="40.445899823505272" lng="-80.052204137456769" zone="Zone 6" incidentdate="2016-05-31" incidenttime="17:02:00" incidentnumber="16100344" address="900 block Woodlow St" type="ARREST" age="27" gender="M" description="*********************************************** &lt;br/&gt;9501, Bench Warrant&lt;br/&gt;"/><marker lat="40.386870961213219" lng="-79.981839226067152" zone="Zone 3" incidentdate="2016-05-31" incidenttime="17:45:00" incidentnumber="16095971" address="Clifton St" type="ARREST" age="27" gender="M" description="*********************************************** &lt;br/&gt;3928, Unauthorized Use of Automobile and Other Vehicles.&lt;br/&gt;"/><marker lat="40.457396684455787" lng="-79.896297857079958" zone="Zone 5" incidentdate="2016-05-31" incidenttime="21:25:00" incidentnumber="16088552" address="N Homewood Ave &amp; Frankstown Ave" type="ARREST" age="24" gender="M" description="*********************************************** &lt;br/&gt;13(a)(16), Possession of Controlled Substance&lt;br/&gt;13(a)(30), Possession w/ Intent to Del. Controlled Substance&lt;br/&gt;13(a)(31), Marijuana: Possession Small Amount&lt;br/&gt;4910, Tampering with or Fabricating Physical Evidence.&lt;br/&gt;9015, Failure To Appear/Arrest on Attachment Order&lt;br/&gt;1501, Drivers Required to be Licensed.&lt;br/&gt;1543, Driving While Operating Privilege is Suspended or Revoked.&lt;br/&gt;3334, Turning Movements and Required Signals.&lt;br/&gt;5123, Contraband.&lt;br/&gt;3353, Prohibitions in Specified Places.&lt;br/&gt;"/><marker lat="40.405956204950712" lng="-79.989174874462009" zone="Zone 3" incidentdate="2016-05-31" incidenttime="20:35:00" incidentnumber="16100493" address="100 block Calhoun Ave" type="ARREST" age="15" gender="M" description="*********************************************** &lt;br/&gt;13(a)(16), Possession of Controlled Substance&lt;br/&gt;13(a)(30), Possession w/ Intent to Del. Controlled Substance&lt;br/&gt;13(a)(30)*, Delivery of Controlled Substance&lt;br/&gt;13(a)(31), Marijuana: Possession Small Amount&lt;br/&gt;13(a)(32), Paraphernalia - Use or Possession&lt;br/&gt;"/><marker lat="40.405956204950712" lng="-79.989174874462009" zone="Zone 3" incidentdate="2016-05-31" incidenttime="21:00:00" incidentnumber="16100493" address="100 block Calhoun Ave" type="ARREST" age="34" gender="M" description="*********************************************** &lt;br/&gt;13(a)(16), Possession of Controlled Substance&lt;br/&gt;13(a)(30), Possession w/ Intent to Del. Controlled Substance&lt;br/&gt;13(a)(30)*, Delivery of Controlled Substance&lt;br/&gt;13(a)(31), Marijuana: Possession Small Amount&lt;br/&gt;13(a)(32), Paraphernalia - Use or Possession&lt;br/&gt;"/><marker lat="40.458470135421997" lng="-80.006479820139702" zone="Zone 1" incidentdate="2016-05-31" incidenttime="14:17:00" incidentnumber="16100209" address="1500 block Boyle St" type="ARREST" age="25" gender="" description="*********************************************** &lt;br/&gt;13(a)(32), Paraphernalia - Use or Possession&lt;br/&gt;"/><marker lat="40.413165503664494" lng="-79.922496268226325" zone="Zone 4" incidentdate="2016-05-31" incidenttime="10:10:00" incidentnumber="16090605" address="Imogene Rd &amp; Desdemona Ave" type="ARREST" age="20" gender="M" description="*********************************************** &lt;br/&gt;2705, Recklessly Endangering Another Person.&lt;br/&gt;2702, Aggravated Assault.&lt;br/&gt;903, Criminal Conspiracy.&lt;br/&gt;6106, Firearms not to be Carried without a License.&lt;br/&gt;6105(a)(1), Persons not to possess, use, manufacture, control, sell or transfer firearms: Former convict enumerated in subsection (b)&lt;br/&gt;"/><marker lat="40.434696587775576" lng="-79.996300985228572" zone="Zone 2" incidentdate="2016-05-31" incidenttime="17:05:00" incidentnumber="16095422" address="600 block 1st Ave" type="ARREST" age="46" gender="F" description="*********************************************** &lt;br/&gt;2706, Terroristic Threats.&lt;br/&gt;2701(a)(3), Simple Assault - Attempts by Physical Menace&lt;br/&gt;607.07, Carrying Fascimiles of Firearms Prohibited&lt;br/&gt;"/><marker lat="40.421765137866203" lng="-80.012562866049862" zone="Zone 3" incidentdate="2016-05-31" incidenttime="20:00:00" incidentnumber="15242544" address="Lelia St" type="ARREST" age="31" gender="M" description="*********************************************** &lt;br/&gt;3502, Burglary.&lt;br/&gt;"/><marker lat="40.484360562326486" lng="-79.947991867765452" zone="Zone 2" incidentdate="2016-05-31" incidenttime="17:01:00" incidentnumber="16100315" address="5600 block Butler St" type="ARREST" age="40" gender="M" description="*********************************************** &lt;br/&gt;13(a)(16), Possession of Controlled Substance&lt;br/&gt;13(a)(32), Paraphernalia - Use or Possession&lt;br/&gt;4910, Tampering with or Fabricating Physical Evidence.&lt;br/&gt;1501, Drivers Required to be Licensed.&lt;br/&gt;"/><marker lat="40.471552522400536" lng="-79.931752739319975" zone="Zone 5" incidentdate="2016-05-31" incidenttime="20:00:00" incidentnumber="16099779" address="700 block N Aiken Ave" type="ARREST" age="13" gender="M" description="*********************************************** &lt;br/&gt;3502, Burglary.&lt;br/&gt;3921, Theft by Unlawful Taking or Disposition.&lt;br/&gt;3304(a)(4), CRIMINAL MISCHIEF- Intentionally Damage Property (By Graffiti, Aerosol Spray Paint, Broad Tip Marker, or Similar)&lt;br/&gt;907, Possessing Instruments of Crime.&lt;br/&gt;"/><marker lat="40.437743893340482" lng="-79.965357784459528" zone="Zone 4" incidentdate="2016-05-31" incidenttime="20:20:00" incidentnumber="16100466" address="Robinson St &amp; 5th Ave" type="ARREST" age="24" gender="M" description="*********************************************** &lt;br/&gt;9501, Bench Warrant&lt;br/&gt;"/><marker lat="40.462384137881521" lng="-80.030678564026061" zone="Zone 1" incidentdate="2016-05-31" incidenttime="14:15:00" incidentnumber="16097598" address="Marshall Ave" type="ARREST" age="21" gender="M" description="*********************************************** &lt;br/&gt;3928, Unauthorized Use of Automobile and Other Vehicles.&lt;br/&gt;"/><marker lat="40.464136906438732" lng="-79.920415720327441" zone="Zone 5" incidentdate="2016-05-31" incidenttime="00:08:00" incidentnumber="16098582" address="6200 block Kalida Dr" type="ARREST" age="56" gender="M" description="*********************************************** &lt;br/&gt;3921(a), Theft by Unlawful Taking or Disposition - Movable item&lt;br/&gt;1543, Driving While Operating Privilege is Suspended or Revoked.&lt;br/&gt;3928, Unauthorized Use of Automobile and Other Vehicles.&lt;br/&gt;"/><marker lat="40.461353731915985" lng="-79.92481731514026" zone="Zone 5" incidentdate="2016-05-31" incidenttime="16:05:00" incidentnumber="16100266" address="6000 block Penn Ave" type="ARREST" age="45" gender="M" description="*********************************************** &lt;br/&gt;3701, Robbery.&lt;br/&gt;"/><marker lat="40.444154974530868" lng="-79.992374126247626" zone="Zone 2" incidentdate="2016-05-31" incidenttime="10:40:00" incidentnumber="16069024" address="1100 block Liberty Ave" type="ARREST" age="42" gender="M" description="*********************************************** &lt;br/&gt;9015, Failure To Appear/Arrest on Attachment Order&lt;br/&gt;"/><marker lat="40.405956204950712" lng="-79.989174874462009" zone="Zone 3" incidentdate="2016-05-31" incidenttime="20:35:00" incidentnumber="16100493" address="100 block Calhoun Ave" type="ARREST" age="20" gender="M" description="*********************************************** &lt;br/&gt;13(a)(16), Possession of Controlled Substance&lt;br/&gt;13(a)(30), Possession w/ Intent to Del. Controlled Substance&lt;br/&gt;13(a)(30)*, Delivery of Controlled Substance&lt;br/&gt;13(a)(31), Marijuana: Possession Small Amount&lt;br/&gt;13(a)(32), Paraphernalia - Use or Possession&lt;br/&gt;"/><marker lat="40.454610285615381" lng="-79.888378482601411" zone="Zone 5" incidentdate="2016-05-31" incidenttime="21:25:00" incidentnumber="16100527" address="800 block Brushton Ave" type="ARREST" age="24" gender="M" description="*********************************************** &lt;br/&gt;13(a)(16), Possession of Controlled Substance&lt;br/&gt;13(a)(30), Possession w/ Intent to Del. Controlled Substance&lt;br/&gt;13(a)(31), Marijuana: Possession Small Amount&lt;br/&gt;4910, Tampering with or Fabricating Physical Evidence.&lt;br/&gt;9501, Bench Warrant&lt;br/&gt;5126, Flight to Avoid Apprehension, Trial or Punishment.&lt;br/&gt;"/></markers>
