<?xml version="1.0"?>
<markers><marker lat="40.4627532" lng="-80.0309023" zone="Zone 1" incidentdate="2016-06-07" incidenttime="17:17:00" incidentnumber="16105410" address="2300 block Colorado St" type="OFFENSE" age="" gender="" description="*********************************************** &lt;br/&gt;3745, Accidents Involving Damage to Unattended Veh.or Prop.&lt;br/&gt;3308, One-Way Roadways and Rotary Traffic Islands.&lt;br/&gt;"/><marker lat="40.4406248" lng="-79.9958864" zone="Zone 1" incidentdate="2016-06-07" incidenttime="17:03:00" incidentnumber="16105390" address="Marshall Ave &amp; yfY0lhxpEWo0BpUf3cX8lQ== Ave" type="OFFENSE" age="" gender="" description="*********************************************** &lt;br/&gt;13(a)(31), Marijuana: Possession Small Amount&lt;br/&gt;9501, Bench Warrant&lt;br/&gt;1543, Driving While Operating Privilege is Suspended or Revoked.&lt;br/&gt;4524, Windshield Obstructions and Wipers.&lt;br/&gt;"/><marker lat="40.435095503606554" lng="-79.993077686753679" zone="Zone 2" incidentdate="2016-06-07" incidenttime="15:00:00" incidentnumber="16105342" address="900 block 2nd Ave" type="OFFENSE" age="" gender="" description="*********************************************** &lt;br/&gt;3921(a), Theft by Unlawful Taking or Disposition - Movable item&lt;br/&gt;"/><marker lat="40.474465647840461" lng="-79.914172544461266" zone="Zone 5" incidentdate="2016-06-07" incidenttime="17:30:00" incidentnumber="16105499" address="1200 block Heberton St" type="OFFENSE" age="" gender="" description="*********************************************** &lt;br/&gt;3934, Theft from Vehicle&lt;br/&gt;"/><marker lat="40.448627106619" lng="-79.96128334046243" zone="Zone 2" incidentdate="2016-06-07" incidenttime="00:50:00" incidentnumber="16104970" address="3200 block Centre Ave" type="OFFENSE" age="" gender="" description="*********************************************** &lt;br/&gt;3934, Theft from Vehicle&lt;br/&gt;"/><marker lat="40.440405419312356" lng="-79.987695575442999" zone="Zone 2" incidentdate="2016-06-07" incidenttime="07:00:00" incidentnumber="16105482" address="1400 block Centre Ave" type="OFFENSE" age="" gender="" description="*********************************************** &lt;br/&gt;3304, Criminal Mischief.&lt;br/&gt;3934, Theft from Vehicle&lt;br/&gt;"/><marker lat="40.4374189" lng="-79.9201313" zone="Zone 4" incidentdate="2016-06-07" incidenttime="21:50:00" incidentnumber="16105558" address="5800 block Shady Forbes Ter" type="OFFENSE" age="" gender="" description="*********************************************** &lt;br/&gt;3304(a)(5), CRIMINAL MISCHIEF - Intentionally Damages Real Or Personal Property Of Another&lt;br/&gt;"/><marker lat="40.440697119948119" lng="-80.003946068250272" zone="Zone 2" incidentdate="2016-06-07" incidenttime="19:01:00" incidentnumber="16105453" address="100 block Forbes Ave" type="OFFENSE" age="" gender="" description="*********************************************** &lt;br/&gt;9501, Bench Warrant&lt;br/&gt;"/><marker lat="40.434696587775576" lng="-79.996300985228572" zone="Zone 2" incidentdate="2016-06-07" incidenttime="18:00:00" incidentnumber="16094942" address="600 block 1st Ave" type="OFFENSE" age="" gender="" description="*********************************************** &lt;br/&gt;2701(a)(1), Simple Assault - Intent., Know., Reckless.Cause Bod. Injury&lt;br/&gt;"/><marker lat="40.4626234" lng="-80.0082893" zone="Zone 1" incidentdate="2016-06-07" incidenttime="05:00:00" incidentnumber="16105042" address="1800 block Letsche St" type="OFFENSE" age="" gender="" description="*********************************************** &lt;br/&gt;9488, False  Burglar Alarm&lt;br/&gt;"/><marker lat="40.453969822993002" lng="-79.998974758094874" zone="Zone 1" incidentdate="2016-06-07" incidenttime="21:58:00" incidentnumber="16105559" address="600 block East Ohio St" type="OFFENSE" age="" gender="" description="*********************************************** &lt;br/&gt;13(a)(32), Paraphernalia - Use or Possession&lt;br/&gt;5505, Public Drunkenness&lt;br/&gt;"/><marker lat="40.423701811107328" lng="-79.997552630724996" zone="Zone 3" incidentdate="2016-06-07" incidenttime="13:00:00" incidentnumber="16105137" address="Beltzhoover Ave" type="OFFENSE" age="" gender="" description="*********************************************** &lt;br/&gt;13(a)(16), Possession of Controlled Substance&lt;br/&gt;13(a)(30), Possession w/ Intent to Del. Controlled Substance&lt;br/&gt;13(a)(31), Marijuana: Possession Small Amount&lt;br/&gt;13(a)(32), Paraphernalia - Use or Possession&lt;br/&gt;3736, Reckless Driving&lt;br/&gt;6105(a)(1), Persons not to possess, use, manufacture, control, sell or transfer firearms: Former convict enumerated in subsection (b)&lt;br/&gt;"/><marker lat="40.405206538571626" lng="-80.035588363312129" zone="Zone 6" incidentdate="2016-06-07" incidenttime="05:05:00" incidentnumber="16105056" address="2500 block Dalemount St" type="OFFENSE" age="" gender="" description="*********************************************** &lt;br/&gt;2701, Simple Assault.&lt;br/&gt;2701(a)(1), Simple Assault - Intent., Know., Reckless.Cause Bod. Injury&lt;br/&gt;"/><marker lat="40.452042212663898" lng="-80.008738896002342" zone="Zone 1" incidentdate="2016-06-07" incidenttime="19:24:00" incidentnumber="16105477" address="200 block Ridge Ave" type="OFFENSE" age="" gender="" description="*********************************************** &lt;br/&gt;029, Missing Juvenile&lt;br/&gt;"/><marker lat="40.483410482113293" lng="-80.033613150744969" zone="Zone 1" incidentdate="2016-06-07" incidenttime="03:13:00" incidentnumber="16084264" address="3700 block Atkins St" type="OFFENSE" age="" gender="" description="*********************************************** &lt;br/&gt;3304, Criminal Mischief.&lt;br/&gt;2701, Simple Assault.&lt;br/&gt;2701(a)(1), Simple Assault - Intent., Know., Reckless.Cause Bod. Injury&lt;br/&gt;"/><marker lat="40.400367942144548" lng="-79.989221496131464" zone="Zone 3" incidentdate="2016-06-07" incidenttime="15:35:00" incidentnumber="16105398" address="1500 block Brownsville Rd" type="OFFENSE" age="" gender="" description="*********************************************** &lt;br/&gt;2709, Harassment (Non-Specific)&lt;br/&gt;4952, Intimidation of Witnesses or Victims&lt;br/&gt;"/><marker lat="40.463869858088039" lng="-79.902059944400222" zone="Zone 5" incidentdate="2016-06-07" incidenttime="15:00:00" incidentnumber="16105377" address="Lincoln Ave &amp; Upland St" type="OFFENSE" age="" gender="" description="*********************************************** &lt;br/&gt;9999, 9999 - (Misc. Incident):&lt;br/&gt;"/><marker lat="40.454923843876159" lng="-80.062136794198338" zone="Zone 6" incidentdate="2016-06-07" incidenttime="17:30:00" incidentnumber="16105426" address="1100 block Fairdale St" type="OFFENSE" age="" gender="" description="*********************************************** &lt;br/&gt;3921(a), Theft by Unlawful Taking or Disposition - Movable item&lt;br/&gt;3701, Robbery.&lt;br/&gt;"/><marker lat="40.471735756604645" lng="-79.937286491931388" zone="Zone 5" incidentdate="2016-06-07" incidenttime="12:17:00" incidentnumber="16105241" address="200 block Fern St" type="OFFENSE" age="" gender="" description="*********************************************** &lt;br/&gt;029, Missing Juvenile&lt;br/&gt;"/><marker lat="40.461392541723988" lng="-79.919695157123542" zone="Zone 5" incidentdate="2016-06-07" incidenttime="03:15:00" incidentnumber="16105012" address="Cambria Ct" type="OFFENSE" age="" gender="" description="*********************************************** &lt;br/&gt;13(a)(31), Marijuana: Possession Small Amount&lt;br/&gt;9501, Bench Warrant&lt;br/&gt;"/><marker lat="40.410441886301861" lng="-80.024947612351937" zone="Zone 6" incidentdate="2016-06-07" incidenttime="09:00:00" incidentnumber="16105183" address="1600 block Broadway Ave" type="OFFENSE" age="" gender="" description="*********************************************** &lt;br/&gt;3304, Criminal Mischief.&lt;br/&gt;"/><marker lat="40.464611414920704" lng="-80.028608393736079" zone="Zone 1" incidentdate="2016-06-07" incidenttime="13:55:00" incidentnumber="16105292" address="1300 block Halsey Pl" type="OFFENSE" age="" gender="" description="*********************************************** &lt;br/&gt;2709(a)(1), Harassment by Physical Contact, or Attempts or Threats&lt;br/&gt;"/><marker lat="40.438995735762752" lng="-79.995598028743558" zone="Zone 2" incidentdate="2016-06-07" incidenttime="17:08:00" incidentnumber="16105397" address="Ross St &amp; 5th Ave" type="OFFENSE" age="" gender="" description="*********************************************** &lt;br/&gt;3921(a), Theft by Unlawful Taking or Disposition - Movable item&lt;br/&gt;3925, Receiving Stolen Property.&lt;br/&gt;"/><marker lat="40.442390418433455" lng="-79.999846344464984" zone="Zone 2" incidentdate="2016-06-07" incidenttime="19:00:00" incidentnumber="16105481" address="700 block Liberty Ave" type="OFFENSE" age="" gender="" description="*********************************************** &lt;br/&gt;3502, Burglary.&lt;br/&gt;3921, Theft by Unlawful Taking or Disposition.&lt;br/&gt;"/><marker lat="40.42867374142034" lng="-79.989808974702029" zone="Zone 3" incidentdate="2016-06-07" incidenttime="15:24:00" incidentnumber="16105372" address="E Carson St &amp; S 9th St" type="OFFENSE" age="" gender="" description="*********************************************** &lt;br/&gt;13(a)(31), Marijuana: Possession Small Amount&lt;br/&gt;9501, Bench Warrant&lt;br/&gt;1543, Driving While Operating Privilege is Suspended or Revoked.&lt;br/&gt;4914, False Identification to Law Enforcement Authorities&lt;br/&gt;"/><marker lat="40.470694962675232" lng="-80.03040156366707" zone="Zone 1" incidentdate="2016-06-07" incidenttime="13:00:00" incidentnumber="16105226" address="2900 block Shadeland Ave" type="OFFENSE" age="" gender="" description="*********************************************** &lt;br/&gt;3736, Reckless Driving&lt;br/&gt;"/><marker lat="40.41494705723931" lng="-80.074547995559456" zone="Zone 6" incidentdate="2016-06-07" incidenttime="17:06:00" incidentnumber="16105387" address="800 block Doolittle St" type="OFFENSE" age="" gender="" description="*********************************************** &lt;br/&gt;9497, Aided Case&lt;br/&gt;"/><marker lat="40.453078932067271" lng="-79.89477851667688" zone="Zone 5" incidentdate="2016-06-07" incidenttime="01:27:00" incidentnumber="16104959" address="7400 block Tioga St" type="OFFENSE" age="" gender="" description="*********************************************** &lt;br/&gt;13(a)(16), Possession of Controlled Substance&lt;br/&gt;3304, Criminal Mischief.&lt;br/&gt;3304(a)(5), CRIMINAL MISCHIEF - Intentionally Damages Real Or Personal Property Of Another&lt;br/&gt;3503.B1I, DEF. TRESPASS ACTUAL COMMUNICATION&lt;br/&gt;5123, Contraband.&lt;br/&gt;5506, Loitering and Prowling at Night&lt;br/&gt;"/><marker lat="40.452210852851195" lng="-79.998676352919205" zone="Zone 1" incidentdate="2016-06-07" incidenttime="08:45:00" incidentnumber="16105128" address="600 block Pressley St" type="OFFENSE" age="" gender="" description="*********************************************** &lt;br/&gt;3502, Burglary.&lt;br/&gt;"/><marker lat="40.476377925537506" lng="-80.039721353393048" zone="Zone 1" incidentdate="2016-06-07" incidenttime="05:57:00" incidentnumber="16105064" address="3400 block California Ave" type="OFFENSE" age="" gender="" description="*********************************************** &lt;br/&gt;9488, False  Burglar Alarm&lt;br/&gt;"/><marker lat="40.451945421387748" lng="-79.952009729366381" zone="Zone 4" incidentdate="2016-06-07" incidenttime="13:27:00" incidentnumber="16105322" address="4600 block Centre Ave" type="OFFENSE" age="" gender="" description="*********************************************** &lt;br/&gt;3929(a)(1), Retail Theft; takes possession of, carries away, or transfers displayed merchandise&lt;br/&gt;"/><marker lat="40.392419723002341" lng="-80.009258199288126" zone="Zone 6" incidentdate="2016-06-07" incidenttime="07:19:00" incidentnumber="16105084" address="400 block Brookline Blvd" type="OFFENSE" age="" gender="" description="*********************************************** &lt;br/&gt;2709(a)(1), Harassment by Physical Contact, or Attempts or Threats&lt;br/&gt;"/><marker lat="40.454204011355536" lng="-80.021261849835767" zone="Zone 1" incidentdate="2016-06-07" incidenttime="14:00:00" incidentnumber="16105340" address="1100 block Sheffield St" type="OFFENSE" age="" gender="" description="*********************************************** &lt;br/&gt;3304, Criminal Mischief.&lt;br/&gt;2707.1, Discharge of a Firearm into Occupied Structure&lt;br/&gt;"/><marker lat="40.379623062545122" lng="-79.92547795425601" zone="Zone 4" incidentdate="2016-06-07" incidenttime="15:25:00" incidentnumber="16105330" address="Mifflin Rd &amp; Lebanon Rd" type="OFFENSE" age="" gender="" description="*********************************************** &lt;br/&gt;3743, Accidents Involving Damage to Attended Veh. or Property&lt;br/&gt;"/><marker lat="40.487551319845878" lng="-80.016020890107271" zone="Zone 1" incidentdate="2016-06-07" incidenttime="03:25:00" incidentnumber="16105013" address="3800 block Perrysville Ave" type="OFFENSE" age="" gender="" description="*********************************************** &lt;br/&gt;9488, False  Burglar Alarm&lt;br/&gt;"/><marker lat="40.436856050971414" lng="-79.985270542004443" zone="Zone 2" incidentdate="2016-06-07" incidenttime="08:31:00" incidentnumber="16105535" address="Pride St" type="OFFENSE" age="" gender="" description="*********************************************** &lt;br/&gt;2701(a)(1), Simple Assault - Intent., Know., Reckless.Cause Bod. Injury&lt;br/&gt;"/><marker lat="40.408087363631154" lng="-79.992146899928159" zone="Zone 3" incidentdate="2016-06-07" incidenttime="09:00:00" incidentnumber="16105329" address="200 block Reifert St" type="OFFENSE" age="" gender="" description="*********************************************** &lt;br/&gt;3921(a), Theft by Unlawful Taking or Disposition - Movable item&lt;br/&gt;"/><marker lat="40.387933902248847" lng="-79.987406647853405" zone="Zone 3" incidentdate="2016-06-07" incidenttime="00:12:00" incidentnumber="16104936" address="2300 block Valera St" type="OFFENSE" age="" gender="" description="*********************************************** &lt;br/&gt;3921(a), Theft by Unlawful Taking or Disposition - Movable item&lt;br/&gt;"/><marker lat="40.436506732106871" lng="-79.979646259936843" zone="Zone 2" incidentdate="2016-06-07" incidenttime="16:40:00" incidentnumber="16105391" address="Gist St" type="OFFENSE" age="" gender="" description="*********************************************** &lt;br/&gt;3745, Accidents Involving Damage to Unattended Veh.or Prop.&lt;br/&gt;"/><marker lat="40.454940175208797" lng="-79.940585296338455" zone="Zone 4" incidentdate="2016-06-07" incidenttime="16:10:00" incidentnumber="16105339" address="5200 block Centre Ave" type="OFFENSE" age="" gender="" description="*********************************************** &lt;br/&gt;2702, Aggravated Assault.&lt;br/&gt;"/><marker lat="40.4473447" lng="-79.9765042" zone="Zone 2" incidentdate="2016-06-07" incidenttime="15:30:00" incidentnumber="16105368" address="2200 block Midtown Sq" type="OFFENSE" age="" gender="" description="*********************************************** &lt;br/&gt;9490, Missing Persons (18 and Over)&lt;br/&gt;"/><marker lat="40.430516543411507" lng="-79.923463518043434" zone="Zone 4" incidentdate="2016-06-07" incidenttime="17:38:00" incidentnumber="16105427" address="2300 block Murray Ave" type="OFFENSE" age="" gender="" description="*********************************************** &lt;br/&gt;13(a)(16), Possession of Controlled Substance&lt;br/&gt;13(a)(32), Paraphernalia - Use or Possession&lt;br/&gt;"/><marker lat="40.456969199290526" lng="-79.898818806307872" zone="Zone 5" incidentdate="2016-06-07" incidenttime="08:00:00" incidentnumber="16105102" address="800 block Collins Ave" type="OFFENSE" age="" gender="" description="*********************************************** &lt;br/&gt;9999, 9999 - (Misc. Incident):&lt;br/&gt;"/><marker lat="40.4584877" lng="-79.9133153" zone="Zone 5" incidentdate="2016-06-07" incidenttime="09:00:00" incidentnumber="16105122" address="100 block Putnam St" type="OFFENSE" age="" gender="" description="*********************************************** &lt;br/&gt;3502, Burglary.&lt;br/&gt;"/><marker lat="40.404914940128336" lng="-80.040145473413176" zone="Zone 6" incidentdate="2016-06-07" incidenttime="10:00:00" incidentnumber="16105466" address="2800 block Banksville Ave" type="OFFENSE" age="" gender="" description="*********************************************** &lt;br/&gt;3923, Theft by Extortion.&lt;br/&gt;"/><marker lat="40.454204011355536" lng="-80.021261849835767" zone="Zone 1" incidentdate="2016-06-07" incidenttime="14:00:00" incidentnumber="16105333" address="1100 block Sheffield St" type="OFFENSE" age="" gender="" description="*********************************************** &lt;br/&gt;3304, Criminal Mischief.&lt;br/&gt;"/><marker lat="40.419855375129657" lng="-80.013314123419491" zone="Zone 3" incidentdate="2016-06-07" incidenttime="18:38:00" incidentnumber="16105454" address="700 block Southern Ave" type="OFFENSE" age="" gender="" description="*********************************************** &lt;br/&gt;029, Missing Juvenile&lt;br/&gt;"/><marker lat="40.438245622641972" lng="-79.979393201936006" zone="Zone 2" incidentdate="2016-06-07" incidenttime="03:28:00" incidentnumber="16105015" address="1900 block 5th Ave" type="OFFENSE" age="" gender="" description="*********************************************** &lt;br/&gt;13(a)(16), Possession of Controlled Substance&lt;br/&gt;13(a)(30), Possession w/ Intent to Del. Controlled Substance&lt;br/&gt;13(a)(32), Paraphernalia - Use or Possession&lt;br/&gt;"/><marker lat="40.456801957165126" lng="-79.958416299056594" zone="Zone 2" incidentdate="2016-06-07" incidenttime="00:52:00" incidentnumber="16104935" address="3500 block Webster Ave" type="OFFENSE" age="" gender="" description="*********************************************** &lt;br/&gt;2702, Aggravated Assault.&lt;br/&gt;2701(a)(1), Simple Assault - Intent., Know., Reckless.Cause Bod. Injury&lt;br/&gt;"/><marker lat="40.454852547055388" lng="-79.994465272740655" zone="Zone 1" incidentdate="2016-06-07" incidenttime="03:46:00" incidentnumber="16105020" address="Chestnut St &amp; East Ohio St" type="OFFENSE" age="" gender="" description="*********************************************** &lt;br/&gt;13(a)(32), Paraphernalia - Use or Possession&lt;br/&gt;3802(d)(2), DUI - Drug - Impaired Ability&lt;br/&gt;2706, Terroristic Threats.&lt;br/&gt;"/><marker lat="40.463684521405213" lng="-80.05606954409491" zone="Zone 6" incidentdate="2016-06-07" incidenttime="03:54:00" incidentnumber="16105025" address="300 block Stanhope St" type="OFFENSE" age="" gender="" description="*********************************************** &lt;br/&gt;3701, Robbery.&lt;br/&gt;"/><marker lat="40.487801005676396" lng="-80.019268202166529" zone="Zone 1" incidentdate="2016-06-07" incidenttime="17:15:00" incidentnumber="16105456" address="Semicir St" type="OFFENSE" age="" gender="" description="*********************************************** &lt;br/&gt;2701, Simple Assault.&lt;br/&gt;2706, Terroristic Threats.&lt;br/&gt;"/><marker lat="40.428987221718174" lng="-79.968079690915459" zone="Zone 3" incidentdate="2016-06-07" incidenttime="04:30:00" incidentnumber="16105082" address="2500 block Wharton St" type="OFFENSE" age="" gender="" description="*********************************************** &lt;br/&gt;3921, Theft by Unlawful Taking or Disposition.&lt;br/&gt;"/><marker lat="40.446595259129687" lng="-79.905392938698398" zone="Zone 4" incidentdate="2016-06-07" incidenttime="18:00:00" incidentnumber="16105455" address="7100 block Reynolds St" type="OFFENSE" age="" gender="" description="*********************************************** &lt;br/&gt;3502, Burglary.&lt;br/&gt;"/><marker lat="40.423701811107328" lng="-79.997552630724996" zone="Zone 3" incidentdate="2016-06-07" incidenttime="09:20:00" incidentnumber="16105137" address="Beltzhoover Ave" type="ARREST" age="35" gender="M" description="*********************************************** &lt;br/&gt;13(a)(16), Possession of Controlled Substance&lt;br/&gt;13(a)(30), Possession w/ Intent to Del. Controlled Substance&lt;br/&gt;13(a)(31), Marijuana: Possession Small Amount&lt;br/&gt;13(a)(32), Paraphernalia - Use or Possession&lt;br/&gt;3736, Reckless Driving&lt;br/&gt;6105(a)(1), Persons not to possess, use, manufacture, control, sell or transfer firearms: Former convict enumerated in subsection (b)&lt;br/&gt;"/><marker lat="40.440697119948119" lng="-80.003946068250272" zone="Zone 2" incidentdate="2016-06-07" incidenttime="19:01:00" incidentnumber="16105453" address="100 block Forbes Ave" type="ARREST" age="30" gender="M" description="*********************************************** &lt;br/&gt;9501, Bench Warrant&lt;br/&gt;"/><marker lat="40.420726146964086" lng="-79.99577696678854" zone="Zone 3" incidentdate="2016-06-07" incidenttime="16:00:00" incidentnumber="16051603" address="700 block Industry St" type="ARREST" age="31" gender="M" description="*********************************************** &lt;br/&gt;2701, Simple Assault.&lt;br/&gt;"/><marker lat="40.438995735762752" lng="-79.995598028743558" zone="Zone 2" incidentdate="2016-06-07" incidenttime="17:08:00" incidentnumber="16105397" address="Ross St &amp; 5th Ave" type="ARREST" age="23" gender="F" description="*********************************************** &lt;br/&gt;3921(a), Theft by Unlawful Taking or Disposition - Movable item&lt;br/&gt;3925, Receiving Stolen Property.&lt;br/&gt;"/><marker lat="40.435095503606554" lng="-79.993077686753679" zone="Zone 2" incidentdate="2016-06-07" incidenttime="16:00:00" incidentnumber="16094310" address="900 block 2nd Ave" type="ARREST" age="23" gender="F" description="*********************************************** &lt;br/&gt;2702, Aggravated Assault.&lt;br/&gt;2706, Terroristic Threats.&lt;br/&gt;"/><marker lat="40.4406248" lng="-79.9958864" zone="Zone 1" incidentdate="2016-06-07" incidenttime="17:03:00" incidentnumber="16105390" address="Marshall Ave &amp; yfY0lhxpEWo0BpUf3cX8lQ== Ave" type="ARREST" age="25" gender="M" description="*********************************************** &lt;br/&gt;13(a)(31), Marijuana: Possession Small Amount&lt;br/&gt;9501, Bench Warrant&lt;br/&gt;1543, Driving While Operating Privilege is Suspended or Revoked.&lt;br/&gt;4524, Windshield Obstructions and Wipers.&lt;br/&gt;"/><marker lat="40.453078932067271" lng="-79.89477851667688" zone="Zone 5" incidentdate="2016-06-07" incidenttime="01:35:00" incidentnumber="16104959" address="7400 block Tioga St" type="ARREST" age="28" gender="M" description="*********************************************** &lt;br/&gt;13(a)(16), Possession of Controlled Substance&lt;br/&gt;3304, Criminal Mischief.&lt;br/&gt;3304(a)(5), CRIMINAL MISCHIEF - Intentionally Damages Real Or Personal Property Of Another&lt;br/&gt;3503.B1I, DEF. TRESPASS ACTUAL COMMUNICATION&lt;br/&gt;5123, Contraband.&lt;br/&gt;5506, Loitering and Prowling at Night&lt;br/&gt;"/><marker lat="40.405206538571626" lng="-80.035588363312129" zone="Zone 6" incidentdate="2016-06-07" incidenttime="06:45:00" incidentnumber="16105056" address="2500 block Dalemount St" type="ARREST" age="35" gender="M" description="*********************************************** &lt;br/&gt;2701, Simple Assault.&lt;br/&gt;2701(a)(1), Simple Assault - Intent., Know., Reckless.Cause Bod. Injury&lt;br/&gt;"/><marker lat="40.438369941847732" lng="-79.986310041229473" zone="Zone 2" incidentdate="2016-06-07" incidenttime="22:00:00" incidentnumber="16054494" address="1400 block 5th Ave" type="ARREST" age="35" gender="M" description="*********************************************** &lt;br/&gt;2701(a)(1), Simple Assault - Intent., Know., Reckless.Cause Bod. Injury&lt;br/&gt;"/><marker lat="40.4385648058716" lng="-79.990836351975489" zone="Zone 2" incidentdate="2016-06-07" incidenttime="08:52:00" incidentnumber="16055773" address="1000 block 5th Ave" type="ARREST" age="23" gender="M" description="*********************************************** &lt;br/&gt;9015, Failure To Appear/Arrest on Attachment Order&lt;br/&gt;3934, Theft from Vehicle&lt;br/&gt;3925, Receiving Stolen Property.&lt;br/&gt;"/><marker lat="40.473359809023023" lng="-80.031376434798332" zone="Zone 1" incidentdate="2016-06-07" incidenttime="12:30:00" incidentnumber="16061761" address="3100 block Shadeland Ave" type="ARREST" age="25" gender="M" description="*********************************************** &lt;br/&gt;2501, Criminal Homicide.&lt;br/&gt;"/><marker lat="40.438245622641972" lng="-79.979393201936006" zone="Zone 2" incidentdate="2016-06-07" incidenttime="03:40:00" incidentnumber="16105015" address="1900 block 5th Ave" type="ARREST" age="42" gender="F" description="*********************************************** &lt;br/&gt;13(a)(16), Possession of Controlled Substance&lt;br/&gt;13(a)(30), Possession w/ Intent to Del. Controlled Substance&lt;br/&gt;13(a)(32), Paraphernalia - Use or Possession&lt;br/&gt;"/><marker lat="40.483410482113293" lng="-80.033613150744969" zone="Zone 1" incidentdate="2016-06-07" incidenttime="03:15:00" incidentnumber="16084264" address="3700 block Atkins St" type="ARREST" age="18" gender="F" description="*********************************************** &lt;br/&gt;3304, Criminal Mischief.&lt;br/&gt;2701, Simple Assault.&lt;br/&gt;2701(a)(1), Simple Assault - Intent., Know., Reckless.Cause Bod. Injury&lt;br/&gt;"/><marker lat="40.412030234321499" lng="-80.020364495718169" zone="Zone 6" incidentdate="2016-06-07" incidenttime="12:55:00" incidentnumber="16082487" address="1500 block Rockland Ave" type="ARREST" age="19" gender="M" description="*********************************************** &lt;br/&gt;3502, Burglary.&lt;br/&gt;13(a)(31), Marijuana: Possession Small Amount&lt;br/&gt;3701, Robbery.&lt;br/&gt;903, Criminal Conspiracy.&lt;br/&gt;2706, Terroristic Threats.&lt;br/&gt;907, Possessing Instruments of Crime.&lt;br/&gt;908, Prohibited Offensive Weapons.&lt;br/&gt;13(a)(31)(ii), Marijuana - Possess Small Amt Intent to Distribute&lt;br/&gt;"/><marker lat="40.434696587775576" lng="-79.996300985228572" zone="Zone 2" incidentdate="2016-06-07" incidenttime="18:00:00" incidentnumber="16094942" address="600 block 1st Ave" type="ARREST" age="24" gender="F" description="*********************************************** &lt;br/&gt;2701(a)(1), Simple Assault - Intent., Know., Reckless.Cause Bod. Injury&lt;br/&gt;"/><marker lat="40.408117826338788" lng="-79.945917480605573" zone="Zone 4" incidentdate="2016-06-07" incidenttime="14:20:00" incidentnumber="16043518" address="Lytle St &amp; Tecumseh St" type="ARREST" age="23" gender="F" description="*********************************************** &lt;br/&gt;13(a)(16), Possession of Controlled Substance&lt;br/&gt;13(a)(32), Paraphernalia - Use or Possession&lt;br/&gt;9501, Bench Warrant&lt;br/&gt;9015, Failure To Appear/Arrest on Attachment Order&lt;br/&gt;"/><marker lat="40.447070656722659" lng="-79.895151948393476" zone="Zone 4" incidentdate="2016-06-07" incidenttime="22:01:00" incidentnumber="16102659" address="7600 block Penn Ave" type="ARREST" age="46" gender="M" description="*********************************************** &lt;br/&gt;2709(a)(1), Harassment by Physical Contact, or Attempts or Threats&lt;br/&gt;3503.B1I, DEF. TRESPASS ACTUAL COMMUNICATION&lt;br/&gt;"/><marker lat="40.453969822993002" lng="-79.998974758094874" zone="Zone 1" incidentdate="2016-06-07" incidenttime="21:58:00" incidentnumber="16105559" address="600 block East Ohio St" type="ARREST" age="56" gender="M" description="*********************************************** &lt;br/&gt;13(a)(32), Paraphernalia - Use or Possession&lt;br/&gt;5505, Public Drunkenness&lt;br/&gt;"/><marker lat="40.454852547055388" lng="-79.994465272740655" zone="Zone 1" incidentdate="2016-06-07" incidenttime="04:00:00" incidentnumber="16105020" address="Chestnut St &amp; East Ohio St" type="ARREST" age="37" gender="M" description="*********************************************** &lt;br/&gt;13(a)(32), Paraphernalia - Use or Possession&lt;br/&gt;3802(d)(2), DUI - Drug - Impaired Ability&lt;br/&gt;2706, Terroristic Threats.&lt;br/&gt;"/><marker lat="40.442103943882657" lng="-79.969666775343896" zone="Zone 2" incidentdate="2016-06-07" incidenttime="09:30:00" incidentnumber="16101075" address="400 block Oak Hill Dr" type="ARREST" age="60" gender="F" description="*********************************************** &lt;br/&gt;2701, Simple Assault.&lt;br/&gt;2701(a)(1), Simple Assault - Intent., Know., Reckless.Cause Bod. Injury&lt;br/&gt;"/><marker lat="40.430516543411507" lng="-79.923463518043434" zone="Zone 4" incidentdate="2016-06-07" incidenttime="18:05:00" incidentnumber="16105427" address="2300 block Murray Ave" type="ARREST" age="35" gender="M" description="*********************************************** &lt;br/&gt;13(a)(16), Possession of Controlled Substance&lt;br/&gt;13(a)(32), Paraphernalia - Use or Possession&lt;br/&gt;"/><marker lat="40.461392541723988" lng="-79.919695157123542" zone="Zone 5" incidentdate="2016-06-07" incidenttime="03:15:00" incidentnumber="16105012" address="Cambria Ct" type="ARREST" age="18" gender="F" description="*********************************************** &lt;br/&gt;13(a)(31), Marijuana: Possession Small Amount&lt;br/&gt;9501, Bench Warrant&lt;br/&gt;"/><marker lat="40.423701811107328" lng="-79.997552630724996" zone="Zone 3" incidentdate="2016-06-07" incidenttime="09:15:00" incidentnumber="16105137" address="Beltzhoover Ave" type="ARREST" age="26" gender="F" description="*********************************************** &lt;br/&gt;13(a)(16), Possession of Controlled Substance&lt;br/&gt;13(a)(30), Possession w/ Intent to Del. Controlled Substance&lt;br/&gt;13(a)(31), Marijuana: Possession Small Amount&lt;br/&gt;13(a)(32), Paraphernalia - Use or Possession&lt;br/&gt;3736, Reckless Driving&lt;br/&gt;6105(a)(1), Persons not to possess, use, manufacture, control, sell or transfer firearms: Former convict enumerated in subsection (b)&lt;br/&gt;"/><marker lat="40.434696587775576" lng="-79.996300985228572" zone="Zone 2" incidentdate="2016-06-07" incidenttime="18:30:00" incidentnumber="16101192" address="600 block 1st Ave" type="ARREST" age="19" gender="M" description="*********************************************** &lt;br/&gt;3743, Accidents Involving Damage to Attended Veh. or Property&lt;br/&gt;3714, Careless Driving&lt;br/&gt;"/><marker lat="40.438245622641972" lng="-79.979393201936006" zone="Zone 2" incidentdate="2016-06-07" incidenttime="03:30:00" incidentnumber="16105015" address="1900 block 5th Ave" type="ARREST" age="42" gender="M" description="*********************************************** &lt;br/&gt;13(a)(16), Possession of Controlled Substance&lt;br/&gt;13(a)(30), Possession w/ Intent to Del. Controlled Substance&lt;br/&gt;13(a)(32), Paraphernalia - Use or Possession&lt;br/&gt;"/><marker lat="40.456801957165126" lng="-79.958416299056594" zone="Zone 2" incidentdate="2016-06-07" incidenttime="00:52:00" incidentnumber="16104935" address="3500 block Webster Ave" type="ARREST" age="23" gender="M" description="*********************************************** &lt;br/&gt;2702, Aggravated Assault.&lt;br/&gt;2701(a)(1), Simple Assault - Intent., Know., Reckless.Cause Bod. Injury&lt;br/&gt;"/><marker lat="40.42867374142034" lng="-79.989808974702029" zone="Zone 3" incidentdate="2016-06-07" incidenttime="15:24:00" incidentnumber="16105372" address="E Carson St &amp; S 9th St" type="ARREST" age="24" gender="M" description="*********************************************** &lt;br/&gt;13(a)(31), Marijuana: Possession Small Amount&lt;br/&gt;9501, Bench Warrant&lt;br/&gt;1543, Driving While Operating Privilege is Suspended or Revoked.&lt;br/&gt;4914, False Identification to Law Enforcement Authorities&lt;br/&gt;"/><marker lat="40.452210852851195" lng="-79.998676352919205" zone="Zone 1" incidentdate="2016-06-07" incidenttime="09:25:00" incidentnumber="16105128" address="600 block Pressley St" type="ARREST" age="42" gender="M" description="*********************************************** &lt;br/&gt;3502, Burglary.&lt;br/&gt;"/><marker lat="40.498779416841536" lng="-80.017102664754916" zone="Zone 1" incidentdate="2016-06-07" incidenttime="00:27:00" incidentnumber="16104926" address="100 block Montville St" type="ARREST" age="46" gender="M" description="*********************************************** &lt;br/&gt;2701(a)(1), Simple Assault - Intent., Know., Reckless.Cause Bod. Injury&lt;br/&gt;"/></markers>
