<?xml version="1.0"?>
<markers><marker lat="40.455504998738647" lng="-80.007850467221047" zone="Zone 1" incidentdate="2016-02-09" incidenttime="03:24:00" incidentnumber="16214111" address="100 block W North Ave" type="OFFENSE" age="" gender="" description="*********************************************** &lt;br/&gt;9488, False  Burglar Alarm&lt;br/&gt;"/><marker lat="40.405118641311411" lng="-80.029017936914556" zone="Zone 6" incidentdate="2016-02-09" incidenttime="18:00:00" incidentnumber="16024477" address="2100 block Los Angeles Ave" type="OFFENSE" age="" gender="" description="*********************************************** &lt;br/&gt;2709(a)(1), Harassment by Physical Contact, or Attempts or Threats&lt;br/&gt;"/><marker lat="40.470800237125033" lng="-79.956106836569901" zone="Zone 2" incidentdate="2016-02-09" incidenttime="19:30:00" incidentnumber="16024547" address="200 block 46th St" type="OFFENSE" age="" gender="" description="*********************************************** &lt;br/&gt;4106, Access Device Fraud&lt;br/&gt;"/><marker lat="40.44921639703751" lng="-79.901241414432519" zone="Zone 3" incidentdate="2016-02-09" incidenttime="11:48:00" incidentnumber="16024306" address="200 block Penn Ave" type="OFFENSE" age="" gender="" description="*********************************************** &lt;br/&gt;2709, Harassment (Non-Specific)&lt;br/&gt;"/><marker lat="40.387933902248847" lng="-79.987406647853405" zone="Zone 3" incidentdate="2016-02-09" incidenttime="12:11:00" incidentnumber="16024289" address="2300 block Valera St" type="OFFENSE" age="" gender="" description="*********************************************** &lt;br/&gt;4912, Impersonating a Public Servant.&lt;br/&gt;"/><marker lat="40.430201820099988" lng="-80.048123213759851" zone="Zone 6" incidentdate="2016-02-09" incidenttime="11:18:00" incidentnumber="16024265" address="1900 block Warriors Rd" type="OFFENSE" age="" gender="" description="*********************************************** &lt;br/&gt;4912, Impersonating a Public Servant.&lt;br/&gt;"/><marker lat="40.487093945777872" lng="-79.932317634538222" zone="Zone 5" incidentdate="2016-02-09" incidenttime="21:48:00" incidentnumber="16024594" address="100 block Hawthorne Ct" type="OFFENSE" age="" gender="" description="*********************************************** &lt;br/&gt;9999, 9999 - (Misc. Incident):&lt;br/&gt;"/><marker lat="40.455192672860989" lng="-80.051299744420746" zone="Zone 6" incidentdate="2016-02-09" incidenttime="02:49:00" incidentnumber="16024098" address="500 block Hammond St" type="OFFENSE" age="" gender="" description="*********************************************** &lt;br/&gt;3304, Criminal Mischief.&lt;br/&gt;"/><marker lat="40.464441156580989" lng="-79.936415907960978" zone="Zone 5" incidentdate="2016-02-09" incidenttime="11:00:00" incidentnumber="16024267" address="5400 block Penn Ave" type="OFFENSE" age="" gender="" description="*********************************************** &lt;br/&gt;3502, Burglary.&lt;br/&gt;"/><marker lat="40.446005863263338" lng="-80.035054977104139" zone="Zone 6" incidentdate="2016-02-09" incidenttime="10:36:00" incidentnumber="16024504" address="900 block Elkton St" type="OFFENSE" age="" gender="" description="*********************************************** &lt;br/&gt;9999, 9999 - (Misc. Incident):&lt;br/&gt;"/><marker lat="40.454038272737556" lng="-79.867341042290406" zone="Zone 5" incidentdate="2016-02-09" incidenttime="04:20:00" incidentnumber="16024151" address="2200 block Wilner Dr" type="OFFENSE" age="" gender="" description="*********************************************** &lt;br/&gt;3921, Theft by Unlawful Taking or Disposition.&lt;br/&gt;"/><marker lat="40.4096280" lng="-80.0190402" zone="Zone 6" incidentdate="2016-02-09" incidenttime="02:00:00" incidentnumber="16024081" address="Ashlyn St &amp; Surban Ave" type="OFFENSE" age="" gender="" description="*********************************************** &lt;br/&gt;029, Missing Juvenile&lt;br/&gt;"/><marker lat="40.453881093138619" lng="-79.873029877694393" zone="Zone 5" incidentdate="2016-02-09" incidenttime="08:00:00" incidentnumber="16024192" address="2200 block E Hills Dr" type="OFFENSE" age="" gender="" description="*********************************************** &lt;br/&gt;3921, Theft by Unlawful Taking or Disposition.&lt;br/&gt;"/><marker lat="40.413244662079144" lng="-79.989125551697001" zone="Zone 3" incidentdate="2016-02-09" incidenttime="10:40:00" incidentnumber="16024361" address="400 block Brownsville Rd" type="OFFENSE" age="" gender="" description="*********************************************** &lt;br/&gt;2706, Terroristic Threats.&lt;br/&gt;"/><marker lat="40.467811518850382" lng="-79.927724035809661" zone="Zone 4" incidentdate="2016-02-09" incidenttime="17:07:00" incidentnumber="16024443" address="500 block S Negley Ave" type="OFFENSE" age="" gender="" description="*********************************************** &lt;br/&gt;9490, Missing Persons (18 and Over)&lt;br/&gt;"/><marker lat="40.421273854194467" lng="-79.995805881479257" zone="Zone 3" incidentdate="2016-02-09" incidenttime="16:40:00" incidentnumber="16024419" address="Millbridge St &amp; Manton Way" type="OFFENSE" age="" gender="" description="*********************************************** &lt;br/&gt;13(a)(31), Marijuana: Possession Small Amount&lt;br/&gt;4703, Operation of Vehicle without Official Certif. of Inspection&lt;br/&gt;4303, General Lighting Requirements.&lt;br/&gt;"/><marker lat="40.478178829811441" lng="-79.941228725356893" zone="Zone 5" incidentdate="2016-02-09" incidenttime="18:58:00" incidentnumber="16022476" address="1100 block Woodbine St" type="OFFENSE" age="" gender="" description="*********************************************** &lt;br/&gt;3304, Criminal Mischief.&lt;br/&gt;1543, Driving While Operating Privilege is Suspended or Revoked.&lt;br/&gt;"/><marker lat="40.465157804159951" lng="-79.922171643415098" zone="Zone 5" incidentdate="2016-02-09" incidenttime="18:28:00" incidentnumber="16024486" address="400 block N Highland Ave" type="OFFENSE" age="" gender="" description="*********************************************** &lt;br/&gt;3929, Retail Theft.&lt;br/&gt;"/><marker lat="40.451987340067703" lng="-80.008730717465113" zone="Zone 1" incidentdate="2016-02-09" incidenttime="11:19:00" incidentnumber="16024266" address="Ridge Ave &amp; Arch St" type="OFFENSE" age="" gender="" description="*********************************************** &lt;br/&gt;13(a)(16), Possession of Controlled Substance&lt;br/&gt;1543, Driving While Operating Privilege is Suspended or Revoked.&lt;br/&gt;3714, Careless Driving&lt;br/&gt;4703, Operation of Vehicle without Official Certif. of Inspection&lt;br/&gt;3112, Traffic-Control Signals.&lt;br/&gt;1301, Registration and Certificate of Title Required.&lt;br/&gt;"/><marker lat="40.454453495118237" lng="-80.058564447521761" zone="Zone 6" incidentdate="2016-02-09" incidenttime="07:48:00" incidentnumber="16024187" address="3000 block Chartiers Ave" type="OFFENSE" age="" gender="" description="*********************************************** &lt;br/&gt;3502, Burglary.&lt;br/&gt;"/><marker lat="40.405491161511044" lng="-79.989331753158567" zone="Zone 3" incidentdate="2016-02-09" incidenttime="15:00:00" incidentnumber="16024373" address="1100 block Amanda Ave" type="OFFENSE" age="" gender="" description="*********************************************** &lt;br/&gt;13(a)(16), Possession of Controlled Substance&lt;br/&gt;13(a)(30), Possession w/ Intent to Del. Controlled Substance&lt;br/&gt;13(a)(32), Paraphernalia - Use or Possession&lt;br/&gt;7512, Criminal Use of Communication&lt;br/&gt;"/><marker lat="40.442584949905417" lng="-80.001789508770926" zone="Zone 2" incidentdate="2016-02-09" incidenttime="15:00:00" incidentnumber="16024404" address="600 block Penn Ave" type="OFFENSE" age="" gender="" description="*********************************************** &lt;br/&gt;2709(a)(1), Harassment by Physical Contact, or Attempts or Threats&lt;br/&gt;"/><marker lat="40.440697119948119" lng="-80.003946068250272" zone="Zone 2" incidentdate="2016-02-09" incidenttime="11:00:00" incidentnumber="16024273" address="100 block Forbes Ave" type="OFFENSE" age="" gender="" description="*********************************************** &lt;br/&gt;3929, Retail Theft.&lt;br/&gt;"/><marker lat="40.399798282486785" lng="-79.98914686757854" zone="Zone 3" incidentdate="2016-02-09" incidenttime="13:00:00" incidentnumber="16024313" address="1600 block Brownsville Rd" type="OFFENSE" age="" gender="" description="*********************************************** &lt;br/&gt;029, Missing Juvenile&lt;br/&gt;"/><marker lat="40.4406248" lng="-79.9958864" zone="Zone 4" incidentdate="2016-02-09" incidenttime="06:30:00" incidentnumber="16024417" address="Bayard (Building 4) Rd" type="OFFENSE" age="" gender="" description="*********************************************** &lt;br/&gt;3502, Burglary.&lt;br/&gt;"/><marker lat="40.441997271088511" lng="-80.056989708022329" zone="Zone 6" incidentdate="2016-02-09" incidenttime="11:25:00" incidentnumber="16024278" address="1700 block Stratmore St" type="OFFENSE" age="" gender="" description="*********************************************** &lt;br/&gt;4912, Impersonating a Public Servant.&lt;br/&gt;"/><marker lat="40.445609054052689" lng="-80.046347439712406" zone="Zone 6" incidentdate="2016-02-09" incidenttime="16:00:00" incidentnumber="16024450" address="1200 block Dickens St" type="OFFENSE" age="" gender="" description="*********************************************** &lt;br/&gt;2709(a)(3), Harassment No Legitimate Purpose&lt;br/&gt;"/><marker lat="40.378796209359741" lng="-79.995184412393471" zone="Zone 3" incidentdate="2016-02-09" incidenttime="06:44:00" incidentnumber="16024168" address="2400 block Kingwood St" type="OFFENSE" age="" gender="" description="*********************************************** &lt;br/&gt;9496, Dead on Arrival (DOA)&lt;br/&gt;"/><marker lat="40.475107898420873" lng="-79.960694545362998" zone="Zone 2" incidentdate="2016-02-09" incidenttime="03:28:00" incidentnumber="16024117" address="100 block Home St" type="OFFENSE" age="" gender="" description="*********************************************** &lt;br/&gt;2701, Simple Assault.&lt;br/&gt;"/><marker lat="40.392154392860824" lng="-80.017676067888289" zone="Zone 6" incidentdate="2016-02-09" incidenttime="19:48:00" incidentnumber="16024549" address="1000 block Brookline Blvd" type="OFFENSE" age="" gender="" description="*********************************************** &lt;br/&gt;9999, 9999 - (Misc. Incident):&lt;br/&gt;"/><marker lat="40.42893165877647" lng="-79.923278430005965" zone="Zone 4" incidentdate="2016-02-09" incidenttime="01:30:00" incidentnumber="16024071" address="5800 block Alderson St" type="OFFENSE" age="" gender="" description="*********************************************** &lt;br/&gt;2709(a)(1), Harassment by Physical Contact, or Attempts or Threats&lt;br/&gt;"/><marker lat="40.407062259034475" lng="-80.034145343480191" zone="Zone 6" incidentdate="2016-02-09" incidenttime="20:17:00" incidentnumber="16024544" address="1700 block Banksville Rd" type="OFFENSE" age="" gender="" description="*********************************************** &lt;br/&gt;3701, Robbery.&lt;br/&gt;"/><marker lat="40.434299677403494" lng="-79.961173018071435" zone="Zone 4" incidentdate="2016-02-09" incidenttime="10:00:00" incidentnumber="16024331" address="3200 block Kennett Sq" type="OFFENSE" age="" gender="" description="*********************************************** &lt;br/&gt;3502, Burglary.&lt;br/&gt;"/><marker lat="40.441652930044143" lng="-79.992034174465672" zone="Zone 2" incidentdate="2016-02-09" incidenttime="17:05:00" incidentnumber="16024444" address="Bedford Ave &amp; Washington Pl" type="OFFENSE" age="" gender="" description="*********************************************** &lt;br/&gt;5507, Obstructing Highways and Passages.&lt;br/&gt;602.04, Panhandling and Prohibited Conduct&lt;br/&gt;"/><marker lat="40.428606966018023" lng="-79.985175111647919" zone="Zone 3" incidentdate="2016-02-09" incidenttime="01:20:00" incidentnumber="16024061" address="1300 block E Carson St" type="OFFENSE" age="" gender="" description="*********************************************** &lt;br/&gt;5503, Disorderly Conduct.&lt;br/&gt;5505, Public Drunkenness&lt;br/&gt;"/><marker lat="40.4061932" lng="-80.0337918" zone="Zone 6" incidentdate="2016-02-09" incidenttime="10:15:00" incidentnumber="16024226" address="2500 block Tole St" type="OFFENSE" age="" gender="" description="*********************************************** &lt;br/&gt;9488, False  Burglar Alarm&lt;br/&gt;"/><marker lat="40.440801466835453" lng="-79.998159468312707" zone="Zone 2" incidentdate="2016-02-09" incidenttime="15:50:00" incidentnumber="16024391" address="Smithfield St &amp; Oliver Ave" type="OFFENSE" age="" gender="" description="*********************************************** &lt;br/&gt;5503, Disorderly Conduct.&lt;br/&gt;5505, Public Drunkenness&lt;br/&gt;"/><marker lat="40.456572332747427" lng="-80.001487255429311" zone="Zone 5" incidentdate="2016-02-09" incidenttime="04:13:00" incidentnumber="16024140" address="500 block N Euclid Ave" type="OFFENSE" age="" gender="" description="*********************************************** &lt;br/&gt;9999, 9999 - (Misc. Incident):&lt;br/&gt;"/><marker lat="40.397301888004606" lng="-79.985176494869492" zone="Zone 3" incidentdate="2016-02-09" incidenttime="16:00:00" incidentnumber="16024392" address="200 block Meredith St" type="OFFENSE" age="" gender="" description="*********************************************** &lt;br/&gt;2705, Recklessly Endangering Another Person.&lt;br/&gt;607.03, Discharging Firearm or Airgun&lt;br/&gt;"/><marker lat="40.407183657938951" lng="-79.941364731105793" zone="Zone 4" incidentdate="2016-02-09" incidenttime="22:25:00" incidentnumber="16024602" address="200 block E Elizabeth St" type="OFFENSE" age="" gender="" description="*********************************************** &lt;br/&gt;2701, Simple Assault.&lt;br/&gt;"/><marker lat="40.456774461007349" lng="-80.052688160849073" zone="Zone 6" incidentdate="2016-02-09" incidenttime="08:20:00" incidentnumber="16024196" address="3000 block Glen Mawr St" type="OFFENSE" age="" gender="" description="*********************************************** &lt;br/&gt;3304, Criminal Mischief.&lt;br/&gt;"/><marker lat="40.459241184494772" lng="-80.005548013998464" zone="Zone 1" incidentdate="2016-02-09" incidenttime="18:12:00" incidentnumber="16024484" address="1600 block Sandusky Ct" type="OFFENSE" age="" gender="" description="*********************************************** &lt;br/&gt;13(a)(32), Paraphernalia - Use or Possession&lt;br/&gt;9501, Bench Warrant&lt;br/&gt;4914, False Identification to Law Enforcement Authorities&lt;br/&gt;"/><marker lat="40.466622454058715" lng="-79.995552204385959" zone="Zone 1" incidentdate="2016-02-09" incidenttime="06:29:00" incidentnumber="16024165" address="2100 block Lappe Ln" type="OFFENSE" age="" gender="" description="*********************************************** &lt;br/&gt;9488, False  Burglar Alarm&lt;br/&gt;"/><marker lat="40.452697486538113" lng="-79.936778436648851" zone="Zone 4" incidentdate="2016-02-09" incidenttime="17:15:00" incidentnumber="16024458" address="600 block S Aiken Ave" type="OFFENSE" age="" gender="" description="*********************************************** &lt;br/&gt;3502, Burglary.&lt;br/&gt;"/><marker lat="40.471411423607833" lng="-79.959830139270579" zone="Zone 2" incidentdate="2016-02-09" incidenttime="01:06:00" incidentnumber="16024084" address="200 block 4th Ave" type="OFFENSE" age="" gender="" description="*********************************************** &lt;br/&gt;3502, Burglary.&lt;br/&gt;"/><marker lat="40.421749759775459" lng="-79.93374693375597" zone="Zone 4" incidentdate="2016-02-09" incidenttime="07:30:00" incidentnumber="16024186" address="700 block Melbourne St" type="OFFENSE" age="" gender="" description="*********************************************** &lt;br/&gt;3934, Theft from Vehicle&lt;br/&gt;"/><marker lat="40.463299315366818" lng="-79.964113905072381" zone="Zone 2" incidentdate="2016-02-09" incidenttime="09:30:00" incidentnumber="16024291" address="Mintwood St &amp; 36th St" type="OFFENSE" age="" gender="" description="*********************************************** &lt;br/&gt;3745, Accidents Involving Damage to Unattended Veh.or Prop.&lt;br/&gt;"/><marker lat="40.433148874114316" lng="-79.954843385469843" zone="Zone 4" incidentdate="2016-02-09" incidenttime="00:13:00" incidentnumber="16024042" address="3000 block Ward St" type="OFFENSE" age="" gender="" description="*********************************************** &lt;br/&gt;3921(a), Theft by Unlawful Taking or Disposition - Movable item&lt;br/&gt;"/><marker lat="40.452541267831833" lng="-79.893198646264366" zone="Zone 5" incidentdate="2016-02-09" incidenttime="01:20:00" incidentnumber="16024064" address="N Richland St &amp; Tioga St" type="OFFENSE" age="" gender="" description="*********************************************** &lt;br/&gt;9501, Bench Warrant&lt;br/&gt;"/><marker lat="40.434125456654385" lng="-80.056070382102774" zone="Zone 6" incidentdate="2016-02-09" incidenttime="12:10:00" incidentnumber="16024288" address="1400 block Hyde St" type="OFFENSE" age="" gender="" description="*********************************************** &lt;br/&gt;4912, Impersonating a Public Servant.&lt;br/&gt;"/><marker lat="40.46466058451383" lng="-79.936450346212268" zone="Zone 5" incidentdate="2016-02-09" incidenttime="00:58:00" incidentnumber="16024052" address="Penn Ave &amp; N Aiken Ave" type="OFFENSE" age="" gender="" description="*********************************************** &lt;br/&gt;3701, Robbery.&lt;br/&gt;"/><marker lat="40.452042212663898" lng="-80.008738896002342" zone="Zone 1" incidentdate="2016-02-09" incidenttime="15:00:00" incidentnumber="16024376" address="200 block Ridge Ave" type="OFFENSE" age="" gender="" description="*********************************************** &lt;br/&gt;029, Missing Juvenile&lt;br/&gt;"/><marker lat="40.457022328677667" lng="-79.898645823093233" zone="Zone 5" incidentdate="2016-02-09" incidenttime="07:11:00" incidentnumber="16024174" address="800 block N Lang Ave" type="OFFENSE" age="" gender="" description="*********************************************** &lt;br/&gt;9999, 9999 - (Misc. Incident):&lt;br/&gt;"/><marker lat="40.438794132109919" lng="-80.020516950992103" zone="Zone 3" incidentdate="2016-02-09" incidenttime="07:16:00" incidentnumber="16024176" address="1400 block Grandview Ave" type="OFFENSE" age="" gender="" description="*********************************************** &lt;br/&gt;9999, 9999 - (Misc. Incident):&lt;br/&gt;"/><marker lat="40.4614472401353" lng="-80.05565407563806" zone="Zone 6" incidentdate="2016-02-09" incidenttime="16:23:00" incidentnumber="16024416" address="Stafford St &amp; Tabor St" type="OFFENSE" age="" gender="" description="*********************************************** &lt;br/&gt;13(a)(16), Possession of Controlled Substance&lt;br/&gt;13(a)(30), Possession w/ Intent to Del. Controlled Substance&lt;br/&gt;13(a)(30)*, Delivery of Controlled Substance&lt;br/&gt;"/><marker lat="40.410114939314859" lng="-79.9951081951465" zone="Zone 3" incidentdate="2016-02-09" incidenttime="17:43:00" incidentnumber="16024464" address="400 block Alice St" type="OFFENSE" age="" gender="" description="*********************************************** &lt;br/&gt;3701, Robbery.&lt;br/&gt;"/><marker lat="40.413244662079144" lng="-79.989125551697001" zone="Zone 3" incidentdate="2016-02-09" incidenttime="00:24:00" incidentnumber="16024044" address="400 block Brownsville Rd" type="OFFENSE" age="" gender="" description="*********************************************** &lt;br/&gt;2701, Simple Assault.&lt;br/&gt;"/><marker lat="40.443580942147605" lng="-79.979979097296493" zone="Zone 2" incidentdate="2016-02-09" incidenttime="00:00:00" incidentnumber="16024527" address="2000 block Centre Ave" type="OFFENSE" age="" gender="" description="*********************************************** &lt;br/&gt;9124, Drug Investigation&lt;br/&gt;"/><marker lat="40.403222489164435" lng="-79.940159912764798" zone="Zone 4" incidentdate="2016-02-09" incidenttime="19:27:00" incidentnumber="16024516" address="Almeda St" type="OFFENSE" age="" gender="" description="*********************************************** &lt;br/&gt;3304, Criminal Mischief.&lt;br/&gt;3701, Robbery.&lt;br/&gt;"/><marker lat="40.447047363231832" lng="-80.080458722610913" zone="Zone 3" incidentdate="2016-02-09" incidenttime="12:24:00" incidentnumber="16024330" address="400 block Prospect St" type="OFFENSE" age="" gender="" description="*********************************************** &lt;br/&gt;4912, Impersonating a Public Servant.&lt;br/&gt;"/><marker lat="40.442624673349904" lng="-79.999150172277282" zone="Zone 2" incidentdate="2016-02-09" incidenttime="16:40:00" incidentnumber="16024436" address="Liberty Ave &amp; Wood St" type="OFFENSE" age="" gender="" description="*********************************************** &lt;br/&gt;9489, Found Property&lt;br/&gt;"/><marker lat="40.452042212663898" lng="-80.008738896002342" zone="Zone 1" incidentdate="2016-02-09" incidenttime="21:30:00" incidentnumber="16024376" address="200 block Ridge Ave" type="OFFENSE" age="" gender="" description="*********************************************** &lt;br/&gt;029, Missing Juvenile&lt;br/&gt;"/><marker lat="40.403870313481882" lng="-80.030078153885796" zone="Zone 6" incidentdate="2016-02-09" incidenttime="07:20:00" incidentnumber="16024179" address="2200 block Bensonia Ave" type="OFFENSE" age="" gender="" description="*********************************************** &lt;br/&gt;9496, Dead on Arrival (DOA)&lt;br/&gt;"/><marker lat="40.442131579489732" lng="-80.021349551869505" zone="Zone 3" incidentdate="2016-02-09" incidenttime="15:40:00" incidentnumber="16024390" address="1600 block W Carson St" type="OFFENSE" age="" gender="" description="*********************************************** &lt;br/&gt;3743, Accidents Involving Damage to Attended Veh. or Property&lt;br/&gt;"/><marker lat="40.44616449950486" lng="-79.976396855834267" zone="Zone 2" incidentdate="2016-02-09" incidenttime="10:15:00" incidentnumber="16024274" address="WYLE Ave" type="OFFENSE" age="" gender="" description="*********************************************** &lt;br/&gt;3934, Theft from Vehicle&lt;br/&gt;"/><marker lat="40.404822944398759" lng="-79.934938582152668" zone="Zone 4" incidentdate="2016-02-09" incidenttime="11:30:00" incidentnumber="15158298" address="600 block Johnston Ave" type="ARREST" age="29" gender="F" description="*********************************************** &lt;br/&gt;2709(a)(4), Harassment Communicates Prohibited Acts&lt;br/&gt;2709.1, Stalking Conduct or Repeatedly Acts Including Follows&lt;br/&gt;"/><marker lat="40.475107898420873" lng="-79.960694545362998" zone="Zone 2" incidentdate="2016-02-09" incidenttime="03:54:00" incidentnumber="16024117" address="100 block Home St" type="ARREST" age="26" gender="M" description="*********************************************** &lt;br/&gt;2701, Simple Assault.&lt;br/&gt;"/><marker lat="40.456542939615126" lng="-79.887664136937502" zone="Zone 5" incidentdate="2016-02-09" incidenttime="09:48:00" incidentnumber="16011399" address="1000 block Brushton Ave" type="ARREST" age="24" gender="M" description="*********************************************** &lt;br/&gt;2701, Simple Assault.&lt;br/&gt;"/><marker lat="40.434696587775576" lng="-79.996300985228572" zone="Zone 2" incidentdate="2016-02-09" incidenttime="12:35:00" incidentnumber="15243137" address="600 block First Ave" type="ARREST" age="68" gender="M" description="*********************************************** &lt;br/&gt;9015, Failure To Appear/Arrest on Attachment Order&lt;br/&gt;2701, Simple Assault.&lt;br/&gt;"/><marker lat="40.452541267831833" lng="-79.893198646264366" zone="Zone 5" incidentdate="2016-02-09" incidenttime="01:20:00" incidentnumber="16024064" address="N Richland St &amp; Tioga St" type="ARREST" age="34" gender="M" description="*********************************************** &lt;br/&gt;9501, Bench Warrant&lt;br/&gt;"/><marker lat="40.441652930044143" lng="-79.992034174465672" zone="Zone 2" incidentdate="2016-02-09" incidenttime="17:05:00" incidentnumber="16024444" address="Bedford Ave &amp; Washington Pl" type="ARREST" age="36" gender="M" description="*********************************************** &lt;br/&gt;5507, Obstructing Highways and Passages.&lt;br/&gt;602.04, Panhandling and Prohibited Conduct&lt;br/&gt;"/><marker lat="40.440801466835453" lng="-79.998159468312707" zone="Zone 2" incidentdate="2016-02-09" incidenttime="15:55:00" incidentnumber="16024391" address="Smithfield St &amp; Oliver Ave" type="ARREST" age="40" gender="F" description="*********************************************** &lt;br/&gt;5503, Disorderly Conduct.&lt;br/&gt;5505, Public Drunkenness&lt;br/&gt;"/><marker lat="40.451987340067703" lng="-80.008730717465113" zone="Zone 1" incidentdate="2016-02-09" incidenttime="11:30:00" incidentnumber="16024266" address="Ridge Ave &amp; Arch St" type="ARREST" age="38" gender="M" description="*********************************************** &lt;br/&gt;13(a)(16), Possession of Controlled Substance&lt;br/&gt;1543, Driving While Operating Privilege is Suspended or Revoked.&lt;br/&gt;3714, Careless Driving&lt;br/&gt;4703, Operation of Vehicle without Official Certif. of Inspection&lt;br/&gt;3112, Traffic-Control Signals.&lt;br/&gt;1301, Registration and Certificate of Title Required.&lt;br/&gt;"/><marker lat="40.4614472401353" lng="-80.05565407563806" zone="Zone 6" incidentdate="2016-02-09" incidenttime="16:28:00" incidentnumber="16024416" address="Stafford St &amp; Tabor St" type="ARREST" age="19" gender="M" description="*********************************************** &lt;br/&gt;13(a)(16), Possession of Controlled Substance&lt;br/&gt;13(a)(30), Possession w/ Intent to Del. Controlled Substance&lt;br/&gt;13(a)(30)*, Delivery of Controlled Substance&lt;br/&gt;"/><marker lat="40.465157804159951" lng="-79.922171643415098" zone="Zone 5" incidentdate="2016-02-09" incidenttime="18:48:00" incidentnumber="16024486" address="400 block N Highland Ave" type="ARREST" age="47" gender="M" description="*********************************************** &lt;br/&gt;3929, Retail Theft.&lt;br/&gt;"/><marker lat="40.421273854194467" lng="-79.995805881479257" zone="Zone 3" incidentdate="2016-02-09" incidenttime="16:40:00" incidentnumber="16024419" address="Millbridge St &amp; Manton Way" type="ARREST" age="28" gender="M" description="*********************************************** &lt;br/&gt;13(a)(31), Marijuana: Possession Small Amount&lt;br/&gt;4703, Operation of Vehicle without Official Certif. of Inspection&lt;br/&gt;4303, General Lighting Requirements.&lt;br/&gt;"/><marker lat="40.4614472401353" lng="-80.05565407563806" zone="Zone 6" incidentdate="2016-02-09" incidenttime="16:30:00" incidentnumber="16024416" address="Stafford St &amp; Tabor St" type="ARREST" age="26" gender="F" description="*********************************************** &lt;br/&gt;13(a)(16), Possession of Controlled Substance&lt;br/&gt;13(a)(30), Possession w/ Intent to Del. Controlled Substance&lt;br/&gt;13(a)(30)*, Delivery of Controlled Substance&lt;br/&gt;"/><marker lat="40.405491161511044" lng="-79.989331753158567" zone="Zone 3" incidentdate="2016-02-09" incidenttime="15:00:00" incidentnumber="16024373" address="1100 block Amanda Ave" type="ARREST" age="34" gender="M" description="*********************************************** &lt;br/&gt;13(a)(16), Possession of Controlled Substance&lt;br/&gt;13(a)(30), Possession w/ Intent to Del. Controlled Substance&lt;br/&gt;13(a)(32), Paraphernalia - Use or Possession&lt;br/&gt;7512, Criminal Use of Communication&lt;br/&gt;"/><marker lat="40.459348689075718" lng="-80.012189823092569" zone="Zone 1" incidentdate="2016-02-09" incidenttime="18:22:00" incidentnumber="15213446" address="400 block W Jefferson St" type="ARREST" age="29" gender="F" description="*********************************************** &lt;br/&gt;13(a)(32), Paraphernalia - Use or Possession&lt;br/&gt;"/><marker lat="40.459241184494772" lng="-80.005548013998464" zone="Zone 1" incidentdate="2016-02-09" incidenttime="18:22:00" incidentnumber="16024484" address="1600 block Sandusky Ct" type="ARREST" age="29" gender="F" description="*********************************************** &lt;br/&gt;13(a)(32), Paraphernalia - Use or Possession&lt;br/&gt;9501, Bench Warrant&lt;br/&gt;4914, False Identification to Law Enforcement Authorities&lt;br/&gt;"/><marker lat="40.459241184494772" lng="-80.005548013998464" zone="Zone 1" incidentdate="2016-02-09" incidenttime="18:22:00" incidentnumber="16024484" address="1600 block Sandusky Ct" type="ARREST" age="39" gender="M" description="*********************************************** &lt;br/&gt;13(a)(32), Paraphernalia - Use or Possession&lt;br/&gt;9501, Bench Warrant&lt;br/&gt;4914, False Identification to Law Enforcement Authorities&lt;br/&gt;"/><marker lat="40.458124412082178" lng="-79.893503500341438" zone="Zone 5" incidentdate="2016-02-09" incidenttime="21:00:00" incidentnumber="15173420" address="7300 block Race St" type="ARREST" age="21" gender="M" description="*********************************************** &lt;br/&gt;3304, Criminal Mischief.&lt;br/&gt;2702, Aggravated Assault.&lt;br/&gt;3925, Receiving Stolen Property.&lt;br/&gt;6106, Firearms not to be Carried without a License.&lt;br/&gt;"/><marker lat="40.487823540011732" lng="-79.897614208935366" zone="Zone 5" incidentdate="2016-02-09" incidenttime="08:00:00" incidentnumber="16000557" address="800 block Freeport Rd" type="ARREST" age="36" gender="M" description="*********************************************** &lt;br/&gt;3929, Retail Theft.&lt;br/&gt;"/><marker lat="40.453068030092489" lng="-80.049343022384349" zone="Zone 6" incidentdate="2016-02-09" incidenttime="19:45:00" incidentnumber="15247637" address="2700 block Zephyr Ave" type="ARREST" age="52" gender="M" description="*********************************************** &lt;br/&gt;3921, Theft by Unlawful Taking or Disposition.&lt;br/&gt;"/></markers>
