<?xml version="1.0"?>
<markers><marker lat="40.5193491" lng="-80.0221749" zone="Zone 6" incidentdate="2014-08-19" incidenttime="18:55:00" incidentnumber="14164859" address="Norwich Avenue, Pittsburgh, PA 15229, USA" type="OFFENSE" description="*********************************************** &lt;br/&gt;9492, Dog Bite&lt;br/&gt;"/><marker lat="40.385802" lng="-79.9819349" zone="Zone 3" incidentdate="2014-08-19" incidenttime="01:39:00" incidentnumber="14164333" address="2500 Edgar Street, Pittsburgh, PA 15227, USA" type="OFFENSE" description="*********************************************** &lt;br/&gt;3502, Burglary.&lt;br/&gt;"/><marker lat="40.4104396" lng="-79.9903445" zone="Zone 3" incidentdate="2014-08-19" incidenttime="02:25:00" incidentnumber="14164366" address="600 Brownsville Road, Pittsburgh, PA 15210, USA" type="OFFENSE" description="*********************************************** &lt;br/&gt;3701, Robbery.&lt;br/&gt;903, Criminal Conspiracy.&lt;br/&gt;3701, Robbery.&lt;br/&gt;903, Criminal Conspiracy.&lt;br/&gt;3701, Robbery.&lt;br/&gt;903, Criminal Conspiracy.&lt;br/&gt;"/><marker lat="40.4890106" lng="-80.0298823" zone="Zone 1" incidentdate="2014-08-19" incidenttime="15:30:00" incidentnumber="14164685" address="900 Sagwa Street, Pittsburgh, PA 15212, USA" type="OFFENSE" description="*********************************************** &lt;br/&gt;9488, False  Burglar Alarm&lt;br/&gt;"/><marker lat="40.3843619" lng="-79.9824442" zone="Zone 3" incidentdate="2014-08-19" incidenttime="15:30:00" incidentnumber="14164698" address="200 Maytide Street, Pittsburgh, PA 15227, USA" type="OFFENSE" description="*********************************************** &lt;br/&gt;2709(a)(1), Harassment by Physical Contact, or Attempts or Threats&lt;br/&gt;"/><marker lat="40.4682485" lng="-79.8573222" zone="Zone 3" incidentdate="2014-08-19" incidenttime="16:10:00" incidentnumber="14164872" address="Grandview Avenue, Pittsburgh, PA 15235, USA" type="OFFENSE" description="*********************************************** &lt;br/&gt;2701, Simple Assault.&lt;br/&gt;2902, Unlawful Restraint.&lt;br/&gt;3304, Criminal Mischief.&lt;br/&gt;5104, Resisting Arrest or Other Law Enforcement.&lt;br/&gt;5121, Escape.&lt;br/&gt;2701, Simple Assault.&lt;br/&gt;2902, Unlawful Restraint.&lt;br/&gt;3304, Criminal Mischief.&lt;br/&gt;5104, Resisting Arrest or Other Law Enforcement.&lt;br/&gt;5121, Escape.&lt;br/&gt;"/><marker lat="40.4514601" lng="-80.0574609" zone="Zone 6" incidentdate="2014-08-19" incidenttime="16:45:00" incidentnumber="14164741" address="1200 Berry Street, Pittsburgh, PA 15204, USA" type="OFFENSE" description="*********************************************** &lt;br/&gt;2701, Simple Assault.&lt;br/&gt;2701, Simple Assault.&lt;br/&gt;"/><marker lat="40.452265" lng="-79.998701" zone="Zone 1" incidentdate="2014-08-19" incidenttime="16:47:00" incidentnumber="14164715" address="600 Pressley Street, Pittsburgh, PA 15212, USA" type="OFFENSE" description="*********************************************** &lt;br/&gt;9497, Aided Case&lt;br/&gt;"/><marker lat="40.4321363" lng="-80.0584892" zone="Zone 4" incidentdate="2014-08-19" incidenttime="16:50:00" incidentnumber="14164719" address="Willard Street, Pittsburgh, PA 15205, USA" type="OFFENSE" description="*********************************************** &lt;br/&gt;2709(a)(5), Harassment Communicates Repeatedly in Anonymous Manner&lt;br/&gt;"/><marker lat="40.399888" lng="-79.987391" zone="Zone 3" incidentdate="2014-08-19" incidenttime="17:00:00" incidentnumber="14164887" address="100 East Meyers Street, Pittsburgh, PA 15210, USA" type="OFFENSE" description="*********************************************** &lt;br/&gt;9093, Indirect Criminal Contempt&lt;br/&gt;9093, Indirect Criminal Contempt&lt;br/&gt;"/><marker lat="40.399888" lng="-79.987391" zone="Zone 3" incidentdate="2014-08-19" incidenttime="17:00:00" incidentnumber="14164768" address="100 East Meyers Street, Pittsburgh, PA 15210, USA" type="OFFENSE" description="*********************************************** &lt;br/&gt;2701, Simple Assault.&lt;br/&gt;9093, Indirect Criminal Contempt&lt;br/&gt;2701, Simple Assault.&lt;br/&gt;"/><marker lat="40.4508247" lng="-79.9334641" zone="Zone 4" incidentdate="2014-08-19" incidenttime="17:09:00" incidentnumber="14164770" address="5500 Walnut Street, Pittsburgh, PA 15232, USA" type="OFFENSE" description="*********************************************** &lt;br/&gt;9093, Indirect Criminal Contempt&lt;br/&gt;"/><marker lat="40.4688019" lng="-79.9186579" zone="Zone 5" incidentdate="2014-08-19" incidenttime="17:30:00" incidentnumber="14164787" address="6100 Stanton Avenue, Pittsburgh, PA 15206, USA" type="OFFENSE" description="*********************************************** &lt;br/&gt;3924, Theft of Property Lost, Mislaid or Delivered by Mistake.&lt;br/&gt;"/><marker lat="40.4218033" lng="-79.9932894" zone="Zone 3" incidentdate="2014-08-19" incidenttime="17:32:00" incidentnumber="14164792" address="East Warrington Avenue &amp; Asteroid Way, Pittsburgh, PA 15210, USA" type="OFFENSE" description="*********************************************** &lt;br/&gt;9501, Bench Warrant&lt;br/&gt;9501, Bench Warrant&lt;br/&gt;"/><marker lat="40.4775702" lng="-79.9198387" zone="Zone 5" incidentdate="2014-08-19" incidenttime="17:40:00" incidentnumber="14164749" address="1400 North Saint Clair Street, Pittsburgh, PA 15206, USA" type="OFFENSE" description="*********************************************** &lt;br/&gt;9999, 9999 - (Misc. Incident):&lt;br/&gt;"/><marker lat="40.435822" lng="-79.9231662" zone="Zone 4" incidentdate="2014-08-19" incidenttime="17:45:00" incidentnumber="14164855" address="1900 Murray Avenue, Pittsburgh, PA 15217, USA" type="OFFENSE" description="*********************************************** &lt;br/&gt;3925, Receiving Stolen Property.&lt;br/&gt;3929, Retail Theft.&lt;br/&gt;903, Criminal Conspiracy.&lt;br/&gt;903, Criminal Conspiracy.&lt;br/&gt;"/><marker lat="40.4486318" lng="-80.0022819" zone="Zone 1" incidentdate="2014-08-19" incidenttime="18:10:00" incidentnumber="14164826" address="Sandusky Street &amp; East General Robinson Street, Pittsburgh, PA 15212, USA" type="OFFENSE" description="*********************************************** &lt;br/&gt;3743, Accidents Involving Damage to Attended Veh. or Property&lt;br/&gt;"/><marker lat="40.4741014" lng="-79.957821" zone="Zone 2" incidentdate="2014-08-19" incidenttime="18:10:00" incidentnumber="14164819" address="4700 Butler Street, Pittsburgh, PA 15201, USA" type="OFFENSE" description="*********************************************** &lt;br/&gt;13(a)(16), Possession of Controlled Substance&lt;br/&gt;13(a)(32), Paraphernalia - Use or Possession&lt;br/&gt;903, Criminal Conspiracy.&lt;br/&gt;13(a)(16), Possession of Controlled Substance&lt;br/&gt;13(a)(32), Paraphernalia - Use or Possession&lt;br/&gt;903, Criminal Conspiracy.&lt;br/&gt;13(a)(16), Possession of Controlled Substance&lt;br/&gt;13(a)(32), Paraphernalia - Use or Possession&lt;br/&gt;903, Criminal Conspiracy.&lt;br/&gt;"/><marker lat="40.498195" lng="-79.853756" zone="Zone 5" incidentdate="2014-08-19" incidenttime="18:16:00" incidentnumber="14164824" address="800 Freeport Road, Pittsburgh, PA 15238, USA" type="OFFENSE" description="*********************************************** &lt;br/&gt;13(a)(12), Obtaining Cont. Subst. by Fraudulent Means&lt;br/&gt;13(a)(12), Obtaining Cont. Subst. by Fraudulent Means&lt;br/&gt;"/><marker lat="40.528434" lng="-80.0246124" zone="Zone 2" incidentdate="2014-08-19" incidenttime="18:20:00" incidentnumber="14164836" address="4th Avenue, Pittsburgh, PA 15229, USA" type="OFFENSE" description="*********************************************** &lt;br/&gt;9501, Bench Warrant&lt;br/&gt;9501, Bench Warrant&lt;br/&gt;"/><marker lat="40.4416937" lng="-79.9712027" zone="Zone 2" incidentdate="2014-08-19" incidenttime="18:25:00" incidentnumber="14164954" address="Burrows Street, Pittsburgh, PA, USA" type="OFFENSE" description="*********************************************** &lt;br/&gt;9501, Bench Warrant&lt;br/&gt;9501, Bench Warrant&lt;br/&gt;"/><marker lat="40.4678483" lng="-80.0251453" zone="Zone 1" incidentdate="2014-08-19" incidenttime="01:35:00" incidentnumber="14164827" address="1100 Hodgkiss Street, Pittsburgh, PA 15212, USA" type="OFFENSE" description="*********************************************** &lt;br/&gt;3304, Criminal Mischief.&lt;br/&gt;"/><marker lat="40.4461863" lng="-80.0120666" zone="Zone 1" incidentdate="2014-08-19" incidenttime="19:20:00" incidentnumber="14164881" address="400 North Shore Drive, Pittsburgh, PA 15212, USA" type="OFFENSE" description="*********************************************** &lt;br/&gt;3503(b)(1)(i), Actual Communication&lt;br/&gt;5505, Public Drunkenness&lt;br/&gt;3503(b)(1)(i), Actual Communication&lt;br/&gt;5505, Public Drunkenness&lt;br/&gt;"/><marker lat="40.4717635" lng="-80.0303142" zone="Zone 1" incidentdate="2014-08-19" incidenttime="19:25:00" incidentnumber="14164875" address="3000 Frederick Street, Pittsburgh, PA 15212, USA" type="OFFENSE" description="*********************************************** &lt;br/&gt;9488, False  Burglar Alarm&lt;br/&gt;"/><marker lat="40.4556069" lng="-79.9983871" zone="Zone 1" incidentdate="2014-08-19" incidenttime="19:55:00" incidentnumber="14164901" address="East Street &amp; Suismon Street, Pittsburgh, PA 15212, USA" type="OFFENSE" description="*********************************************** &lt;br/&gt;5902(a)(1), Prostitution&lt;br/&gt;5902(a)(2), Prostitution - Loitering for purpose of&lt;br/&gt;5902(a)(1), Prostitution&lt;br/&gt;5902(a)(2), Prostitution - Loitering for purpose of&lt;br/&gt;"/><marker lat="40.4696662" lng="-79.9210303" zone="Zone 5" incidentdate="2014-08-19" incidenttime="20:14:00" incidentnumber="14164880" address="Stanton Avenue &amp; North Highland Avenue, Pittsburgh, PA 15206, USA" type="OFFENSE" description="*********************************************** &lt;br/&gt;5101, Obstructing Admin. of Law&lt;br/&gt;5104, Resisting Arrest or Other Law Enforcement.&lt;br/&gt;5501, Riot.&lt;br/&gt;5502, Failure of Disorderly Persons to Disperse&lt;br/&gt;5503(a)(4), DISORDERLY CONDUCT - HAZARDOUS/PHYS. OFF&lt;br/&gt;5505, Public Drunkenness&lt;br/&gt;5507, Obstructing Highways and Passages.&lt;br/&gt;5104, Resisting Arrest or Other Law Enforcement.&lt;br/&gt;5501, Riot.&lt;br/&gt;5502, Failure of Disorderly Persons to Disperse&lt;br/&gt;5503(a)(4), DISORDERLY CONDUCT - HAZARDOUS/PHYS. OFF&lt;br/&gt;5507, Obstructing Highways and Passages.&lt;br/&gt;5501, Riot.&lt;br/&gt;5502, Failure of Disorderly Persons to Disperse&lt;br/&gt;5503(a)(4), DISORDERLY CONDUCT - HAZARDOUS/PHYS. OFF&lt;br/&gt;5507, Obstructing Highways and Passages.&lt;br/&gt;5101, Obstructing Admin. of Law&lt;br/&gt;5501, Riot.&lt;br/&gt;5502, Failure of Disorderly Persons to Disperse&lt;br/&gt;5503(a)(4), DISORDERLY CONDUCT - HAZARDOUS/PHYS. OFF&lt;br/&gt;5505, Public Drunkenness&lt;br/&gt;5507, Obstructing Highways and Passages.&lt;br/&gt;"/><marker lat="40.45518" lng="-79.978784" zone="Zone 3" incidentdate="2014-08-19" incidenttime="20:15:00" incidentnumber="14158581" address="100 26th Street, Pittsburgh, PA 15222, USA" type="OFFENSE" description="*********************************************** &lt;br/&gt;9494, Summary Warrants&lt;br/&gt;"/><marker lat="40.42439" lng="-79.958808" zone="Zone 3" incidentdate="2014-08-19" incidenttime="20:30:00" incidentnumber="14164906" address="South Water Street, Pittsburgh, PA, USA" type="OFFENSE" description="*********************************************** &lt;br/&gt;3921, Theft by Unlawful Taking or Disposition.&lt;br/&gt;3921, Theft by Unlawful Taking or Disposition.&lt;br/&gt;"/><marker lat="40.4681107" lng="-79.9376775" zone="Zone 5" incidentdate="2014-08-19" incidenttime="20:31:00" incidentnumber="14164940" address="5300 Hillcrest Street, Pittsburgh, PA 15224, USA" type="OFFENSE" description="*********************************************** &lt;br/&gt;3304, Criminal Mischief.&lt;br/&gt;"/><marker lat="40.4599555" lng="-79.9249833" zone="Zone 5" incidentdate="2014-08-19" incidenttime="20:34:00" incidentnumber="14164927" address="6000 Centre Avenue, Pittsburgh, PA 15206, USA" type="OFFENSE" description="*********************************************** &lt;br/&gt;2701, Simple Assault.&lt;br/&gt;2701(a)(3), Simple Assault - Attempts by Physical Menace&lt;br/&gt;2705, Recklessly Endangering Another Person.&lt;br/&gt;"/><marker lat="40.4447315" lng="-79.9851156" zone="Zone 2" incidentdate="2014-08-19" incidenttime="20:48:00" incidentnumber="14164935" address="300 Roberts Street, Pittsburgh, PA 15219, USA" type="OFFENSE" description="*********************************************** &lt;br/&gt;3701, Robbery.&lt;br/&gt;3701, Robbery.&lt;br/&gt;"/><marker lat="40.4545638" lng="-79.9993789" zone="Zone 1" incidentdate="2014-08-19" incidenttime="20:55:00" incidentnumber="14164939" address="Middle Street &amp; Foreland Street, Pittsburgh, PA 15212, USA" type="OFFENSE" description="*********************************************** &lt;br/&gt;5902(e), Patronizing a Prostitute&lt;br/&gt;902, Criminal Solicitation.&lt;br/&gt;5902(e), Patronizing a Prostitute&lt;br/&gt;902, Criminal Solicitation.&lt;br/&gt;"/><marker lat="40.443829" lng="-80.038844" zone="Zone 6" incidentdate="2014-08-19" incidenttime="22:00:00" incidentnumber="14164980" address="300 Ainsworth Street, Pittsburgh, PA 15220, USA" type="OFFENSE" description="*********************************************** &lt;br/&gt;3745, Accidents Involving Damage to Unattended Veh.or Prop.&lt;br/&gt;"/><marker lat="40.4546501" lng="-80.0129013" zone="Zone 1" incidentdate="2014-08-19" incidenttime="03:49:00" incidentnumber="14164395" address="600 West North Avenue, Pittsburgh, PA 15212, USA" type="OFFENSE" description="*********************************************** &lt;br/&gt;9496, Dead on Arrival (DOA)&lt;br/&gt;"/><marker lat="40.4213027" lng="-79.9937378" zone="Zone 3" incidentdate="2014-08-19" incidenttime="05:30:00" incidentnumber="14164423" address="Allen Street, Pittsburgh, PA 15210, USA" type="OFFENSE" description="*********************************************** &lt;br/&gt;4914, False Identification to Law Enforcement Authorities&lt;br/&gt;5503(a)(2), DISORDERLY CONDUCT - UNREASONABLE NOISE&lt;br/&gt;5505, Public Drunkenness&lt;br/&gt;4914, False Identification to Law Enforcement Authorities&lt;br/&gt;5503(a)(2), DISORDERLY CONDUCT - UNREASONABLE NOISE&lt;br/&gt;5505, Public Drunkenness&lt;br/&gt;"/><marker lat="40.475415" lng="-80.037345" zone="Zone 1" incidentdate="2014-08-19" incidenttime="06:44:00" incidentnumber="14164447" address="3300 Fleming Avenue, Pittsburgh, PA 15212, USA" type="OFFENSE" description="*********************************************** &lt;br/&gt;3304(a)(4), CRIMINAL MISCHIEF- Intentionally Damage Property (By Graffiti, Aerosol Spray Paint, Broad&lt;br/&gt;Tip, Marker, or Similar)&lt;br/&gt;"/><marker lat="40.5572397" lng="-80.0403372" zone="Zone 1" incidentdate="2014-08-19" incidenttime="07:05:00" incidentnumber="14164452" address="1400 High Street, Pittsburgh, PA 15237, USA" type="OFFENSE" description="*********************************************** &lt;br/&gt;9488, False  Burglar Alarm&lt;br/&gt;"/><marker lat="40.4075689" lng="-80.022697" zone="Zone 6" incidentdate="2014-08-19" incidenttime="07:25:00" incidentnumber="14164457" address="1600 Tonopah Avenue, Pittsburgh, PA 15216, USA" type="OFFENSE" description="*********************************************** &lt;br/&gt;9012, Non-Violent Domestic&lt;br/&gt;"/><marker lat="40.3937208" lng="-80.0199714" zone="Zone 6" incidentdate="2014-08-19" incidenttime="07:45:00" incidentnumber="14164488" address="800 Brookline Boulevard, Pittsburgh, PA 15226, USA" type="OFFENSE" description="*********************************************** &lt;br/&gt;3304, Criminal Mischief.&lt;br/&gt;9130, Graffiti Investigation&lt;br/&gt;"/><marker lat="40.4400253" lng="-80.0030034" zone="Zone 2" incidentdate="2014-08-19" incidenttime="08:35:00" incidentnumber="14164610" address="Market Street, Pittsburgh, PA 15222, USA" type="OFFENSE" description="*********************************************** &lt;br/&gt;9504, Lost Property&lt;br/&gt;"/><marker lat="40.435467" lng="-79.996404" zone="Zone 2" incidentdate="2014-08-19" incidenttime="09:00:00" incidentnumber="14147535" address="600 1st Avenue, Pittsburgh, PA 15219, USA" type="OFFENSE" description="*********************************************** &lt;br/&gt;3502, Burglary.&lt;br/&gt;3502, Burglary.&lt;br/&gt;3921, Theft by Unlawful Taking or Disposition.&lt;br/&gt;3502, Burglary.&lt;br/&gt;3921, Theft by Unlawful Taking or Disposition.&lt;br/&gt;"/><marker lat="40.4274606" lng="-79.9876911" zone="Zone 3" incidentdate="2014-08-19" incidenttime="09:00:00" incidentnumber="14164500" address="100 South 11th Street, Pittsburgh, PA 15203, USA" type="OFFENSE" description="*********************************************** &lt;br/&gt;3934, Theft from Vehicle&lt;br/&gt;"/><marker lat="40.4191891" lng="-80.0394688" zone="Zone 6" incidentdate="2014-08-19" incidenttime="09:00:00" incidentnumber="14164523" address="300 Oakville Drive, Pittsburgh, PA 15220, USA" type="OFFENSE" description="*********************************************** &lt;br/&gt;3745, Accidents Involving Damage to Unattended Veh.or Prop.&lt;br/&gt;"/><marker lat="40.4518544" lng="-79.9282525" zone="Zone 4" incidentdate="2014-08-19" incidenttime="09:45:00" incidentnumber="14164507" address="5800 Howe Street, Pittsburgh, PA 15232, USA" type="OFFENSE" description="*********************************************** &lt;br/&gt;9999, 9999 - (Misc. Incident):&lt;br/&gt;"/><marker lat="40.4572144" lng="-79.9363659" zone="Zone 5" incidentdate="2014-08-19" incidenttime="10:00:00" incidentnumber="14164579" address="5500 Baum Boulevard, Pittsburgh, PA 15232, USA" type="OFFENSE" description="*********************************************** &lt;br/&gt;3304, Criminal Mischief.&lt;br/&gt;"/><marker lat="40.478592" lng="-80.038416" zone="Zone 1" incidentdate="2014-08-19" incidenttime="10:30:00" incidentnumber="14164528" address="3500 Fleming Avenue, Pittsburgh, PA 15212, USA" type="OFFENSE" description="*********************************************** &lt;br/&gt;3304, Criminal Mischief.&lt;br/&gt;3934, Theft from Vehicle&lt;br/&gt;"/><marker lat="40.4455908" lng="-79.9492398" zone="Zone 4" incidentdate="2014-08-19" incidenttime="10:50:00" incidentnumber="14164533" address="300 South Craig Street, Carnegie Mellon University, Pittsburgh, PA 15213, USA" type="OFFENSE" description="*********************************************** &lt;br/&gt;9130, Graffiti Investigation&lt;br/&gt;"/><marker lat="40.4406941" lng="-80.0038512" zone="Zone 2" incidentdate="2014-08-19" incidenttime="11:00:00" incidentnumber="14164583" address="100 Forbes Avenue, Pittsburgh, PA 15222, USA" type="OFFENSE" description="*********************************************** &lt;br/&gt;3924, Theft of Property Lost, Mislaid or Delivered by Mistake.&lt;br/&gt;"/><marker lat="40.4556436" lng="-79.9386338" zone="Zone 4" incidentdate="2014-08-19" incidenttime="11:00:00" incidentnumber="14164682" address="500 South Aiken Avenue, Pittsburgh, PA 15232, USA" type="OFFENSE" description="*********************************************** &lt;br/&gt;3925, Receiving Stolen Property.&lt;br/&gt;3929, Retail Theft.&lt;br/&gt;"/><marker lat="40.4616624" lng="-79.922073" zone="Zone 5" incidentdate="2014-08-19" incidenttime="11:17:00" incidentnumber="14164548" address="Centre Avenue &amp; Broad Street, Pittsburgh, PA 15206, USA" type="OFFENSE" description="*********************************************** &lt;br/&gt;9501, Bench Warrant&lt;br/&gt;"/><marker lat="40.4775257" lng="-80.0383897" zone="Zone 1" incidentdate="2014-08-19" incidenttime="11:30:00" incidentnumber="14164557" address="1600 Chidell Street, Pittsburgh, PA 15212, USA" type="OFFENSE" description="*********************************************** &lt;br/&gt;3304, Criminal Mischief.&lt;br/&gt;"/><marker lat="40.437847" lng="-79.922806" zone="Zone 4" incidentdate="2014-08-19" incidenttime="11:45:00" incidentnumber="14164552" address="5800 Forbes Avenue, Pittsburgh, PA 15217, USA" type="OFFENSE" description="*********************************************** &lt;br/&gt;9497, Aided Case&lt;br/&gt;"/><marker lat="40.467551" lng="-79.891336" zone="Zone 5" incidentdate="2014-08-19" incidenttime="12:11:00" incidentnumber="14164569" address="7300 Somerset Street, Pittsburgh, PA 15235, USA" type="OFFENSE" description="*********************************************** &lt;br/&gt;3503, Criminal Trespass&lt;br/&gt;"/><marker lat="40.4645185" lng="-79.9052531" zone="Zone 5" incidentdate="2014-08-19" incidenttime="12:16:00" incidentnumber="14164586" address="6600 Lyric Street, Pittsburgh, PA 15206, USA" type="OFFENSE" description="*********************************************** &lt;br/&gt;9489, Found Property&lt;br/&gt;"/><marker lat="40.434081" lng="-80.0026682" zone="Zone 3" incidentdate="2014-08-19" incidenttime="12:23:00" incidentnumber="14164584" address="Smithfield Street Bridge, Pittsburgh, PA, USA" type="OFFENSE" description="*********************************************** &lt;br/&gt;9489, Found Property&lt;br/&gt;"/><marker lat="40.400221" lng="-79.985812" zone="Zone 3" incidentdate="2014-08-19" incidenttime="12:30:00" incidentnumber="14164596" address="200 East Meyers Street, Pittsburgh, PA 15210, USA" type="OFFENSE" description="*********************************************** &lt;br/&gt;3304, Criminal Mischief.&lt;br/&gt;3502, Burglary.&lt;br/&gt;"/><marker lat="40.4693891" lng="-79.9259383" zone="Zone 5" incidentdate="2014-08-19" incidenttime="13:31:00" incidentnumber="14164627" address="700 Mellon Street, Pittsburgh, PA 15206, USA" type="OFFENSE" description="*********************************************** &lt;br/&gt;029, Missing Juvenile&lt;br/&gt;"/><marker lat="40.4536044" lng="-80.053056" zone="Zone 6" incidentdate="2014-08-19" incidenttime="13:41:00" incidentnumber="14164638" address="Hillsboro Street &amp; Bridgely Street, Pittsburgh, PA 15204, USA" type="OFFENSE" description="*********************************************** &lt;br/&gt;3934, Theft from Vehicle&lt;br/&gt;"/><marker lat="40.4666043" lng="-79.9082755" zone="Zone 5" incidentdate="2014-08-19" incidenttime="13:50:00" incidentnumber="14164642" address="1200 Washington Boulevard, Pittsburgh, PA 15206, USA" type="OFFENSE" description="*********************************************** &lt;br/&gt;13(a)(16), Possession of Controlled Substance&lt;br/&gt;13(a)(16), Possession of Controlled Substance&lt;br/&gt;"/><marker lat="40.439517" lng="-79.955965" zone="Zone 4" incidentdate="2014-08-19" incidenttime="14:00:00" incidentnumber="14164679" address="300 Atwood Street, Pittsburgh, PA 15213, USA" type="OFFENSE" description="*********************************************** &lt;br/&gt;3934, Theft from Vehicle&lt;br/&gt;"/><marker lat="40.4555086" lng="-80.0066228" zone="Zone 1" incidentdate="2014-08-19" incidenttime="14:46:00" incidentnumber="14162403" address="1100 Federal Street, Pittsburgh, PA 15212, USA" type="OFFENSE" description="*********************************************** &lt;br/&gt;9501, Bench Warrant&lt;br/&gt;9501, Bench Warrant&lt;br/&gt;"/><marker lat="40.4890106" lng="-80.0298823" zone="Zone 1" incidentdate="2014-08-19" incidenttime="14:58:00" incidentnumber="14164743" address="900 Sagwa Street, Pittsburgh, PA 15212, USA" type="OFFENSE" description="*********************************************** &lt;br/&gt;3502, Burglary.&lt;br/&gt;"/><marker lat="40.435467" lng="-79.996404" zone="Zone 2" incidentdate="2014-08-19" incidenttime="15:00:00" incidentnumber="14158578" address="600 1st Avenue, Pittsburgh, PA 15219, USA" type="OFFENSE" description="*********************************************** &lt;br/&gt;9494, Summary Warrants&lt;br/&gt;"/><marker lat="40.4962574" lng="-80.0063646" zone="Zone 3" incidentdate="2014-08-19" incidenttime="15:00:00" incidentnumber="14164699" address="Sterling Street, Pittsburgh, PA 15214, USA" type="OFFENSE" description="*********************************************** &lt;br/&gt;601.11(a), Littering and Dumping; Any waste, dangerous or detrimental substance upon public property&lt;br/&gt;"/><marker lat="40.4104396" lng="-79.9903445" zone="Zone 3" incidentdate="2014-08-19" incidenttime="03:00:00" incidentnumber="14164366" address="600 Brownsville Road, Pittsburgh, PA 15210, USA" type="ARREST" description="*********************************************** &lt;br/&gt;3701, Robbery.&lt;br/&gt;903, Criminal Conspiracy.&lt;br/&gt;3701, Robbery.&lt;br/&gt;903, Criminal Conspiracy.&lt;br/&gt;3701, Robbery.&lt;br/&gt;903, Criminal Conspiracy.&lt;br/&gt;"/><marker lat="40.4104396" lng="-79.9903445" zone="Zone 3" incidentdate="2014-08-19" incidenttime="03:00:00" incidentnumber="14164366" address="600 Brownsville Road, Pittsburgh, PA 15210, USA" type="ARREST" description="*********************************************** &lt;br/&gt;3701, Robbery.&lt;br/&gt;903, Criminal Conspiracy.&lt;br/&gt;3701, Robbery.&lt;br/&gt;903, Criminal Conspiracy.&lt;br/&gt;3701, Robbery.&lt;br/&gt;903, Criminal Conspiracy.&lt;br/&gt;"/><marker lat="40.4627476" lng="-79.9251012" zone="Zone 5" incidentdate="2014-08-19" incidenttime="20:18:00" incidentnumber="14120966" address="200 North Whitfield Street, Pittsburgh, PA 15206, USA" type="ARREST" description="*********************************************** &lt;br/&gt;4106, Access Device Fraud&lt;br/&gt;"/><marker lat="40.4682485" lng="-79.8573222" zone="Zone 3" incidentdate="2014-08-19" incidenttime="19:30:00" incidentnumber="14164872" address="Grandview Avenue, Pittsburgh, PA 15235, USA" type="ARREST" description="*********************************************** &lt;br/&gt;2701, Simple Assault.&lt;br/&gt;2902, Unlawful Restraint.&lt;br/&gt;3304, Criminal Mischief.&lt;br/&gt;5104, Resisting Arrest or Other Law Enforcement.&lt;br/&gt;5121, Escape.&lt;br/&gt;2701, Simple Assault.&lt;br/&gt;2902, Unlawful Restraint.&lt;br/&gt;3304, Criminal Mischief.&lt;br/&gt;5104, Resisting Arrest or Other Law Enforcement.&lt;br/&gt;5121, Escape.&lt;br/&gt;"/><marker lat="40.4213027" lng="-79.9937378" zone="Zone 3" incidentdate="2014-08-19" incidenttime="06:00:00" incidentnumber="14164423" address="Allen Street, Pittsburgh, PA 15210, USA" type="ARREST" description="*********************************************** &lt;br/&gt;4914, False Identification to Law Enforcement Authorities&lt;br/&gt;5503(a)(2), DISORDERLY CONDUCT - UNREASONABLE NOISE&lt;br/&gt;5505, Public Drunkenness&lt;br/&gt;4914, False Identification to Law Enforcement Authorities&lt;br/&gt;5503(a)(2), DISORDERLY CONDUCT - UNREASONABLE NOISE&lt;br/&gt;5505, Public Drunkenness&lt;br/&gt;"/><marker lat="40.5290761" lng="-80.025577" zone="Zone 2" incidentdate="2014-08-19" incidenttime="18:01:00" incidentnumber="14151804" address="2nd Avenue, Pittsburgh, PA 15229, USA" type="ARREST" description="*********************************************** &lt;br/&gt;2702, Aggravated Assault.&lt;br/&gt;3701, Robbery.&lt;br/&gt;903, Criminal Conspiracy.&lt;br/&gt;903, Criminal Conspiracy.&lt;br/&gt;2702, Aggravated Assault.&lt;br/&gt;3701, Robbery.&lt;br/&gt;903, Criminal Conspiracy.&lt;br/&gt;2701, Simple Assault.&lt;br/&gt;3701, Robbery.&lt;br/&gt;903, Criminal Conspiracy.&lt;br/&gt;"/><marker lat="40.4666043" lng="-79.9082755" zone="Zone 5" incidentdate="2014-08-19" incidenttime="14:00:00" incidentnumber="14164642" address="1200 Washington Boulevard, Pittsburgh, PA 15206, USA" type="ARREST" description="*********************************************** &lt;br/&gt;13(a)(16), Possession of Controlled Substance&lt;br/&gt;13(a)(16), Possession of Controlled Substance&lt;br/&gt;"/><marker lat="40.4556069" lng="-79.9983871" zone="Zone 1" incidentdate="2014-08-19" incidenttime="19:55:00" incidentnumber="14164901" address="East Street &amp; Suismon Street, Pittsburgh, PA 15212, USA" type="ARREST" description="*********************************************** &lt;br/&gt;5902(a)(1), Prostitution&lt;br/&gt;5902(a)(2), Prostitution - Loitering for purpose of&lt;br/&gt;5902(a)(1), Prostitution&lt;br/&gt;5902(a)(2), Prostitution - Loitering for purpose of&lt;br/&gt;"/><marker lat="40.4555086" lng="-80.0066228" zone="Zone 1" incidentdate="2014-08-19" incidenttime="14:46:00" incidentnumber="14162403" address="1100 Federal Street, Pittsburgh, PA 15212, USA" type="ARREST" description="*********************************************** &lt;br/&gt;9501, Bench Warrant&lt;br/&gt;9501, Bench Warrant&lt;br/&gt;"/><marker lat="40.4632036" lng="-80.011065" zone="Zone 1" incidentdate="2014-08-19" incidenttime="07:55:00" incidentnumber="14134231" address="200 Langley Street, Pittsburgh, PA 15214, USA" type="ARREST" description="*********************************************** &lt;br/&gt;3502, Burglary.&lt;br/&gt;3921, Theft by Unlawful Taking or Disposition.&lt;br/&gt;3925, Receiving Stolen Property.&lt;br/&gt;903, Criminal Conspiracy.&lt;br/&gt;"/><marker lat="40.4741014" lng="-79.957821" zone="Zone 2" incidentdate="2014-08-19" incidenttime="18:10:00" incidentnumber="14164819" address="4700 Butler Street, Pittsburgh, PA 15201, USA" type="ARREST" description="*********************************************** &lt;br/&gt;13(a)(16), Possession of Controlled Substance&lt;br/&gt;13(a)(32), Paraphernalia - Use or Possession&lt;br/&gt;903, Criminal Conspiracy.&lt;br/&gt;13(a)(16), Possession of Controlled Substance&lt;br/&gt;13(a)(32), Paraphernalia - Use or Possession&lt;br/&gt;903, Criminal Conspiracy.&lt;br/&gt;13(a)(16), Possession of Controlled Substance&lt;br/&gt;13(a)(32), Paraphernalia - Use or Possession&lt;br/&gt;903, Criminal Conspiracy.&lt;br/&gt;"/><marker lat="40.435467" lng="-79.996404" zone="Zone 2" incidentdate="2014-08-19" incidenttime="09:00:00" incidentnumber="14147535" address="600 1st Avenue, Pittsburgh, PA 15219, USA" type="ARREST" description="*********************************************** &lt;br/&gt;3502, Burglary.&lt;br/&gt;3502, Burglary.&lt;br/&gt;3921, Theft by Unlawful Taking or Disposition.&lt;br/&gt;3502, Burglary.&lt;br/&gt;3921, Theft by Unlawful Taking or Disposition.&lt;br/&gt;"/><marker lat="40.4546227" lng="-80.0147745" zone="Zone 1" incidentdate="2014-08-19" incidenttime="23:30:00" incidentnumber="13227568" address="Brighton Road &amp; Eloise Street, Pittsburgh, PA 15233, USA" type="ARREST" description="*********************************************** &lt;br/&gt;13(a)(16), Possession of Controlled Substance&lt;br/&gt;13(a)(32), Paraphernalia - Use or Possession&lt;br/&gt;13(a)(32), Paraphernalia - Use or Possession&lt;br/&gt;"/><marker lat="40.4741014" lng="-79.957821" zone="Zone 2" incidentdate="2014-08-19" incidenttime="18:13:00" incidentnumber="14164819" address="4700 Butler Street, Pittsburgh, PA 15201, USA" type="ARREST" description="*********************************************** &lt;br/&gt;13(a)(16), Possession of Controlled Substance&lt;br/&gt;13(a)(32), Paraphernalia - Use or Possession&lt;br/&gt;903, Criminal Conspiracy.&lt;br/&gt;13(a)(16), Possession of Controlled Substance&lt;br/&gt;13(a)(32), Paraphernalia - Use or Possession&lt;br/&gt;903, Criminal Conspiracy.&lt;br/&gt;13(a)(16), Possession of Controlled Substance&lt;br/&gt;13(a)(32), Paraphernalia - Use or Possession&lt;br/&gt;903, Criminal Conspiracy.&lt;br/&gt;"/><marker lat="40.4696662" lng="-79.9210303" zone="Zone 5" incidentdate="2014-08-19" incidenttime="20:14:00" incidentnumber="14164880" address="Stanton Avenue &amp; North Highland Avenue, Pittsburgh, PA 15206, USA" type="ARREST" description="*********************************************** &lt;br/&gt;5101, Obstructing Admin. of Law&lt;br/&gt;5104, Resisting Arrest or Other Law Enforcement.&lt;br/&gt;5501, Riot.&lt;br/&gt;5502, Failure of Disorderly Persons to Disperse&lt;br/&gt;5503(a)(4), DISORDERLY CONDUCT - HAZARDOUS/PHYS. OFF&lt;br/&gt;5505, Public Drunkenness&lt;br/&gt;5507, Obstructing Highways and Passages.&lt;br/&gt;5104, Resisting Arrest or Other Law Enforcement.&lt;br/&gt;5501, Riot.&lt;br/&gt;5502, Failure of Disorderly Persons to Disperse&lt;br/&gt;5503(a)(4), DISORDERLY CONDUCT - HAZARDOUS/PHYS. OFF&lt;br/&gt;5507, Obstructing Highways and Passages.&lt;br/&gt;5501, Riot.&lt;br/&gt;5502, Failure of Disorderly Persons to Disperse&lt;br/&gt;5503(a)(4), DISORDERLY CONDUCT - HAZARDOUS/PHYS. OFF&lt;br/&gt;5507, Obstructing Highways and Passages.&lt;br/&gt;5101, Obstructing Admin. of Law&lt;br/&gt;5501, Riot.&lt;br/&gt;5502, Failure of Disorderly Persons to Disperse&lt;br/&gt;5503(a)(4), DISORDERLY CONDUCT - HAZARDOUS/PHYS. OFF&lt;br/&gt;5505, Public Drunkenness&lt;br/&gt;5507, Obstructing Highways and Passages.&lt;br/&gt;"/><marker lat="40.528434" lng="-80.0246124" zone="Zone 2" incidentdate="2014-08-19" incidenttime="18:20:00" incidentnumber="14164836" address="4th Avenue, Pittsburgh, PA 15229, USA" type="ARREST" description="*********************************************** &lt;br/&gt;9501, Bench Warrant&lt;br/&gt;9501, Bench Warrant&lt;br/&gt;"/><marker lat="40.4696662" lng="-79.9210303" zone="Zone 5" incidentdate="2014-08-19" incidenttime="20:14:00" incidentnumber="14164880" address="Stanton Avenue &amp; North Highland Avenue, Pittsburgh, PA 15206, USA" type="ARREST" description="*********************************************** &lt;br/&gt;5101, Obstructing Admin. of Law&lt;br/&gt;5104, Resisting Arrest or Other Law Enforcement.&lt;br/&gt;5501, Riot.&lt;br/&gt;5502, Failure of Disorderly Persons to Disperse&lt;br/&gt;5503(a)(4), DISORDERLY CONDUCT - HAZARDOUS/PHYS. OFF&lt;br/&gt;5505, Public Drunkenness&lt;br/&gt;5507, Obstructing Highways and Passages.&lt;br/&gt;5104, Resisting Arrest or Other Law Enforcement.&lt;br/&gt;5501, Riot.&lt;br/&gt;5502, Failure of Disorderly Persons to Disperse&lt;br/&gt;5503(a)(4), DISORDERLY CONDUCT - HAZARDOUS/PHYS. OFF&lt;br/&gt;5507, Obstructing Highways and Passages.&lt;br/&gt;5501, Riot.&lt;br/&gt;5502, Failure of Disorderly Persons to Disperse&lt;br/&gt;5503(a)(4), DISORDERLY CONDUCT - HAZARDOUS/PHYS. OFF&lt;br/&gt;5507, Obstructing Highways and Passages.&lt;br/&gt;5101, Obstructing Admin. of Law&lt;br/&gt;5501, Riot.&lt;br/&gt;5502, Failure of Disorderly Persons to Disperse&lt;br/&gt;5503(a)(4), DISORDERLY CONDUCT - HAZARDOUS/PHYS. OFF&lt;br/&gt;5505, Public Drunkenness&lt;br/&gt;5507, Obstructing Highways and Passages.&lt;br/&gt;"/><marker lat="40.4696662" lng="-79.9210303" zone="Zone 5" incidentdate="2014-08-19" incidenttime="20:14:00" incidentnumber="14164880" address="Stanton Avenue &amp; North Highland Avenue, Pittsburgh, PA 15206, USA" type="ARREST" description="*********************************************** &lt;br/&gt;5101, Obstructing Admin. of Law&lt;br/&gt;5104, Resisting Arrest or Other Law Enforcement.&lt;br/&gt;5501, Riot.&lt;br/&gt;5502, Failure of Disorderly Persons to Disperse&lt;br/&gt;5503(a)(4), DISORDERLY CONDUCT - HAZARDOUS/PHYS. OFF&lt;br/&gt;5505, Public Drunkenness&lt;br/&gt;5507, Obstructing Highways and Passages.&lt;br/&gt;5104, Resisting Arrest or Other Law Enforcement.&lt;br/&gt;5501, Riot.&lt;br/&gt;5502, Failure of Disorderly Persons to Disperse&lt;br/&gt;5503(a)(4), DISORDERLY CONDUCT - HAZARDOUS/PHYS. OFF&lt;br/&gt;5507, Obstructing Highways and Passages.&lt;br/&gt;5501, Riot.&lt;br/&gt;5502, Failure of Disorderly Persons to Disperse&lt;br/&gt;5503(a)(4), DISORDERLY CONDUCT - HAZARDOUS/PHYS. OFF&lt;br/&gt;5507, Obstructing Highways and Passages.&lt;br/&gt;5101, Obstructing Admin. of Law&lt;br/&gt;5501, Riot.&lt;br/&gt;5502, Failure of Disorderly Persons to Disperse&lt;br/&gt;5503(a)(4), DISORDERLY CONDUCT - HAZARDOUS/PHYS. OFF&lt;br/&gt;5505, Public Drunkenness&lt;br/&gt;5507, Obstructing Highways and Passages.&lt;br/&gt;"/><marker lat="40.4416937" lng="-79.9712027" zone="Zone 2" incidentdate="2014-08-19" incidenttime="18:25:00" incidentnumber="14164954" address="Burrows Street, Pittsburgh, PA, USA" type="ARREST" description="*********************************************** &lt;br/&gt;9501, Bench Warrant&lt;br/&gt;9501, Bench Warrant&lt;br/&gt;"/><marker lat="40.498195" lng="-79.853756" zone="Zone 5" incidentdate="2014-08-19" incidenttime="18:26:00" incidentnumber="14164824" address="800 Freeport Road, Pittsburgh, PA 15238, USA" type="ARREST" description="*********************************************** &lt;br/&gt;13(a)(12), Obtaining Cont. Subst. by Fraudulent Means&lt;br/&gt;13(a)(12), Obtaining Cont. Subst. by Fraudulent Means&lt;br/&gt;"/><marker lat="40.4514601" lng="-80.0574609" zone="Zone 6" incidentdate="2014-08-19" incidenttime="16:56:00" incidentnumber="14164741" address="1200 Berry Street, Pittsburgh, PA 15204, USA" type="ARREST" description="*********************************************** &lt;br/&gt;2701, Simple Assault.&lt;br/&gt;2701, Simple Assault.&lt;br/&gt;"/><marker lat="40.4545418" lng="-79.8741914" zone="Zone 5" incidentdate="2014-08-19" incidenttime="18:49:00" incidentnumber="14145652" address="2100 Park Hill Drive, Pittsburgh, PA 15221, USA" type="ARREST" description="*********************************************** &lt;br/&gt;2904, Interference with Custody of Children.&lt;br/&gt;"/><marker lat="40.4545638" lng="-79.9993789" zone="Zone 1" incidentdate="2014-08-19" incidenttime="20:55:00" incidentnumber="14164939" address="Middle Street &amp; Foreland Street, Pittsburgh, PA 15212, USA" type="ARREST" description="*********************************************** &lt;br/&gt;5902(e), Patronizing a Prostitute&lt;br/&gt;902, Criminal Solicitation.&lt;br/&gt;5902(e), Patronizing a Prostitute&lt;br/&gt;902, Criminal Solicitation.&lt;br/&gt;"/><marker lat="40.4496326" lng="-79.8895772" zone="Zone 5" incidentdate="2014-08-19" incidenttime="19:04:00" incidentnumber="14142279" address="500 El Court, Pittsburgh, PA 15208, USA" type="ARREST" description="*********************************************** &lt;br/&gt;2709.1, Stalking Conduct or Repeatedly Acts Including Follows&lt;br/&gt;"/><marker lat="40.399888" lng="-79.987391" zone="Zone 3" incidentdate="2014-08-19" incidenttime="17:20:00" incidentnumber="14164887" address="100 East Meyers Street, Pittsburgh, PA 15210, USA" type="ARREST" description="*********************************************** &lt;br/&gt;9093, Indirect Criminal Contempt&lt;br/&gt;9093, Indirect Criminal Contempt&lt;br/&gt;"/><marker lat="40.399888" lng="-79.987391" zone="Zone 3" incidentdate="2014-08-19" incidenttime="17:30:00" incidentnumber="14164768" address="100 East Meyers Street, Pittsburgh, PA 15210, USA" type="ARREST" description="*********************************************** &lt;br/&gt;2701, Simple Assault.&lt;br/&gt;9093, Indirect Criminal Contempt&lt;br/&gt;2701, Simple Assault.&lt;br/&gt;"/><marker lat="40.4805843" lng="-79.9347818" zone="Zone 5" incidentdate="2014-08-19" incidenttime="23:15:00" incidentnumber="14077688" address="Stanton Avenue &amp; Oranmore Street, Pittsburgh, PA 15201, USA" type="ARREST" description="*********************************************** &lt;br/&gt;13(a)(31), Marijuana: Possession Small Amount&lt;br/&gt;13(a)(32), Paraphernalia - Use or Possession&lt;br/&gt;13(a)(32), Paraphernalia - Use or Possession&lt;br/&gt;"/><marker lat="40.4218033" lng="-79.9932894" zone="Zone 3" incidentdate="2014-08-19" incidenttime="17:32:00" incidentnumber="14164792" address="East Warrington Avenue &amp; Asteroid Way, Pittsburgh, PA 15210, USA" type="ARREST" description="*********************************************** &lt;br/&gt;9501, Bench Warrant&lt;br/&gt;9501, Bench Warrant&lt;br/&gt;"/><marker lat="40.5217257" lng="-80.0437137" zone="Zone 5" incidentdate="2014-08-19" incidenttime="12:57:00" incidentnumber="14150133" address="400 Highland Avenue, Pittsburgh, PA 15229, USA" type="ARREST" description="*********************************************** &lt;br/&gt;1371, Operation Following Suspension of Registration.&lt;br/&gt;1501, Drivers Required to be Licensed.&lt;br/&gt;1543, Driving While Operating Privilege is Suspended or Revoked.&lt;br/&gt;1786, Required Financial Responsibility.&lt;br/&gt;6503.1, Habitual Offenders&lt;br/&gt;"/><marker lat="40.4461863" lng="-80.0120666" zone="Zone 1" incidentdate="2014-08-19" incidenttime="19:25:00" incidentnumber="14164881" address="400 North Shore Drive, Pittsburgh, PA 15212, USA" type="ARREST" description="*********************************************** &lt;br/&gt;3503(b)(1)(i), Actual Communication&lt;br/&gt;5505, Public Drunkenness&lt;br/&gt;3503(b)(1)(i), Actual Communication&lt;br/&gt;5505, Public Drunkenness&lt;br/&gt;"/></markers>
