<?xml version="1.0"?>
<markers><marker lat="40.465489045583112" lng="-79.947980888674394" zone="Zone 5" incidentdate="2015-08-18" incidenttime="10:00:00" incidentnumber="15155049" address="4700 block Penn Ave" type="OFFENSE" age="" gender="" description="*********************************************** &lt;br/&gt;3304(a)(4), CRIMINAL MISCHIEF- Intentionally Damage Property (By Graffiti, Aerosol Spray Paint, Broad Tip Marker, or Similar)&lt;br/&gt;"/><marker lat="40.411998076177227" lng="-79.995149476193134" zone="Zone 3" incidentdate="2015-08-18" incidenttime="05:00:00" incidentnumber="15155334" address="400 block Moore Ave" type="OFFENSE" age="" gender="" description="*********************************************** &lt;br/&gt;3921(a), Theft by Unlawful Taking or Disposition - Movable item&lt;br/&gt;2701, Simple Assault.&lt;br/&gt;"/><marker lat="40.465730750130227" lng="-79.949464212395569" zone="Zone 5" incidentdate="2015-08-18" incidenttime="13:15:00" incidentnumber="15155146" address="4600 block Penn Ave" type="OFFENSE" age="" gender="" description="*********************************************** &lt;br/&gt;2709(a)(5), Harassment Communicates Repeatedly in Anonymous Manner&lt;br/&gt;"/><marker lat="40.4274771168228" lng="-79.969817626401067" zone="Zone 3" incidentdate="2015-08-18" incidenttime="07:45:00" incidentnumber="15155179" address="2500 block E Carson St" type="OFFENSE" age="" gender="" description="*********************************************** &lt;br/&gt;3502, Burglary.&lt;br/&gt;"/><marker lat="40.4629498" lng="-79.8923735" zone="Zone 5" incidentdate="2015-08-18" incidenttime="00:48:00" incidentnumber="15154806" address="7100 block Everton St" type="OFFENSE" age="" gender="" description="*********************************************** &lt;br/&gt;2701, Simple Assault.&lt;br/&gt;"/><marker lat="40.487220486763974" lng="-79.94037030504218" zone="Zone 2" incidentdate="2015-08-18" incidenttime="08:18:00" incidentnumber="15154977" address="6100 block Butler St" type="OFFENSE" age="" gender="" description="*********************************************** &lt;br/&gt;3502, Burglary.&lt;br/&gt;"/><marker lat="40.430504632310488" lng="-79.998923114766015" zone="Zone 3" incidentdate="2015-08-18" incidenttime="18:00:00" incidentnumber="15155345" address="S 2nd St &amp; Mc Kean St" type="OFFENSE" age="" gender="" description="*********************************************** &lt;br/&gt;3934, Theft from Vehicle&lt;br/&gt;3304, Criminal Mischief.&lt;br/&gt;"/><marker lat="40.466301368364185" lng="-80.011090311070006" zone="Zone 1" incidentdate="2015-08-18" incidenttime="19:20:00" incidentnumber="15155330" address="2300 block Perrysville Ave" type="OFFENSE" age="" gender="" description="*********************************************** &lt;br/&gt;2709(a)(2), Harassment by Following Person in Public Place(s)&lt;br/&gt;2709.1, Stalking Conduct or Repeatedly Acts Including Follows&lt;br/&gt;9093, Indirect Criminal Contempt&lt;br/&gt;"/><marker lat="40.428276333917673" lng="-79.97636113605644" zone="Zone 3" incidentdate="2015-08-18" incidenttime="23:07:00" incidentnumber="15155523" address="100 block S 21st St" type="OFFENSE" age="" gender="" description="*********************************************** &lt;br/&gt;9501, Bench Warrant&lt;br/&gt;13(a)(31), Marijuana: Possession Small Amount&lt;br/&gt;"/><marker lat="40.438601293806705" lng="-79.95334729494455" zone="Zone 4" incidentdate="2015-08-18" incidenttime="12:30:00" incidentnumber="15155421" address="3800 block Bates St" type="OFFENSE" age="" gender="" description="*********************************************** &lt;br/&gt;3502, Burglary.&lt;br/&gt;"/><marker lat="40.397795887957386" lng="-80.022725975896648" zone="Zone 6" incidentdate="2015-08-18" incidenttime="16:20:00" incidentnumber="15155274" address="500 block Rossmore Ave" type="OFFENSE" age="" gender="" description="*********************************************** &lt;br/&gt;3502, Burglary.&lt;br/&gt;"/><marker lat="40.441061138073565" lng="-79.970620771692978" zone="Zone 2" incidentdate="2015-08-18" incidenttime="22:00:00" incidentnumber="15155504" address="100 block Hyman Pl" type="OFFENSE" age="" gender="" description="*********************************************** &lt;br/&gt;3304, Criminal Mischief.&lt;br/&gt;"/><marker lat="40.454204011355536" lng="-80.021261849835767" zone="Zone 1" incidentdate="2015-08-18" incidenttime="01:45:00" incidentnumber="15154831" address="1100 block Sheffield St" type="OFFENSE" age="" gender="" description="*********************************************** &lt;br/&gt;2701, Simple Assault.&lt;br/&gt;"/><marker lat="40.453542019097064" lng="-80.024666624688436" zone="Zone 1" incidentdate="2015-08-18" incidenttime="08:00:00" incidentnumber="15154976" address="1300 block Sheffield St" type="OFFENSE" age="" gender="" description="*********************************************** &lt;br/&gt;9999, 9999 - (Misc. Incident):&lt;br/&gt;"/><marker lat="40.469684316080389" lng="-79.911842544105951" zone="Zone 5" incidentdate="2015-08-18" incidenttime="12:19:00" incidentnumber="15155105" address="6500 block Stanton Ave" type="OFFENSE" age="" gender="" description="*********************************************** &lt;br/&gt;2709, Harassment (Non-Specific)&lt;br/&gt;"/><marker lat="40.421531877189601" lng="-79.993577564166102" zone="Zone 3" incidentdate="2015-08-18" incidenttime="10:18:00" incidentnumber="15155037" address="800 block E Warrington Ave" type="OFFENSE" age="" gender="" description="*********************************************** &lt;br/&gt;9999, 9999 - (Misc. Incident):&lt;br/&gt;"/><marker lat="40.438308590945255" lng="-79.957718574743282" zone="Zone 4" incidentdate="2015-08-18" incidenttime="16:45:00" incidentnumber="15155273" address="300 block Mc Kee Pl" type="OFFENSE" age="" gender="" description="*********************************************** &lt;br/&gt;3502, Burglary.&lt;br/&gt;"/><marker lat="40.482646028067386" lng="-80.044377024868552" zone="Zone 1" incidentdate="2015-08-18" incidenttime="06:15:00" incidentnumber="15154934" address="3800 block Hiawatha St" type="OFFENSE" age="" gender="" description="*********************************************** &lt;br/&gt;3934, Theft from Vehicle&lt;br/&gt;"/><marker lat="40.451194769675077" lng="-80.016514286517747" zone="Zone 1" incidentdate="2015-08-18" incidenttime="08:00:00" incidentnumber="15155122" address="900 block N Lincoln Ave" type="OFFENSE" age="" gender="" description="*********************************************** &lt;br/&gt;3502, Burglary.&lt;br/&gt;"/><marker lat="40.479589767490125" lng="-79.953178528138437" zone="Zone 2" incidentdate="2015-08-18" incidenttime="05:30:00" incidentnumber="15154918" address="5200 block Natrona Way" type="OFFENSE" age="" gender="" description="*********************************************** &lt;br/&gt;9490, Missing Persons (18 and Over)&lt;br/&gt;"/><marker lat="40.435871654423465" lng="-79.923064652845284" zone="Zone 4" incidentdate="2015-08-18" incidenttime="12:38:00" incidentnumber="15155118" address="1900 block Murray Ave" type="OFFENSE" age="" gender="" description="*********************************************** &lt;br/&gt;3745, Accidents Involving Damage to Unattended Veh.or Prop.&lt;br/&gt;"/><marker lat="40.417345136139645" lng="-79.988193247990409" zone="Zone 3" incidentdate="2015-08-18" incidenttime="15:28:00" incidentnumber="15155207" address="100 block Jucunda St" type="OFFENSE" age="" gender="" description="*********************************************** &lt;br/&gt;3304, Criminal Mischief.&lt;br/&gt;3503(a), Criminal Trespass&lt;br/&gt;5505, Public Drunkenness&lt;br/&gt;"/><marker lat="40.466134176829321" lng="-79.952223677259056" zone="Zone 2" incidentdate="2015-08-18" incidenttime="11:41:00" incidentnumber="15155076" address="Penn Ave &amp; 45th St" type="OFFENSE" age="" gender="" description="*********************************************** &lt;br/&gt;9999, 9999 - (Misc. Incident):&lt;br/&gt;"/><marker lat="40.461263755824248" lng="-79.946362797859464" zone="Zone 5" incidentdate="2015-08-18" incidenttime="19:15:00" incidentnumber="15155400" address="4800 block Friendship Ave" type="OFFENSE" age="" gender="" description="*********************************************** &lt;br/&gt;2701, Simple Assault.&lt;br/&gt;4304(a)(1), Endangering Welfare of Children - Course of Conduct Enhanced&lt;br/&gt;5505, Public Drunkenness&lt;br/&gt;"/><marker lat="40.457279218250953" lng="-80.007226502710267" zone="Zone 1" incidentdate="2015-08-18" incidenttime="02:50:00" incidentnumber="15154861" address="Federal St N &amp; Hemlock St" type="OFFENSE" age="" gender="" description="*********************************************** &lt;br/&gt;3921(a), Theft by Unlawful Taking or Disposition - Movable item&lt;br/&gt;3507, Lamps and Other Equipment on Pedalcycles.&lt;br/&gt;3925, Receiving Stolen Property.&lt;br/&gt;3508, Pedalcycles on Sidewalks and Pedalcycle Paths.&lt;br/&gt;"/><marker lat="40.4715010" lng="-80.0400167" zone="Zone 1" incidentdate="2015-08-18" incidenttime="09:30:00" incidentnumber="15155010" address="Eckert St &amp; Beaver Ave" type="OFFENSE" age="" gender="" description="*********************************************** &lt;br/&gt;9999, 9999 - (Misc. Incident):&lt;br/&gt;"/><marker lat="40.421168138979723" lng="-80.008374470990873" zone="Zone 3" incidentdate="2015-08-18" incidenttime="18:00:00" incidentnumber="15155339" address="600 block Curtis St" type="OFFENSE" age="" gender="" description="*********************************************** &lt;br/&gt;3921, Theft by Unlawful Taking or Disposition.&lt;br/&gt;"/><marker lat="40.442808370820714" lng="-79.968054376480751" zone="Zone 4" incidentdate="2015-08-18" incidenttime="10:15:00" incidentnumber="15155100" address="2500 block Wadsworth St" type="OFFENSE" age="" gender="" description="*********************************************** &lt;br/&gt;3934, Theft from Vehicle&lt;br/&gt;3304, Criminal Mischief.&lt;br/&gt;"/><marker lat="40.450950286724044" lng="-80.066740776128839" zone="Zone 6" incidentdate="2015-08-18" incidenttime="00:30:00" incidentnumber="15154812" address="3200 block Middletown Rd" type="OFFENSE" age="" gender="" description="*********************************************** &lt;br/&gt;9999, 9999 - (Misc. Incident):&lt;br/&gt;"/><marker lat="40.408162062221763" lng="-79.925878776555578" zone="Zone 4" incidentdate="2015-08-18" incidenttime="18:35:00" incidentnumber="15155340" address="Johnston Ave &amp; Naomi St" type="OFFENSE" age="" gender="" description="*********************************************** &lt;br/&gt;13(a)(31), Marijuana: Possession Small Amount&lt;br/&gt;4303, General Lighting Requirements.&lt;br/&gt;1543, Driving While Operating Privilege is Suspended or Revoked.&lt;br/&gt;"/><marker lat="40.445707436700843" lng="-79.990911385279531" zone="Zone 6" incidentdate="2015-08-18" incidenttime="03:41:00" incidentnumber="15154890" address="1300 block West Liberty Ave" type="OFFENSE" age="" gender="" description="*********************************************** &lt;br/&gt;3745, Accidents Involving Damage to Unattended Veh.or Prop.&lt;br/&gt;"/><marker lat="40.462402719860648" lng="-79.950882093642306" zone="Zone 5" incidentdate="2015-08-18" incidenttime="14:00:00" incidentnumber="15155132" address="4600 block Liberty Ave" type="OFFENSE" age="" gender="" description="*********************************************** &lt;br/&gt;9490, Missing Persons (18 and Over)&lt;br/&gt;"/><marker lat="40.423994311860277" lng="-79.945090660246706" zone="Zone 4" incidentdate="2015-08-18" incidenttime="14:15:00" incidentnumber="15155194" address="4100 block Rosalia Pl" type="OFFENSE" age="" gender="" description="*********************************************** &lt;br/&gt;9999, 9999 - (Misc. Incident):&lt;br/&gt;"/><marker lat="40.409432975740131" lng="-79.942235209884871" zone="Zone 4" incidentdate="2015-08-18" incidenttime="06:00:00" incidentnumber="15154987" address="200 block Glen Caladh St" type="OFFENSE" age="" gender="" description="*********************************************** &lt;br/&gt;3926(a)(1), Theft of Services; Cable, Gas, Taxi, Bill, Tab, etc.&lt;br/&gt;"/><marker lat="40.409150516480381" lng="-79.943845194806102" zone="Zone 4" incidentdate="2015-08-18" incidenttime="15:00:00" incidentnumber="15155210" address="2nd Ave &amp; Glen Caladh St" type="OFFENSE" age="" gender="" description="*********************************************** &lt;br/&gt;2701, Simple Assault.&lt;br/&gt;"/><marker lat="40.392365478702068" lng="-80.007850102574906" zone="Zone 6" incidentdate="2015-08-18" incidenttime="19:31:00" incidentnumber="15155377" address="1400 block Brookline Blvd" type="OFFENSE" age="" gender="" description="*********************************************** &lt;br/&gt;5502, Failure of Disorderly Persons to Disperse&lt;br/&gt;5503, Disorderly Conduct.&lt;br/&gt;"/><marker lat="40.454016520179565" lng="-79.895644292400064" zone="Zone 5" incidentdate="2015-08-18" incidenttime="02:22:00" incidentnumber="15154849" address="7300 block Hamilton Ave" type="OFFENSE" age="" gender="" description="*********************************************** &lt;br/&gt;2701, Simple Assault.&lt;br/&gt;"/><marker lat="40.453675651234356" lng="-80.04883059197202" zone="Zone 6" incidentdate="2015-08-18" incidenttime="11:50:00" incidentnumber="15155093" address="2700 block Merwyn Ave" type="OFFENSE" age="" gender="" description="*********************************************** &lt;br/&gt;2902, Unlawful Restraint.&lt;br/&gt;2701(a)(1), Simple Assault - Intent., Know., Reckless.Cause Bod. Injury&lt;br/&gt;"/><marker lat="40.4593901" lng="-79.8871005" zone="Zone 5" incidentdate="2015-08-18" incidenttime="18:01:00" incidentnumber="15155322" address="1200 block Ferris Ct" type="OFFENSE" age="" gender="" description="*********************************************** &lt;br/&gt;13(a)(16), Possession of Controlled Substance&lt;br/&gt;4910, Tampering with or Fabricating Physical Evidence.&lt;br/&gt;13(a)(30), Possession w/ Intent to Del. Controlled Substance&lt;br/&gt;13(a)(32), Paraphernalia - Use or Possession&lt;br/&gt;6106, Firearms not to be Carried without a License.&lt;br/&gt;"/><marker lat="40.403792286132436" lng="-80.028294586108061" zone="Zone 6" incidentdate="2015-08-18" incidenttime="23:23:00" incidentnumber="15155511" address="2200 block Vodeli St" type="OFFENSE" age="" gender="" description="*********************************************** &lt;br/&gt;9497, Aided Case&lt;br/&gt;"/><marker lat="40.423181653741167" lng="-79.928733488981621" zone="Zone 4" incidentdate="2015-08-18" incidenttime="13:00:00" incidentnumber="15155148" address="4200 block Murray Ave" type="OFFENSE" age="" gender="" description="*********************************************** &lt;br/&gt;3745, Accidents Involving Damage to Unattended Veh.or Prop.&lt;br/&gt;"/><marker lat="40.461634090147498" lng="-79.963583437996832" zone="Zone 2" incidentdate="2015-08-18" incidenttime="17:00:00" incidentnumber="15155259" address="3600 block Liberty Ave" type="OFFENSE" age="" gender="" description="*********************************************** &lt;br/&gt;13(a)(31), Marijuana: Possession Small Amount&lt;br/&gt;5503(a)(3), DISORDERLY CONDUCT - OBSCENE LANG/GEST&lt;br/&gt;"/><marker lat="40.441698785281162" lng="-79.931200511572939" zone="Zone 4" incidentdate="2015-08-18" incidenttime="06:00:00" incidentnumber="15155065" address="1400 block Inverness Ave" type="OFFENSE" age="" gender="" description="*********************************************** &lt;br/&gt;3921, Theft by Unlawful Taking or Disposition.&lt;br/&gt;"/><marker lat="40.4520276" lng="-80.0240039" zone="Zone 1" incidentdate="2015-08-18" incidenttime="17:19:00" incidentnumber="15155293" address="Page St &amp; Faulsey Way" type="OFFENSE" age="" gender="" description="*********************************************** &lt;br/&gt;3701, Robbery.&lt;br/&gt;903, Criminal Conspiracy.&lt;br/&gt;"/><marker lat="40.421511012664602" lng="-79.995485385467873" zone="Zone 3" incidentdate="2015-08-18" incidenttime="06:13:00" incidentnumber="15154929" address="700 block E Warrington Ave" type="OFFENSE" age="" gender="" description="*********************************************** &lt;br/&gt;3304, Criminal Mischief.&lt;br/&gt;3502, Burglary.&lt;br/&gt;"/><marker lat="40.408233362433364" lng="-79.943897818758742" zone="Zone 4" incidentdate="2015-08-18" incidenttime="13:30:00" incidentnumber="15155240" address="5000 block 2nd Ave" type="OFFENSE" age="" gender="" description="*********************************************** &lt;br/&gt;3934, Theft from Vehicle&lt;br/&gt;3304, Criminal Mischief.&lt;br/&gt;"/><marker lat="40.41080740779023" lng="-80.019200550337345" zone="Zone 6" incidentdate="2015-08-18" incidenttime="01:20:00" incidentnumber="15154836" address="600 block Hampshire Ave" type="OFFENSE" age="" gender="" description="*********************************************** &lt;br/&gt;3921(a), Theft by Unlawful Taking or Disposition - Movable item&lt;br/&gt;"/><marker lat="40.428619652406162" lng="-79.989769890359767" zone="Zone 3" incidentdate="2015-08-18" incidenttime="05:15:00" incidentnumber="15155032" address="900 block E Carson St" type="OFFENSE" age="" gender="" description="*********************************************** &lt;br/&gt;3934, Theft from Vehicle&lt;br/&gt;"/><marker lat="40.452666925006717" lng="-80.024330495906881" zone="Zone 1" incidentdate="2015-08-18" incidenttime="11:45:00" incidentnumber="15155090" address="1300 block W North Ave" type="OFFENSE" age="" gender="" description="*********************************************** &lt;br/&gt;3934, Theft from Vehicle&lt;br/&gt;"/><marker lat="40.4291077" lng="-79.9992410" zone="Zone 3" incidentdate="2015-08-18" incidenttime="16:00:00" incidentnumber="15155254" address="Liberty Tunl &amp; P J Mc Ardle Rdwy" type="OFFENSE" age="" gender="" description="*********************************************** &lt;br/&gt;9999, 9999 - (Misc. Incident):&lt;br/&gt;"/><marker lat="40.440372470342737" lng="-79.970606724756124" zone="Zone 2" incidentdate="2015-08-18" incidenttime="16:50:00" incidentnumber="15155294" address="300 block Burrows St" type="OFFENSE" age="" gender="" description="*********************************************** &lt;br/&gt;2701(b)(1), Simple Assault - Fight or Scuffle Entered by Mutual Consent&lt;br/&gt;2709(a)(1), Harassment by Physical Contact, or Attempts or Threats&lt;br/&gt;"/><marker lat="40.461392541723988" lng="-79.919695157123542" zone="Zone 5" incidentdate="2015-08-18" incidenttime="01:56:00" incidentnumber="15154843" address="Cambria Ct" type="OFFENSE" age="" gender="" description="*********************************************** &lt;br/&gt;3304, Criminal Mischief.&lt;br/&gt;907, Possessing Instruments of Crime.&lt;br/&gt;3502, Burglary.&lt;br/&gt;"/><marker lat="40.404914940128336" lng="-80.040145473413176" zone="Zone 6" incidentdate="2015-08-18" incidenttime="11:05:00" incidentnumber="15155064" address="2800 block Banksville Rd" type="OFFENSE" age="" gender="" description="*********************************************** &lt;br/&gt;9496, Dead on Arrival (DOA)&lt;br/&gt;"/><marker lat="40.402818691320014" lng="-79.938194800059435" zone="Zone 4" incidentdate="2015-08-18" incidenttime="19:35:00" incidentnumber="15155385" address="200 block Cust St" type="OFFENSE" age="" gender="" description="*********************************************** &lt;br/&gt;9496, Dead on Arrival (DOA)&lt;br/&gt;"/><marker lat="40.454861541545618" lng="-80.02809045712597" zone="Zone 1" incidentdate="2015-08-18" incidenttime="07:00:00" incidentnumber="15154950" address="1500 block Chateau St" type="OFFENSE" age="" gender="" description="*********************************************** &lt;br/&gt;3304, Criminal Mischief.&lt;br/&gt;"/><marker lat="40.439189367746287" lng="-79.954005214584086" zone="Zone 4" incidentdate="2015-08-18" incidenttime="14:52:00" incidentnumber="15155221" address="3800 block Pier St" type="OFFENSE" age="" gender="" description="*********************************************** &lt;br/&gt;9999, 9999 - (Misc. Incident):&lt;br/&gt;"/><marker lat="40.438610014203924" lng="-79.968020290435504" zone="Zone 2" incidentdate="2015-08-18" incidenttime="21:27:00" incidentnumber="15155450" address="200 block Burrows St" type="OFFENSE" age="" gender="" description="*********************************************** &lt;br/&gt;3503.B1I, DEF. TRESPASS ACTUAL COMMUNICATION&lt;br/&gt;5503(a)(4), DISORDERLY CONDUCT - HAZARDOUS/PHYS. OFF&lt;br/&gt;5505, Public Drunkenness&lt;br/&gt;4914, False Identification to Law Enforcement Authorities&lt;br/&gt;"/><marker lat="40.408935190915379" lng="-80.00772028733715" zone="Zone 6" incidentdate="2015-08-18" incidenttime="22:18:00" incidentnumber="15155479" address="400 block Linial Ave" type="OFFENSE" age="" gender="" description="*********************************************** &lt;br/&gt;3304(a)(5), CRIMINAL MISCHIEF - Intentionally Damages Real Or Personal Property Of Another&lt;br/&gt;"/><marker lat="40.453291956742412" lng="-80.049252626946071" zone="Zone 6" incidentdate="2015-08-18" incidenttime="07:30:00" incidentnumber="15154952" address="2700 block Glen Mawr St" type="OFFENSE" age="" gender="" description="*********************************************** &lt;br/&gt;9495, Suicide&lt;br/&gt;"/><marker lat="40.40672945617505" lng="-79.992240850144029" zone="Zone 3" incidentdate="2015-08-18" incidenttime="18:07:00" incidentnumber="15155324" address="Brownsville Rd &amp; Calhoun Ave" type="OFFENSE" age="" gender="" description="*********************************************** &lt;br/&gt;3334, Turning Movements and Required Signals.&lt;br/&gt;13(a)(16), Possession of Controlled Substance&lt;br/&gt;13(a)(32), Paraphernalia - Use or Possession&lt;br/&gt;9501, Bench Warrant&lt;br/&gt;"/><marker lat="40.455814816183754" lng="-79.997355061023555" zone="Zone 1" incidentdate="2015-08-18" incidenttime="10:00:00" incidentnumber="15155141" address="800 block Suismon St" type="OFFENSE" age="" gender="" description="*********************************************** &lt;br/&gt;3921, Theft by Unlawful Taking or Disposition.&lt;br/&gt;"/><marker lat="40.456614610559235" lng="-80.062503345418307" zone="Zone 6" incidentdate="2015-08-18" incidenttime="20:36:00" incidentnumber="15155422" address="1000 block Tweed St" type="OFFENSE" age="" gender="" description="*********************************************** &lt;br/&gt;3502, Burglary.&lt;br/&gt;"/><marker lat="40.460594319900963" lng="-79.922716789802806" zone="Zone 5" incidentdate="2015-08-18" incidenttime="16:40:00" incidentnumber="15155267" address="6200 block Penn Ave" type="OFFENSE" age="" gender="" description="*********************************************** &lt;br/&gt;4914, False Identification to Law Enforcement Authorities&lt;br/&gt;3929(a)(1), Retail Theft; takes possession of, carries away, or transfers displayed merchandise&lt;br/&gt;907, Possessing Instruments of Crime.&lt;br/&gt;"/><marker lat="40.458673827506942" lng="-79.90804021795374" zone="Zone 5" incidentdate="2015-08-18" incidenttime="15:01:00" incidentnumber="15155199" address="Washington Blvd &amp; Frankstown Ave" type="OFFENSE" age="" gender="" description="*********************************************** &lt;br/&gt;1786, Required Financial Responsibility.&lt;br/&gt;3743, Accidents Involving Damage to Attended Veh. or Property&lt;br/&gt;"/><marker lat="40.453735589241063" lng="-80.022573559892535" zone="Zone 1" incidentdate="2015-08-18" incidenttime="16:41:00" incidentnumber="15155266" address="Fontella St &amp; Sheffield St" type="OFFENSE" age="" gender="" description="*********************************************** &lt;br/&gt;5507, Obstructing Highways and Passages.&lt;br/&gt;"/><marker lat="40.389383972420383" lng="-80.009372634594897" zone="Zone 6" incidentdate="2015-08-18" incidenttime="02:43:00" incidentnumber="15154862" address="Hobson St &amp; Merrick Ave" type="OFFENSE" age="" gender="" description="*********************************************** &lt;br/&gt;9498, 302 (Mental)&lt;br/&gt;"/><marker lat="40.464666239648722" lng="-80.008348823463578" zone="Zone 1" incidentdate="2015-08-18" incidenttime="22:30:00" incidentnumber="15155492" address="100 block Mc Naugher St" type="OFFENSE" age="" gender="" description="*********************************************** &lt;br/&gt;9490, Missing Persons (18 and Over)&lt;br/&gt;"/><marker lat="40.4291077" lng="-79.9992410" zone="Zone 3" incidentdate="2015-08-18" incidenttime="15:50:00" incidentnumber="15155219" address="Liberty Tunl &amp; P J Mc Ardle Rdwy" type="OFFENSE" age="" gender="" description="*********************************************** &lt;br/&gt;3743, Accidents Involving Damage to Attended Veh. or Property&lt;br/&gt;"/><marker lat="40.4367080" lng="-80.0162571" zone="Zone 3" incidentdate="2015-08-18" incidenttime="15:00:00" incidentnumber="15155406" address="100 block Olympia St" type="OFFENSE" age="" gender="" description="*********************************************** &lt;br/&gt;3922, Theft by Deception.&lt;br/&gt;4120, Identity Theft&lt;br/&gt;"/><marker lat="40.413005800856091" lng="-80.023037656997658" zone="Zone 6" incidentdate="2015-08-18" incidenttime="14:48:00" incidentnumber="15155185" address="1500 block Dagmar Ave" type="OFFENSE" age="" gender="" description="*********************************************** &lt;br/&gt;2701, Simple Assault.&lt;br/&gt;"/><marker lat="40.451209746298005" lng="-80.021965140261187" zone="Zone 1" incidentdate="2015-08-18" incidenttime="10:00:00" incidentnumber="15155000" address="1200 block Western Ave" type="OFFENSE" age="" gender="" description="*********************************************** &lt;br/&gt;9999, 9999 - (Misc. Incident):&lt;br/&gt;"/><marker lat="40.476125195473571" lng="-79.916284691659371" zone="Zone 5" incidentdate="2015-08-18" incidenttime="16:19:00" incidentnumber="15155245" address="1400 block Browning Rd" type="OFFENSE" age="" gender="" description="*********************************************** &lt;br/&gt;3304, Criminal Mischief.&lt;br/&gt;3503, Criminal Trespass&lt;br/&gt;"/><marker lat="40.471865355305951" lng="-79.963655979139617" zone="Zone 2" incidentdate="2015-08-18" incidenttime="06:00:00" incidentnumber="15155123" address="100 block Banner Way" type="OFFENSE" age="" gender="" description="*********************************************** &lt;br/&gt;3934, Theft from Vehicle&lt;br/&gt;"/><marker lat="40.4001533" lng="-80.0018805" zone="Zone 6" incidentdate="2015-08-18" incidenttime="11:00:00" incidentnumber="15155098" address="2000 block Zimmerman St" type="OFFENSE" age="" gender="" description="*********************************************** &lt;br/&gt;3304, Criminal Mischief.&lt;br/&gt;"/><marker lat="40.459046446013403" lng="-80.00432220511739" zone="Zone 1" incidentdate="2015-08-18" incidenttime="21:00:00" incidentnumber="15155405" address="100 block Henderson St" type="OFFENSE" age="" gender="" description="*********************************************** &lt;br/&gt;3928, Unauthorized Use of Automobile and Other Vehicles.&lt;br/&gt;"/><marker lat="40.414185826150991" lng="-79.995042090433813" zone="Zone 3" incidentdate="2015-08-18" incidenttime="01:00:00" incidentnumber="15154844" address="400 block Bausman St" type="OFFENSE" age="" gender="" description="*********************************************** &lt;br/&gt;2709(a)(1), Harassment by Physical Contact, or Attempts or Threats&lt;br/&gt;"/><marker lat="40.408891477925216" lng="-79.942086518613081" zone="Zone 4" incidentdate="2015-08-18" incidenttime="21:50:00" incidentnumber="15155474" address="Gertrude St &amp; Tecumseh St" type="OFFENSE" age="" gender="" description="*********************************************** &lt;br/&gt;8106, Shots Fired&lt;br/&gt;607.03, Discharging Firearm or Airgun&lt;br/&gt;"/><marker lat="40.443580942147605" lng="-79.979979097296493" zone="Zone 2" incidentdate="2015-08-18" incidenttime="14:27:00" incidentnumber="15155232" address="2000 block Centre Ave" type="OFFENSE" age="" gender="" description="*********************************************** &lt;br/&gt;9501, Bench Warrant&lt;br/&gt;"/><marker lat="40.4321410" lng="-79.9971255" zone="Zone 2" incidentdate="2015-08-18" incidenttime="17:45:00" incidentnumber="15155325" address="Liberty Brg Ramp &amp; Liberty Brg" type="OFFENSE" age="" gender="" description="*********************************************** &lt;br/&gt;3743, Accidents Involving Damage to Attended Veh. or Property&lt;br/&gt;"/><marker lat="40.388698020364437" lng="-80.013404934976322" zone="Zone 6" incidentdate="2015-08-18" incidenttime="22:59:00" incidentnumber="15155501" address="1400 block Chelton Ave" type="OFFENSE" age="" gender="" description="*********************************************** &lt;br/&gt;2701(a)(1), Simple Assault - Intent., Know., Reckless.Cause Bod. Injury&lt;br/&gt;"/><marker lat="40.476199022901341" lng="-79.935211842123977" zone="Zone 5" incidentdate="2015-08-18" incidenttime="10:30:00" incidentnumber="15155030" address="5100 block Rosecrest Dr" type="OFFENSE" age="" gender="" description="*********************************************** &lt;br/&gt;9490, Missing Persons (18 and Over)&lt;br/&gt;"/><marker lat="40.459638842157609" lng="-79.893001452245613" zone="Zone 5" incidentdate="2015-08-18" incidenttime="03:00:00" incidentnumber="15154884" address="7300 block Hermitage St" type="OFFENSE" age="" gender="" description="*********************************************** &lt;br/&gt;3304, Criminal Mischief.&lt;br/&gt;"/><marker lat="40.410356742633624" lng="-79.990376092457225" zone="Zone 3" incidentdate="2015-08-18" incidenttime="04:55:00" incidentnumber="15155177" address="200 block Suncrest St" type="OFFENSE" age="" gender="" description="*********************************************** &lt;br/&gt;901, Criminal Attempt&lt;br/&gt;"/><marker lat="40.454104396974053" lng="-79.996792124994045" zone="Zone 1" incidentdate="2015-08-18" incidenttime="09:30:00" incidentnumber="15144742" address="Madison Ave &amp; East Ohio St" type="ARREST" age="48" gender="M" description="*********************************************** &lt;br/&gt;2702, Aggravated Assault.&lt;br/&gt;2705, Recklessly Endangering Another Person.&lt;br/&gt;3736, Reckless Driving&lt;br/&gt;"/><marker lat="40.408162062221763" lng="-79.925878776555578" zone="Zone 4" incidentdate="2015-08-18" incidenttime="18:45:00" incidentnumber="15155340" address="Johnston Ave &amp; Naomi St" type="ARREST" age="25" gender="M" description="*********************************************** &lt;br/&gt;13(a)(31), Marijuana: Possession Small Amount&lt;br/&gt;4303, General Lighting Requirements.&lt;br/&gt;1543, Driving While Operating Privilege is Suspended or Revoked.&lt;br/&gt;"/><marker lat="40.434482128289915" lng="-79.963606877655877" zone="Zone 4" incidentdate="2015-08-18" incidenttime="10:10:00" incidentnumber="15143970" address="300 block Lawn St" type="ARREST" age="33" gender="M" description="*********************************************** &lt;br/&gt;3923, Theft by Extortion.&lt;br/&gt;2706, Terroristic Threats.&lt;br/&gt;"/><marker lat="40.460594319900963" lng="-79.922716789802806" zone="Zone 5" incidentdate="2015-08-18" incidenttime="17:27:00" incidentnumber="15155267" address="6200 block Penn Ave" type="ARREST" age="19" gender="M" description="*********************************************** &lt;br/&gt;4914, False Identification to Law Enforcement Authorities&lt;br/&gt;3929(a)(1), Retail Theft; takes possession of, carries away, or transfers displayed merchandise&lt;br/&gt;907, Possessing Instruments of Crime.&lt;br/&gt;"/><marker lat="40.40672945617505" lng="-79.992240850144029" zone="Zone 3" incidentdate="2015-08-18" incidenttime="18:07:00" incidentnumber="15155324" address="Brownsville Rd &amp; Calhoun Ave" type="ARREST" age="27" gender="M" description="*********************************************** &lt;br/&gt;3334, Turning Movements and Required Signals.&lt;br/&gt;13(a)(16), Possession of Controlled Substance&lt;br/&gt;13(a)(32), Paraphernalia - Use or Possession&lt;br/&gt;9501, Bench Warrant&lt;br/&gt;"/><marker lat="40.454016520179565" lng="-79.895644292400064" zone="Zone 5" incidentdate="2015-08-18" incidenttime="02:22:00" incidentnumber="15154849" address="7300 block Hamilton Ave" type="ARREST" age="29" gender="F" description="*********************************************** &lt;br/&gt;2701, Simple Assault.&lt;br/&gt;"/><marker lat="40.447502334719239" lng="-80.051783949854453" zone="Zone 6" incidentdate="2015-08-18" incidenttime="23:35:00" incidentnumber="15111947" address="1600 block Crucible St" type="ARREST" age="40" gender="M" description="*********************************************** &lt;br/&gt;2709(a)(1), Harassment by Physical Contact, or Attempts or Threats&lt;br/&gt;5104, Resisting Arrest or Other Law Enforcement.&lt;br/&gt;5121, Escape.&lt;br/&gt;9501, Bench Warrant&lt;br/&gt;4914, False Identification to Law Enforcement Authorities&lt;br/&gt;"/><marker lat="40.443580942147605" lng="-79.979979097296493" zone="Zone 2" incidentdate="2015-08-18" incidenttime="14:27:00" incidentnumber="15155232" address="2000 block Centre Ave" type="ARREST" age="26" gender="F" description="*********************************************** &lt;br/&gt;9501, Bench Warrant&lt;br/&gt;"/><marker lat="40.461263755824248" lng="-79.946362797859464" zone="Zone 5" incidentdate="2015-08-18" incidenttime="21:00:00" incidentnumber="15155400" address="4800 block Friendship Ave" type="ARREST" age="49" gender="M" description="*********************************************** &lt;br/&gt;2701, Simple Assault.&lt;br/&gt;4304(a)(1), Endangering Welfare of Children - Course of Conduct Enhanced&lt;br/&gt;5505, Public Drunkenness&lt;br/&gt;"/><marker lat="40.443175140272224" lng="-79.997037288955823" zone="Zone 2" incidentdate="2015-08-18" incidenttime="05:06:00" incidentnumber="15147763" address="Garrison Pl &amp; Liberty Ave" type="ARREST" age="30" gender="M" description="*********************************************** &lt;br/&gt;2701, Simple Assault.&lt;br/&gt;"/><marker lat="40.445926173410676" lng="-80.052351688864789" zone="Zone 6" incidentdate="2015-08-18" incidenttime="23:40:00" incidentnumber="15150897" address="1000 block Woodlow St" type="ARREST" age="24" gender="F" description="*********************************************** &lt;br/&gt;2701, Simple Assault.&lt;br/&gt;"/><marker lat="40.413005800856091" lng="-80.023037656997658" zone="Zone 6" incidentdate="2015-08-18" incidenttime="15:08:00" incidentnumber="15155185" address="1500 block Dagmar Ave" type="ARREST" age="44" gender="M" description="*********************************************** &lt;br/&gt;2701, Simple Assault.&lt;br/&gt;"/><marker lat="40.461634090147498" lng="-79.963583437996832" zone="Zone 2" incidentdate="2015-08-18" incidenttime="16:58:00" incidentnumber="15155259" address="3600 block Liberty Ave" type="ARREST" age="22" gender="M" description="*********************************************** &lt;br/&gt;13(a)(31), Marijuana: Possession Small Amount&lt;br/&gt;5503(a)(3), DISORDERLY CONDUCT - OBSCENE LANG/GEST&lt;br/&gt;"/><marker lat="40.428276333917673" lng="-79.97636113605644" zone="Zone 3" incidentdate="2015-08-18" incidenttime="23:07:00" incidentnumber="15155523" address="100 block S 21st St" type="ARREST" age="31" gender="M" description="*********************************************** &lt;br/&gt;9501, Bench Warrant&lt;br/&gt;13(a)(31), Marijuana: Possession Small Amount&lt;br/&gt;"/><marker lat="40.454204011355536" lng="-80.021261849835767" zone="Zone 1" incidentdate="2015-08-18" incidenttime="01:45:00" incidentnumber="15154831" address="1100 block Sheffield St" type="ARREST" age="47" gender="M" description="*********************************************** &lt;br/&gt;2701, Simple Assault.&lt;br/&gt;"/><marker lat="40.441228428031053" lng="-80.002073791411135" zone="Zone 2" incidentdate="2015-08-18" incidenttime="23:35:00" incidentnumber="14202881" address="200 block 5th Ave" type="ARREST" age="40" gender="M" description="*********************************************** &lt;br/&gt;3922, Theft by Deception.&lt;br/&gt;4101, Forgery.&lt;br/&gt;"/><marker lat="40.453675651234356" lng="-80.04883059197202" zone="Zone 6" incidentdate="2015-08-18" incidenttime="12:15:00" incidentnumber="15155093" address="2700 block Merwyn Ave" type="ARREST" age="51" gender="M" description="*********************************************** &lt;br/&gt;2902, Unlawful Restraint.&lt;br/&gt;2701(a)(1), Simple Assault - Intent., Know., Reckless.Cause Bod. Injury&lt;br/&gt;"/><marker lat="40.443175140272224" lng="-79.997037288955823" zone="Zone 2" incidentdate="2015-08-18" incidenttime="05:06:00" incidentnumber="15147763" address="Garrison Pl &amp; Liberty Ave" type="ARREST" age="39" gender="M" description="*********************************************** &lt;br/&gt;2701, Simple Assault.&lt;br/&gt;"/><marker lat="40.428276333917673" lng="-79.97636113605644" zone="Zone 3" incidentdate="2015-08-18" incidenttime="23:07:00" incidentnumber="15155523" address="100 block S 21st St" type="ARREST" age="33" gender="M" description="*********************************************** &lt;br/&gt;9501, Bench Warrant&lt;br/&gt;13(a)(31), Marijuana: Possession Small Amount&lt;br/&gt;"/><marker lat="40.440562231859715" lng="-80.006256728848371" zone="Zone 2" incidentdate="2015-08-18" incidenttime="11:10:00" incidentnumber="15123045" address="300 block Liberty Ave" type="ARREST" age="36" gender="F" description="*********************************************** &lt;br/&gt;3921(a), Theft by Unlawful Taking or Disposition - Movable item&lt;br/&gt;3925, Receiving Stolen Property.&lt;br/&gt;"/><marker lat="40.417345136139645" lng="-79.988193247990409" zone="Zone 3" incidentdate="2015-08-18" incidenttime="16:16:00" incidentnumber="15155207" address="100 block Jucunda St" type="ARREST" age="37" gender="M" description="*********************************************** &lt;br/&gt;3304, Criminal Mischief.&lt;br/&gt;3503(a), Criminal Trespass&lt;br/&gt;5505, Public Drunkenness&lt;br/&gt;"/><marker lat="40.47111856823183" lng="-80.035833217943633" zone="Zone 1" incidentdate="2015-08-18" incidenttime="00:55:00" incidentnumber="15138529" address="3000 block Holbrook St" type="ARREST" age="27" gender="M" description="*********************************************** &lt;br/&gt;2701(a)(1), Simple Assault - Intent., Know., Reckless.Cause Bod. Injury&lt;br/&gt;"/><marker lat="40.4520276" lng="-80.0240039" zone="Zone 1" incidentdate="2015-08-18" incidenttime="17:34:00" incidentnumber="15155293" address="Page St &amp; Faulsey Way" type="ARREST" age="16" gender="M" description="*********************************************** &lt;br/&gt;3701, Robbery.&lt;br/&gt;903, Criminal Conspiracy.&lt;br/&gt;"/><marker lat="40.434696587775576" lng="-79.996300985228572" zone="Zone 2" incidentdate="2015-08-18" incidenttime="21:40:00" incidentnumber="15153850" address="600 block 1st Ave" type="ARREST" age="35" gender="F" description="*********************************************** &lt;br/&gt;2701, Simple Assault.&lt;br/&gt;"/><marker lat="40.414110231246191" lng="-79.921537610824799" zone="Zone 4" incidentdate="2015-08-18" incidenttime="16:38:00" incidentnumber="15155208" address="Garetta St" type="ARREST" age="26" gender="F" description="*********************************************** &lt;br/&gt;1543, Driving While Operating Privilege is Suspended or Revoked.&lt;br/&gt;3925, Receiving Stolen Property.&lt;br/&gt;3921, Theft by Unlawful Taking or Disposition.&lt;br/&gt;"/><marker lat="40.392365478702068" lng="-80.007850102574906" zone="Zone 6" incidentdate="2015-08-18" incidenttime="19:31:00" incidentnumber="15155377" address="1400 block Brookline Blvd" type="ARREST" age="" gender="M" description="*********************************************** &lt;br/&gt;5502, Failure of Disorderly Persons to Disperse&lt;br/&gt;5503, Disorderly Conduct.&lt;br/&gt;"/><marker lat="40.417740125103577" lng="-79.995556616841256" zone="Zone 3" incidentdate="2015-08-18" incidenttime="17:28:00" incidentnumber="15153568" address="400 block Orchard Pl" type="ARREST" age="57" gender="M" description="*********************************************** &lt;br/&gt;3503(b)(1)(i), Actual Communication&lt;br/&gt;2709(a), Harassment.&lt;br/&gt;3304(a)(5), CRIMINAL MISCHIEF - Intentionally Damages Real Or Personal Property Of Another&lt;br/&gt;2709(b), Stalking&lt;br/&gt;2710, Ethnic Intimidation.&lt;br/&gt;"/><marker lat="40.461392541723988" lng="-79.919695157123542" zone="Zone 5" incidentdate="2015-08-18" incidenttime="02:00:00" incidentnumber="15154843" address="Cambria Ct" type="ARREST" age="23" gender="M" description="*********************************************** &lt;br/&gt;3304, Criminal Mischief.&lt;br/&gt;907, Possessing Instruments of Crime.&lt;br/&gt;3502, Burglary.&lt;br/&gt;"/><marker lat="40.438610014203924" lng="-79.968020290435504" zone="Zone 2" incidentdate="2015-08-18" incidenttime="21:35:00" incidentnumber="15155450" address="200 block Burrows St" type="ARREST" age="32" gender="M" description="*********************************************** &lt;br/&gt;3503.B1I, DEF. TRESPASS ACTUAL COMMUNICATION&lt;br/&gt;5503(a)(4), DISORDERLY CONDUCT - HAZARDOUS/PHYS. OFF&lt;br/&gt;5505, Public Drunkenness&lt;br/&gt;4914, False Identification to Law Enforcement Authorities&lt;br/&gt;"/><marker lat="40.457279218250953" lng="-80.007226502710267" zone="Zone 1" incidentdate="2015-08-18" incidenttime="02:50:00" incidentnumber="15154861" address="Federal St N &amp; Hemlock St" type="ARREST" age="24" gender="M" description="*********************************************** &lt;br/&gt;3921(a), Theft by Unlawful Taking or Disposition - Movable item&lt;br/&gt;3507, Lamps and Other Equipment on Pedalcycles.&lt;br/&gt;3925, Receiving Stolen Property.&lt;br/&gt;3508, Pedalcycles on Sidewalks and Pedalcycle Paths.&lt;br/&gt;"/><marker lat="40.4520276" lng="-80.0240039" zone="Zone 1" incidentdate="2015-08-18" incidenttime="17:19:00" incidentnumber="15155293" address="Page St &amp; Faulsey Way" type="ARREST" age="24" gender="M" description="*********************************************** &lt;br/&gt;3701, Robbery.&lt;br/&gt;903, Criminal Conspiracy.&lt;br/&gt;"/><marker lat="40.4593901" lng="-79.8871005" zone="Zone 5" incidentdate="2015-08-18" incidenttime="18:02:00" incidentnumber="15155322" address="1200 block Ferris Ct" type="ARREST" age="18" gender="M" description="*********************************************** &lt;br/&gt;13(a)(16), Possession of Controlled Substance&lt;br/&gt;4910, Tampering with or Fabricating Physical Evidence.&lt;br/&gt;13(a)(30), Possession w/ Intent to Del. Controlled Substance&lt;br/&gt;13(a)(32), Paraphernalia - Use or Possession&lt;br/&gt;6106, Firearms not to be Carried without a License.&lt;br/&gt;"/><marker lat="40.40672945617505" lng="-79.992240850144029" zone="Zone 3" incidentdate="2015-08-18" incidenttime="18:07:00" incidentnumber="15155324" address="Brownsville Rd &amp; Calhoun Ave" type="ARREST" age="33" gender="M" description="*********************************************** &lt;br/&gt;3334, Turning Movements and Required Signals.&lt;br/&gt;13(a)(16), Possession of Controlled Substance&lt;br/&gt;13(a)(32), Paraphernalia - Use or Possession&lt;br/&gt;9501, Bench Warrant&lt;br/&gt;"/></markers>
