<?xml version="1.0"?>
<markers><marker lat="40.459412148038652" lng="-79.91083611573967" zone="Zone 5" incidentdate="2015-06-23" incidenttime="11:15:00" incidentnumber="15114159" address="100 block Continental St" type="OFFENSE" age="" gender="" description="*********************************************** &lt;br/&gt;5511, Cruelty to Animals.&lt;br/&gt;"/><marker lat="40.474233959839715" lng="-80.034794160679397" zone="Zone 1" incidentdate="2015-06-23" incidenttime="08:15:00" incidentnumber="15114071" address="3200 block Mc Clure Ave" type="OFFENSE" age="" gender="" description="*********************************************** &lt;br/&gt;3921(a), Theft by Unlawful Taking or Disposition - Movable item&lt;br/&gt;"/><marker lat="40.482879021356389" lng="-80.04453300763744" zone="Zone 1" incidentdate="2015-06-23" incidenttime="23:28:00" incidentnumber="15114648" address="2000 block Termon Ave" type="OFFENSE" age="" gender="" description="*********************************************** &lt;br/&gt;029, Missing Juvenile&lt;br/&gt;"/><marker lat="40.417788157675872" lng="-79.978268849654626" zone="Zone 3" incidentdate="2015-06-23" incidenttime="15:05:00" incidentnumber="15114284" address="2000 block Arlington Ave" type="OFFENSE" age="" gender="" description="*********************************************** &lt;br/&gt;2702, Aggravated Assault.&lt;br/&gt;4910, Tampering with or Fabricating Physical Evidence.&lt;br/&gt;"/><marker lat="40.3835451" lng="-79.9830551" zone="Zone 3" incidentdate="2015-06-23" incidenttime="00:40:00" incidentnumber="15113964" address="Meritt Ave" type="OFFENSE" age="" gender="" description="*********************************************** &lt;br/&gt;3502, Burglary.&lt;br/&gt;"/><marker lat="40.424390276199993" lng="-79.988967232480618" zone="Zone 3" incidentdate="2015-06-23" incidenttime="01:31:00" incidentnumber="15113955" address="1000 block Arlington Ave" type="OFFENSE" age="" gender="" description="*********************************************** &lt;br/&gt;3921, Theft by Unlawful Taking or Disposition.&lt;br/&gt;2702, Aggravated Assault.&lt;br/&gt;"/><marker lat="40.44796457055002" lng="-79.990499856047279" zone="Zone 2" incidentdate="2015-06-23" incidenttime="18:00:00" incidentnumber="15114552" address="14th St &amp; Smallman St" type="OFFENSE" age="" gender="" description="*********************************************** &lt;br/&gt;9999, 9999 - (Misc. Incident):&lt;br/&gt;"/><marker lat="40.417669314235489" lng="-79.963417835194747" zone="Zone 3" incidentdate="2015-06-23" incidenttime="07:00:00" incidentnumber="15114054" address="3100 block Cordell Pl" type="OFFENSE" age="" gender="" description="*********************************************** &lt;br/&gt;9496, Dead on Arrival (DOA)&lt;br/&gt;"/><marker lat="40.441228428031053" lng="-80.002073791411135" zone="Zone 2" incidentdate="2015-06-23" incidenttime="14:30:00" incidentnumber="15114389" address="200 block 5th Ave" type="OFFENSE" age="" gender="" description="*********************************************** &lt;br/&gt;3921, Theft by Unlawful Taking or Disposition.&lt;br/&gt;"/><marker lat="40.467375034401172" lng="-79.957944364123122" zone="Zone 6" incidentdate="2015-06-23" incidenttime="15:30:00" incidentnumber="15114320" address="300 block S Main St" type="OFFENSE" age="" gender="" description="*********************************************** &lt;br/&gt;9124, Drug Investigation&lt;br/&gt;"/><marker lat="40.466352472755183" lng="-79.897670468246574" zone="Zone 5" incidentdate="2015-06-23" incidenttime="09:45:00" incidentnumber="15114124" address="1300 block Lincoln Ave" type="OFFENSE" age="" gender="" description="*********************************************** &lt;br/&gt;3502, Burglary.&lt;br/&gt;"/><marker lat="40.416127822623537" lng="-79.974588087598846" zone="Zone 3" incidentdate="2015-06-23" incidenttime="12:00:00" incidentnumber="15114185" address="2300 block Spring St" type="OFFENSE" age="" gender="" description="*********************************************** &lt;br/&gt;3502, Burglary.&lt;br/&gt;"/><marker lat="40.469089719473686" lng="-79.924761799663571" zone="Zone 5" incidentdate="2015-06-23" incidenttime="07:00:00" incidentnumber="15114078" address="700 block N St Clair St" type="OFFENSE" age="" gender="" description="*********************************************** &lt;br/&gt;3934, Theft from Vehicle&lt;br/&gt;"/><marker lat="40.455876321777623" lng="-79.938275604820149" zone="Zone 4" incidentdate="2015-06-23" incidenttime="11:35:00" incidentnumber="15114232" address="5400 block Centre Ave" type="OFFENSE" age="" gender="" description="*********************************************** &lt;br/&gt;3743, Accidents Involving Damage to Attended Veh. or Property&lt;br/&gt;"/><marker lat="40.441354979392592" lng="-79.994737122353087" zone="Zone 2" incidentdate="2015-06-23" incidenttime="13:20:00" incidentnumber="15114563" address="600 block grant St" type="OFFENSE" age="" gender="" description="*********************************************** &lt;br/&gt;3921(a), Theft by Unlawful Taking or Disposition - Movable item&lt;br/&gt;"/><marker lat="40.45156448168715" lng="-80.018949472643925" zone="Zone 1" incidentdate="2015-06-23" incidenttime="20:30:00" incidentnumber="15114601" address="1000 block Western Ave" type="OFFENSE" age="" gender="" description="*********************************************** &lt;br/&gt;3921(a), Theft by Unlawful Taking or Disposition - Movable item&lt;br/&gt;"/><marker lat="40.443580942147605" lng="-79.979979097296493" zone="Zone 2" incidentdate="2015-06-23" incidenttime="09:00:00" incidentnumber="15114208" address="2000 block CENTRE Ave" type="OFFENSE" age="" gender="" description="*********************************************** &lt;br/&gt;4105(a)(1), Bad Checks&lt;br/&gt;"/><marker lat="40.475743982324708" lng="-79.999473074803177" zone="Zone 1" incidentdate="2015-06-23" incidenttime="00:05:00" incidentnumber="15113922" address="800 block Mt Pleasant Rd" type="OFFENSE" age="" gender="" description="*********************************************** &lt;br/&gt;3502, Burglary.&lt;br/&gt;"/><marker lat="40.428478873788158" lng="-79.980265799395895" zone="Zone 3" incidentdate="2015-06-23" incidenttime="00:45:00" incidentnumber="15113932" address="1800 block E Carson St" type="OFFENSE" age="" gender="" description="*********************************************** &lt;br/&gt;5901, Open Lewdness.&lt;br/&gt;601.16(b)(1)(a), Any Person who urinates or defecates in, on, or about any public place&lt;br/&gt;5505, Public Drunkenness&lt;br/&gt;601.16(b)(2), Any Person who urinates or defecates in, on, or about any public place w/o immediately cleaning and disposal of material&lt;br/&gt;3304, Criminal Mischief.&lt;br/&gt;"/><marker lat="40.43658075723642" lng="-79.997115018744907" zone="Zone 2" incidentdate="2015-06-23" incidenttime="11:00:00" incidentnumber="15114152" address="Ross St &amp; 2nd Ave" type="OFFENSE" age="" gender="" description="*********************************************** &lt;br/&gt;2709(a)(1), Harassment by Physical Contact, or Attempts or Threats&lt;br/&gt;"/><marker lat="40.433082507647491" lng="-79.954888510963329" zone="Zone 4" incidentdate="2015-06-23" incidenttime="21:28:00" incidentnumber="15114621" address="Edith Pl" type="OFFENSE" age="" gender="" description="*********************************************** &lt;br/&gt;9489, Found Property&lt;br/&gt;"/><marker lat="40.448542345417813" lng="-79.939208155557424" zone="Zone 4" incidentdate="2015-06-23" incidenttime="10:00:00" incidentnumber="15114313" address="5100 block Westminster Pl" type="OFFENSE" age="" gender="" description="*********************************************** &lt;br/&gt;9999, 9999 - (Misc. Incident):&lt;br/&gt;"/><marker lat="40.465298769224127" lng="-80.007849063646432" zone="Zone 1" incidentdate="2015-06-23" incidenttime="10:17:00" incidentnumber="15114141" address="300 block Lafayette Ave" type="OFFENSE" age="" gender="" description="*********************************************** &lt;br/&gt;3502, Burglary.&lt;br/&gt;"/><marker lat="40.446314652723053" lng="-80.016316228653437" zone="Zone 1" incidentdate="2015-06-23" incidenttime="12:00:00" incidentnumber="15114203" address="100 block Art Rooney Ave" type="OFFENSE" age="" gender="" description="*********************************************** &lt;br/&gt;9999, 9999 - (Misc. Incident):&lt;br/&gt;"/><marker lat="40.482879021356389" lng="-80.04453300763744" zone="Zone 1" incidentdate="2015-06-23" incidenttime="23:28:00" incidentnumber="15114657" address="2000 block Termon Ave" type="OFFENSE" age="" gender="" description="*********************************************** &lt;br/&gt;029, Missing Juvenile&lt;br/&gt;"/><marker lat="40.438386586802537" lng="-79.981365455308961" zone="Zone 2" incidentdate="2015-06-23" incidenttime="01:50:00" incidentnumber="15113962" address="5th Ave &amp; Miltenberger St" type="OFFENSE" age="" gender="" description="*********************************************** &lt;br/&gt;13(a)(16), Possession of Controlled Substance&lt;br/&gt;3334, Turning Movements and Required Signals.&lt;br/&gt;13(a)(32), Paraphernalia - Use or Possession&lt;br/&gt;"/><marker lat="40.443580942147605" lng="-79.979979097296493" zone="Zone 2" incidentdate="2015-06-23" incidenttime="12:50:00" incidentnumber="15114209" address="2000 block CENTRE Ave" type="OFFENSE" age="" gender="" description="*********************************************** &lt;br/&gt;4106, Access Device Fraud&lt;br/&gt;"/><marker lat="40.438234205527927" lng="-79.977664280434027" zone="Zone 2" incidentdate="2015-06-23" incidenttime="04:20:00" incidentnumber="15114021" address="5th Ave &amp; Jumonville St" type="OFFENSE" age="" gender="" description="*********************************************** &lt;br/&gt;9501, Bench Warrant&lt;br/&gt;"/><marker lat="40.443336606679345" lng="-80.028791309734899" zone="Zone 6" incidentdate="2015-06-23" incidenttime="15:40:00" incidentnumber="15114309" address="West End Cir &amp; S Main St" type="OFFENSE" age="" gender="" description="*********************************************** &lt;br/&gt;602.04 (b) (1) (a), Hindrance to traffic: Intentionally block  obstruct  or interfere with Orderly flow of either vehicles or pedestrians&lt;br/&gt;5507(a), Obstructing highway, railroad or public passage&lt;br/&gt;"/><marker lat="40.398877099130736" lng="-79.997883952207886" zone="Zone 3" incidentdate="2015-06-23" incidenttime="09:00:00" incidentnumber="15114112" address="1500 block Nobles Ln" type="OFFENSE" age="" gender="" description="*********************************************** &lt;br/&gt;029, Missing Juvenile&lt;br/&gt;"/><marker lat="40.450997609534262" lng="-79.983089395537817" zone="Zone 6" incidentdate="2015-06-23" incidenttime="18:54:00" incidentnumber="15114486" address="2000 block West Liberty Ave" type="OFFENSE" age="" gender="" description="*********************************************** &lt;br/&gt;9999, 9999 - (Misc. Incident):&lt;br/&gt;"/><marker lat="40.386926638543144" lng="-79.983552458412845" zone="Zone 3" incidentdate="2015-06-23" incidenttime="09:00:00" incidentnumber="15114106" address="2400 block Brownsville Rd" type="OFFENSE" age="" gender="" description="*********************************************** &lt;br/&gt;3502, Burglary.&lt;br/&gt;"/><marker lat="40.452204120365515" lng="-79.889387792877429" zone="Zone 5" incidentdate="2015-06-23" incidenttime="20:31:00" incidentnumber="15114557" address="Brushton Ave &amp; Mulford St" type="OFFENSE" age="" gender="" description="*********************************************** &lt;br/&gt;2702, Aggravated Assault.&lt;br/&gt;"/><marker lat="40.4595434" lng="-79.8756178" zone="Zone 5" incidentdate="2015-06-23" incidenttime="05:00:00" incidentnumber="15114035" address="8500 block Pershing St" type="OFFENSE" age="" gender="" description="*********************************************** &lt;br/&gt;3934, Theft from Vehicle&lt;br/&gt;"/><marker lat="40.394406234780405" lng="-79.996371798501173" zone="Zone 3" incidentdate="2015-06-23" incidenttime="14:00:00" incidentnumber="15114429" address="1900 block Dartmore St" type="OFFENSE" age="" gender="" description="*********************************************** &lt;br/&gt;3304, Criminal Mischief.&lt;br/&gt;"/><marker lat="40.452841769688419" lng="-79.891813206508516" zone="Zone 5" incidentdate="2015-06-23" incidenttime="19:55:00" incidentnumber="15114537" address="7500 block Mulford St" type="OFFENSE" age="" gender="" description="*********************************************** &lt;br/&gt;2701, Simple Assault.&lt;br/&gt;"/><marker lat="40.457085571603969" lng="-79.926420146673934" zone="Zone 4" incidentdate="2015-06-23" incidenttime="06:30:00" incidentnumber="15114074" address="300 block Lehigh Ave" type="OFFENSE" age="" gender="" description="*********************************************** &lt;br/&gt;3502, Burglary.&lt;br/&gt;"/><marker lat="40.471358115513546" lng="-79.898240002334973" zone="Zone 5" incidentdate="2015-06-23" incidenttime="17:00:00" incidentnumber="15114377" address="7000 block Lemington Ave" type="OFFENSE" age="" gender="" description="*********************************************** &lt;br/&gt;6106, Firearms not to be Carried without a License.&lt;br/&gt;13(a)(31), Marijuana: Possession Small Amount&lt;br/&gt;13(a)(32), Paraphernalia - Use or Possession&lt;br/&gt;"/><marker lat="40.453579420975373" lng="-79.946390236612828" zone="Zone 4" incidentdate="2015-06-23" incidenttime="16:00:00" incidentnumber="15114333" address="Centre Ave &amp; Devonshire St" type="OFFENSE" age="" gender="" description="*********************************************** &lt;br/&gt;3743, Accidents Involving Damage to Attended Veh. or Property&lt;br/&gt;"/><marker lat="40.431062184545972" lng="-79.981776824374961" zone="Zone 3" incidentdate="2015-06-23" incidenttime="10:00:00" incidentnumber="15114358" address="1700 block Merriman St" type="OFFENSE" age="" gender="" description="*********************************************** &lt;br/&gt;9130, Graffiti Investigation&lt;br/&gt;"/><marker lat="40.474225775115499" lng="-79.921678861184873" zone="Zone 5" incidentdate="2015-06-23" incidenttime="12:00:00" incidentnumber="15114198" address="5800 block Hampton St" type="OFFENSE" age="" gender="" description="*********************************************** &lt;br/&gt;3304(a)(5), CRIMINAL MISCHIEF - Intentionally Damages Real Or Personal Property Of Another&lt;br/&gt;3921(a), Theft by Unlawful Taking or Disposition - Movable item&lt;br/&gt;"/><marker lat="40.462175596234587" lng="-79.960767136215821" zone="Zone 2" incidentdate="2015-06-23" incidenttime="10:00:00" incidentnumber="15114430" address="3800 block Liberty Ave" type="OFFENSE" age="" gender="" description="*********************************************** &lt;br/&gt;3502, Burglary.&lt;br/&gt;"/><marker lat="40.434696587775576" lng="-79.996300985228572" zone="Zone 2" incidentdate="2015-06-23" incidenttime="16:48:00" incidentnumber="14085729" address="600 block 1st Ave" type="OFFENSE" age="" gender="" description="*********************************************** &lt;br/&gt;3921, Theft by Unlawful Taking or Disposition.&lt;br/&gt;"/><marker lat="40.438466834802064" lng="-79.988141392414235" zone="Zone 2" incidentdate="2015-06-23" incidenttime="10:00:00" incidentnumber="15114130" address="1300 block 5th Ave" type="OFFENSE" age="" gender="" description="*********************************************** &lt;br/&gt;3928, Unauthorized Use of Automobile and Other Vehicles.&lt;br/&gt;"/><marker lat="40.412867872402522" lng="-80.026872654094134" zone="Zone 6" incidentdate="2015-06-23" incidenttime="00:06:00" incidentnumber="15113915" address="1500 block Rutherford Ave" type="OFFENSE" age="" gender="" description="*********************************************** &lt;br/&gt;9999, 9999 - (Misc. Incident):&lt;br/&gt;"/><marker lat="40.47401783166228" lng="-79.962015845955293" zone="Zone 2" incidentdate="2015-06-23" incidenttime="01:00:00" incidentnumber="15114281" address="100 block 45th St" type="OFFENSE" age="" gender="" description="*********************************************** &lt;br/&gt;3921, Theft by Unlawful Taking or Disposition.&lt;br/&gt;"/><marker lat="40.464441156580989" lng="-79.936415907960978" zone="Zone 5" incidentdate="2015-06-23" incidenttime="18:00:00" incidentnumber="15114445" address="5400 block Penn Ave" type="OFFENSE" age="" gender="" description="*********************************************** &lt;br/&gt;3743, Accidents Involving Damage to Attended Veh. or Property&lt;br/&gt;"/><marker lat="40.453941514821814" lng="-80.006140670574254" zone="Zone 1" incidentdate="2015-06-23" incidenttime="17:20:00" incidentnumber="15114387" address="Federal St N &amp; North Commons" type="OFFENSE" age="" gender="" description="*********************************************** &lt;br/&gt;3301, Arson&lt;br/&gt;3736, Reckless Driving&lt;br/&gt;13(a)(32), Paraphernalia - Use or Possession&lt;br/&gt;3308, One-Way Roadways and Rotary Traffic Islands.&lt;br/&gt;3334, Turning Movements and Required Signals.&lt;br/&gt;"/><marker lat="40.412054015960173" lng="-79.989608548930434" zone="Zone 3" incidentdate="2015-06-23" incidenttime="12:23:00" incidentnumber="15114197" address="Brownsville Rd &amp; Marland St" type="OFFENSE" age="" gender="" description="*********************************************** &lt;br/&gt;9999, 9999 - (Misc. Incident):&lt;br/&gt;"/><marker lat="40.455643298111653" lng="-79.938604138327051" zone="Zone 5" incidentdate="2015-06-23" incidenttime="20:27:00" incidentnumber="15114538" address="500 block N Aiken Ave" type="OFFENSE" age="" gender="" description="*********************************************** &lt;br/&gt;1543, Driving While Operating Privilege is Suspended or Revoked.&lt;br/&gt;13(a)(16), Possession of Controlled Substance&lt;br/&gt;13(a)(30), Possession w/ Intent to Del. Controlled Substance&lt;br/&gt;"/><marker lat="40.4626148" lng="-80.0082870" zone="Zone 1" incidentdate="2015-06-23" incidenttime="23:15:00" incidentnumber="15114638" address="1700 block Letche Ave" type="OFFENSE" age="" gender="" description="*********************************************** &lt;br/&gt;2709(a), Harassment.&lt;br/&gt;"/><marker lat="40.471846093379909" lng="-80.027025287370407" zone="Zone 1" incidentdate="2015-06-23" incidenttime="15:15:00" incidentnumber="15075324" address="2900 block Brighton Rd" type="OFFENSE" age="" gender="" description="*********************************************** &lt;br/&gt;13(a)(31)(ii), Marijuana - Possess Small Amt Intent to Distribute&lt;br/&gt;9015, Failure To Appear/Arrest on Attachment Order&lt;br/&gt;1543, Driving While Operating Privilege is Suspended or Revoked.&lt;br/&gt;13(a)(32), Paraphernalia - Use or Possession&lt;br/&gt;"/><marker lat="40.453470511792048" lng="-80.001533243378148" zone="Zone 1" incidentdate="2015-06-23" incidenttime="16:27:00" incidentnumber="15114348" address="400 block East Ohio St" type="OFFENSE" age="" gender="" description="*********************************************** &lt;br/&gt;2709, Harassment (Non-Specific)&lt;br/&gt;"/><marker lat="40.459797883860972" lng="-79.940683765233075" zone="Zone 5" incidentdate="2015-06-23" incidenttime="17:00:00" incidentnumber="15114446" address="Harriet St &amp; S Pacific Ave" type="OFFENSE" age="" gender="" description="*********************************************** &lt;br/&gt;9999, 9999 - (Misc. Incident):&lt;br/&gt;"/><marker lat="40.466877756870879" lng="-79.994177935104844" zone="Zone 1" incidentdate="2015-06-23" incidenttime="00:15:00" incidentnumber="15113906" address="100 block Rhine Pl" type="OFFENSE" age="" gender="" description="*********************************************** &lt;br/&gt;5112, Obstructing Emergency Services&lt;br/&gt;5503(a)(4), DISORDERLY CONDUCT - HAZARDOUS/PHYS. OFF&lt;br/&gt;5101, Obstructing Admin. of Law&lt;br/&gt;5505, Public Drunkenness&lt;br/&gt;2706, Terroristic Threats.&lt;br/&gt;5104, Resisting Arrest or Other Law Enforcement.&lt;br/&gt;"/><marker lat="40.438021475291286" lng="-79.923054287889642" zone="Zone 4" incidentdate="2015-06-23" incidenttime="06:58:00" incidentnumber="15114051" address="1700 block Murray Ave" type="OFFENSE" age="" gender="" description="*********************************************** &lt;br/&gt;3929, Retail Theft.&lt;br/&gt;"/><marker lat="40.4519501" lng="-80.0654821" zone="Zone 6" incidentdate="2015-06-23" incidenttime="20:00:00" incidentnumber="15114542" address="3200 block Fadette St" type="OFFENSE" age="" gender="" description="*********************************************** &lt;br/&gt;9999, 9999 - (Misc. Incident):&lt;br/&gt;"/><marker lat="40.45959345546428" lng="-80.008617887384787" zone="Zone 1" incidentdate="2015-06-23" incidenttime="09:05:00" incidentnumber="15114131" address="100 block E jefferson St" type="OFFENSE" age="" gender="" description="*********************************************** &lt;br/&gt;9489, Found Property&lt;br/&gt;"/><marker lat="40.3297823" lng="-80.0336670" zone="Zone 1" incidentdate="2015-06-23" incidenttime="16:00:00" incidentnumber="15114314" address="East Ohio St &amp; East St" type="OFFENSE" age="" gender="" description="*********************************************** &lt;br/&gt;3701, Robbery.&lt;br/&gt;"/><marker lat="40.438808783984314" lng="-80.001618548213528" zone="Zone 2" incidentdate="2015-06-23" incidenttime="19:30:00" incidentnumber="15114496" address="300 block 3rd Ave" type="OFFENSE" age="" gender="" description="*********************************************** &lt;br/&gt;2701, Simple Assault.&lt;br/&gt;"/><marker lat="40.427871760707717" lng="-79.98210050693541" zone="Zone 3" incidentdate="2015-06-23" incidenttime="11:35:00" incidentnumber="15114172" address="1700 block Sarah St" type="OFFENSE" age="" gender="" description="*********************************************** &lt;br/&gt;2706, Terroristic Threats.&lt;br/&gt;2702, Aggravated Assault.&lt;br/&gt;"/><marker lat="40.471846093379909" lng="-80.027025287370407" zone="Zone 1" incidentdate="2015-06-23" incidenttime="12:17:00" incidentnumber="15114194" address="2900 block Brighton Rd" type="OFFENSE" age="" gender="" description="*********************************************** &lt;br/&gt;13(a)(16), Possession of Controlled Substance&lt;br/&gt;3802(d)(1)(i), DUI - Controlled Substance - Schedule I&lt;br/&gt;"/><marker lat="40.445099987229362" lng="-79.999050002208406" zone="Zone 2" incidentdate="2015-06-23" incidenttime="07:11:00" incidentnumber="15114087" address="100 block 9th St" type="OFFENSE" age="" gender="" description="*********************************************** &lt;br/&gt;3745, Accidents Involving Damage to Unattended Veh.or Prop.&lt;br/&gt;"/><marker lat="40.435068963592535" lng="-79.956422369580309" zone="Zone 4" incidentdate="2015-06-23" incidenttime="00:30:00" incidentnumber="15114401" address="3500 block Blvd Of The Allies" type="OFFENSE" age="" gender="" description="*********************************************** &lt;br/&gt;3924, Theft of Property Lost, Mislaid or Delivered by Mistake.&lt;br/&gt;"/><marker lat="40.460788773667765" lng="-79.924122774445735" zone="Zone 4" incidentdate="2015-06-23" incidenttime="15:40:00" incidentnumber="15114334" address="100 block N Sheridan Ave" type="OFFENSE" age="" gender="" description="*********************************************** &lt;br/&gt;2709(a)(4), Harassment Communicates Prohibited Acts&lt;br/&gt;"/><marker lat="40.449606365527259" lng="-79.974270684591801" zone="Zone 2" incidentdate="2015-06-23" incidenttime="21:40:00" incidentnumber="15114595" address="2400 block Bedford Ave" type="OFFENSE" age="" gender="" description="*********************************************** &lt;br/&gt;6106, Firearms not to be Carried without a License.&lt;br/&gt;13(a)(16), Possession of Controlled Substance&lt;br/&gt;13(a)(30), Possession w/ Intent to Del. Controlled Substance&lt;br/&gt;"/><marker lat="40.443134337433094" lng="-79.980896891654254" zone="Zone 2" incidentdate="2015-06-23" incidenttime="18:35:00" incidentnumber="15114478" address="1900 block Centre Ave" type="OFFENSE" age="" gender="" description="*********************************************** &lt;br/&gt;3745, Accidents Involving Damage to Unattended Veh.or Prop.&lt;br/&gt;"/><marker lat="40.466877756870879" lng="-79.994177935104844" zone="Zone 1" incidentdate="2015-06-23" incidenttime="00:30:00" incidentnumber="15113948" address="100 block Rhine Pl" type="OFFENSE" age="" gender="" description="*********************************************** &lt;br/&gt;5505, Public Drunkenness&lt;br/&gt;"/><marker lat="40.475805757336701" lng="-80.026813968012888" zone="Zone 1" incidentdate="2015-06-23" incidenttime="21:20:00" incidentnumber="15114587" address="3200 block Rothpletz St" type="OFFENSE" age="" gender="" description="*********************************************** &lt;br/&gt;3502, Burglary.&lt;br/&gt;"/><marker lat="40.389925643844535" lng="-79.976864795506046" zone="Zone 3" incidentdate="2015-06-23" incidenttime="21:03:00" incidentnumber="15114572" address="300 block Kirk Ave" type="OFFENSE" age="" gender="" description="*********************************************** &lt;br/&gt;13(a)(16), Possession of Controlled Substance&lt;br/&gt;13(a)(32), Paraphernalia - Use or Possession&lt;br/&gt;"/><marker lat="40.40076988324757" lng="-79.939119606264953" zone="Zone 4" incidentdate="2015-06-23" incidenttime="21:41:00" incidentnumber="15114599" address="5600 block Second Ave" type="OFFENSE" age="" gender="" description="*********************************************** &lt;br/&gt;2701, Simple Assault.&lt;br/&gt;2706, Terroristic Threats.&lt;br/&gt;907, Possessing Instruments of Crime.&lt;br/&gt;"/><marker lat="40.425634669890343" lng="-79.977719175658635" zone="Zone 3" incidentdate="2015-06-23" incidenttime="15:00:00" incidentnumber="15114280" address="2000 block Mary St" type="OFFENSE" age="" gender="" description="*********************************************** &lt;br/&gt;5901, Open Lewdness.&lt;br/&gt;2702, Aggravated Assault.&lt;br/&gt;5104, Resisting Arrest or Other Law Enforcement.&lt;br/&gt;2901, Kidnapping.&lt;br/&gt;"/><marker lat="40.414205883123259" lng="-80.009519955943716" zone="Zone 3" incidentdate="2015-06-23" incidenttime="16:05:00" incidentnumber="15114437" address="Liberty Tunl" type="OFFENSE" age="" gender="" description="*********************************************** &lt;br/&gt;9999, 9999 - (Misc. Incident):&lt;br/&gt;"/><marker lat="40.464467159428146" lng="-80.010516522982797" zone="Zone 1" incidentdate="2015-06-23" incidenttime="01:00:00" incidentnumber="15113950" address="2100 block Koerner Ave" type="OFFENSE" age="" gender="" description="*********************************************** &lt;br/&gt;2501, Criminal Homicide.&lt;br/&gt;"/><marker lat="40.473412534288045" lng="-80.031507279213102" zone="Zone 1" incidentdate="2015-06-23" incidenttime="21:10:00" incidentnumber="15114580" address="1300 block Complete St" type="OFFENSE" age="" gender="" description="*********************************************** &lt;br/&gt;903, Criminal Conspiracy.&lt;br/&gt;3934, Theft from Vehicle&lt;br/&gt;"/><marker lat="40.424214179990742" lng="-79.991863321715584" zone="Zone 3" incidentdate="2015-06-23" incidenttime="14:30:00" incidentnumber="15114384" address="900 block Mc Lain St" type="OFFENSE" age="" gender="" description="*********************************************** &lt;br/&gt;2709(a)(1), Harassment by Physical Contact, or Attempts or Threats&lt;br/&gt;"/><marker lat="40.425634669890343" lng="-79.977719175658635" zone="Zone 3" incidentdate="2015-06-23" incidenttime="15:00:00" incidentnumber="15114280" address="2000 block Mary St" type="ARREST" age="23" gender="F" description="*********************************************** &lt;br/&gt;5901, Open Lewdness.&lt;br/&gt;2702, Aggravated Assault.&lt;br/&gt;5104, Resisting Arrest or Other Law Enforcement.&lt;br/&gt;2901, Kidnapping.&lt;br/&gt;"/><marker lat="40.434696587775576" lng="-79.996300985228572" zone="Zone 2" incidentdate="2015-06-23" incidenttime="16:48:00" incidentnumber="14085729" address="600 block 1st Ave" type="ARREST" age="34" gender="M" description="*********************************************** &lt;br/&gt;3921, Theft by Unlawful Taking or Disposition.&lt;br/&gt;"/><marker lat="40.471358115513546" lng="-79.898240002334973" zone="Zone 5" incidentdate="2015-06-23" incidenttime="16:50:00" incidentnumber="15114377" address="7000 block Lemington Ave" type="ARREST" age="19" gender="M" description="*********************************************** &lt;br/&gt;6106, Firearms not to be Carried without a License.&lt;br/&gt;13(a)(31), Marijuana: Possession Small Amount&lt;br/&gt;13(a)(32), Paraphernalia - Use or Possession&lt;br/&gt;"/><marker lat="40.434696587775576" lng="-79.996300985228572" zone="Zone 2" incidentdate="2015-06-23" incidenttime="16:15:00" incidentnumber="15098813" address="600 block 1st Ave" type="ARREST" age="41" gender="F" description="*********************************************** &lt;br/&gt;3921(a), Theft by Unlawful Taking or Disposition - Movable item&lt;br/&gt;"/><marker lat="40.381934506061157" lng="-79.998414669567509" zone="Zone 3" incidentdate="2015-06-23" incidenttime="11:00:00" incidentnumber="15101716" address="2500 block Transport St" type="ARREST" age="20" gender="M" description="*********************************************** &lt;br/&gt;2702, Aggravated Assault.&lt;br/&gt;2701(a)(1), Simple Assault - Intent., Know., Reckless.Cause Bod. Injury&lt;br/&gt;"/><marker lat="40.468675897695007" lng="-79.895845057109298" zone="Zone 5" incidentdate="2015-06-23" incidenttime="23:00:00" incidentnumber="15106977" address="1500 block Lincoln Ave" type="ARREST" age="34" gender="F" description="*********************************************** &lt;br/&gt;3304, Criminal Mischief.&lt;br/&gt;"/><marker lat="40.428478873788158" lng="-79.980265799395895" zone="Zone 3" incidentdate="2015-06-23" incidenttime="00:45:00" incidentnumber="15113932" address="1800 block E Carson St" type="ARREST" age="57" gender="M" description="*********************************************** &lt;br/&gt;5901, Open Lewdness.&lt;br/&gt;601.16(b)(1)(a), Any Person who urinates or defecates in, on, or about any public place&lt;br/&gt;5505, Public Drunkenness&lt;br/&gt;601.16(b)(2), Any Person who urinates or defecates in, on, or about any public place w/o immediately cleaning and disposal of material&lt;br/&gt;3304, Criminal Mischief.&lt;br/&gt;"/><marker lat="40.473412534288045" lng="-80.031507279213102" zone="Zone 1" incidentdate="2015-06-23" incidenttime="21:10:00" incidentnumber="15114580" address="1300 block Complete St" type="ARREST" age="13" gender="M" description="*********************************************** &lt;br/&gt;903, Criminal Conspiracy.&lt;br/&gt;3934, Theft from Vehicle&lt;br/&gt;"/><marker lat="40.461388701969902" lng="-79.919099321688464" zone="Zone 5" incidentdate="2015-06-23" incidenttime="18:07:00" incidentnumber="15109911" address="Esmond Ct" type="ARREST" age="22" gender="M" description="*********************************************** &lt;br/&gt;2701(a)(1), Simple Assault - Intent., Know., Reckless.Cause Bod. Injury&lt;br/&gt;2902, Unlawful Restraint.&lt;br/&gt;"/><marker lat="40.443935256531574" lng="-80.055370894566948" zone="Zone 6" incidentdate="2015-06-23" incidenttime="12:45:00" incidentnumber="15113377" address="Steuben St &amp; Middletown Rd" type="ARREST" age="53" gender="M" description="*********************************************** &lt;br/&gt;3742.1, Accident Involv. Death/Inj. While not Licensed&lt;br/&gt;1543, Driving While Operating Privilege is Suspended or Revoked.&lt;br/&gt;3743, Accidents Involving Damage to Attended Veh. or Property&lt;br/&gt;"/><marker lat="40.455643298111653" lng="-79.938604138327051" zone="Zone 5" incidentdate="2015-06-23" incidenttime="20:27:00" incidentnumber="15114538" address="500 block N Aiken Ave" type="ARREST" age="22" gender="M" description="*********************************************** &lt;br/&gt;1543, Driving While Operating Privilege is Suspended or Revoked.&lt;br/&gt;13(a)(16), Possession of Controlled Substance&lt;br/&gt;13(a)(30), Possession w/ Intent to Del. Controlled Substance&lt;br/&gt;"/><marker lat="40.443580942147605" lng="-79.979979097296493" zone="Zone 2" incidentdate="2015-06-23" incidenttime="08:39:00" incidentnumber="15102507" address="2000 block Centre Ave" type="ARREST" age="50" gender="M" description="*********************************************** &lt;br/&gt;2702, Aggravated Assault.&lt;br/&gt;8106, Shots Fired&lt;br/&gt;"/><marker lat="40.471846093379909" lng="-80.027025287370407" zone="Zone 1" incidentdate="2015-06-23" incidenttime="12:35:00" incidentnumber="15114194" address="2900 block Brighton Rd" type="ARREST" age="34" gender="M" description="*********************************************** &lt;br/&gt;13(a)(16), Possession of Controlled Substance&lt;br/&gt;3802(d)(1)(i), DUI - Controlled Substance - Schedule I&lt;br/&gt;"/><marker lat="40.417788157675872" lng="-79.978268849654626" zone="Zone 3" incidentdate="2015-06-23" incidenttime="15:30:00" incidentnumber="15114284" address="2000 block Arlington Ave" type="ARREST" age="19" gender="M" description="*********************************************** &lt;br/&gt;2702, Aggravated Assault.&lt;br/&gt;4910, Tampering with or Fabricating Physical Evidence.&lt;br/&gt;"/><marker lat="40.471846093379909" lng="-80.027025287370407" zone="Zone 1" incidentdate="2015-06-23" incidenttime="15:15:00" incidentnumber="15075324" address="2900 block Brighton Rd" type="ARREST" age="30" gender="M" description="*********************************************** &lt;br/&gt;13(a)(31)(ii), Marijuana - Possess Small Amt Intent to Distribute&lt;br/&gt;9015, Failure To Appear/Arrest on Attachment Order&lt;br/&gt;1543, Driving While Operating Privilege is Suspended or Revoked.&lt;br/&gt;13(a)(32), Paraphernalia - Use or Possession&lt;br/&gt;"/><marker lat="40.466877756870879" lng="-79.994177935104844" zone="Zone 1" incidentdate="2015-06-23" incidenttime="01:15:00" incidentnumber="15113906" address="100 block Rhine Pl" type="ARREST" age="31" gender="M" description="*********************************************** &lt;br/&gt;5112, Obstructing Emergency Services&lt;br/&gt;5503(a)(4), DISORDERLY CONDUCT - HAZARDOUS/PHYS. OFF&lt;br/&gt;5101, Obstructing Admin. of Law&lt;br/&gt;5505, Public Drunkenness&lt;br/&gt;2706, Terroristic Threats.&lt;br/&gt;5104, Resisting Arrest or Other Law Enforcement.&lt;br/&gt;"/><marker lat="40.389925643844535" lng="-79.976864795506046" zone="Zone 3" incidentdate="2015-06-23" incidenttime="21:03:00" incidentnumber="15114572" address="300 block Kirk Ave" type="ARREST" age="41" gender="F" description="*********************************************** &lt;br/&gt;13(a)(16), Possession of Controlled Substance&lt;br/&gt;13(a)(32), Paraphernalia - Use or Possession&lt;br/&gt;"/><marker lat="40.438386586802537" lng="-79.981365455308961" zone="Zone 2" incidentdate="2015-06-23" incidenttime="01:54:00" incidentnumber="15113962" address="5th Ave &amp; Miltenberger St" type="ARREST" age="39" gender="M" description="*********************************************** &lt;br/&gt;13(a)(16), Possession of Controlled Substance&lt;br/&gt;3334, Turning Movements and Required Signals.&lt;br/&gt;13(a)(32), Paraphernalia - Use or Possession&lt;br/&gt;"/><marker lat="40.459412148038652" lng="-79.91083611573967" zone="Zone 5" incidentdate="2015-06-23" incidenttime="11:15:00" incidentnumber="15114159" address="100 block Continental St" type="ARREST" age="46" gender="M" description="*********************************************** &lt;br/&gt;5511, Cruelty to Animals.&lt;br/&gt;"/><marker lat="40.452841769688419" lng="-79.891813206508516" zone="Zone 5" incidentdate="2015-06-23" incidenttime="20:05:00" incidentnumber="15114537" address="7500 block Mulford St" type="ARREST" age="60" gender="M" description="*********************************************** &lt;br/&gt;2701, Simple Assault.&lt;br/&gt;"/><marker lat="40.453941514821814" lng="-80.006140670574254" zone="Zone 1" incidentdate="2015-06-23" incidenttime="17:20:00" incidentnumber="15114387" address="Federal St N &amp; North Commons" type="ARREST" age="35" gender="M" description="*********************************************** &lt;br/&gt;3301, Arson&lt;br/&gt;3736, Reckless Driving&lt;br/&gt;13(a)(32), Paraphernalia - Use or Possession&lt;br/&gt;3308, One-Way Roadways and Rotary Traffic Islands.&lt;br/&gt;3334, Turning Movements and Required Signals.&lt;br/&gt;"/><marker lat="40.452841769688419" lng="-79.891813206508516" zone="Zone 5" incidentdate="2015-06-23" incidenttime="20:05:00" incidentnumber="15114537" address="7500 block Mulford St" type="ARREST" age="54" gender="F" description="*********************************************** &lt;br/&gt;2701, Simple Assault.&lt;br/&gt;"/><marker lat="40.449606365527259" lng="-79.974270684591801" zone="Zone 2" incidentdate="2015-06-23" incidenttime="21:40:00" incidentnumber="15114595" address="2400 block Bedford Ave" type="ARREST" age="18" gender="M" description="*********************************************** &lt;br/&gt;6106, Firearms not to be Carried without a License.&lt;br/&gt;13(a)(16), Possession of Controlled Substance&lt;br/&gt;13(a)(30), Possession w/ Intent to Del. Controlled Substance&lt;br/&gt;"/><marker lat="40.435095503606554" lng="-79.993077686753679" zone="Zone 2" incidentdate="2015-06-23" incidenttime="23:50:00" incidentnumber="15107163" address="900 block 2ND Ave" type="ARREST" age="23" gender="M" description="*********************************************** &lt;br/&gt;13(a)(16), Possession of Controlled Substance&lt;br/&gt;"/><marker lat="40.435095503606554" lng="-79.993077686753679" zone="Zone 2" incidentdate="2015-06-23" incidenttime="11:30:00" incidentnumber="15078982" address="900 block 2ND Ave" type="ARREST" age="27" gender="M" description="*********************************************** &lt;br/&gt;3922, Theft by Deception.&lt;br/&gt;4101, Forgery.&lt;br/&gt;"/><marker lat="40.442131579489732" lng="-80.021349551869505" zone="Zone 3" incidentdate="2015-06-23" incidenttime="15:40:00" incidentnumber="15003956" address="1600 block W Carson St" type="ARREST" age="30" gender="M" description="*********************************************** &lt;br/&gt;4703, Operation of Vehicle without Official Certif. of Inspection&lt;br/&gt;1501, Drivers Required to be Licensed.&lt;br/&gt;3733, Fleeing or Attempting to Elude Police Officer&lt;br/&gt;4706, Prohib. on Expend. for Emission Insp Prog..&lt;br/&gt;3736, Reckless Driving&lt;br/&gt;3301, Arson&lt;br/&gt;3112, Traffic-Control Signals.&lt;br/&gt;"/><marker lat="40.456845029646985" lng="-80.010229756615772" zone="Zone 1" incidentdate="2015-06-23" incidenttime="10:49:00" incidentnumber="15113493" address="N Taylor Ave &amp; Sherman Ave" type="ARREST" age="19" gender="M" description="*********************************************** &lt;br/&gt;3925, Receiving Stolen Property.&lt;br/&gt;3736, Reckless Driving&lt;br/&gt;1501, Drivers Required to be Licensed.&lt;br/&gt;3733, Fleeing or Attempting to Elude Police Officer&lt;br/&gt;"/><marker lat="40.417788157675872" lng="-79.978268849654626" zone="Zone 3" incidentdate="2015-06-23" incidenttime="15:15:00" incidentnumber="15114284" address="2000 block Arlington Ave" type="ARREST" age="16" gender="F" description="*********************************************** &lt;br/&gt;2702, Aggravated Assault.&lt;br/&gt;4910, Tampering with or Fabricating Physical Evidence.&lt;br/&gt;"/><marker lat="40.439134875179292" lng="-79.980460317668332" zone="Zone 2" incidentdate="2015-06-23" incidenttime="07:50:00" incidentnumber="14244205" address="200 block Dinwiddie St" type="ARREST" age="27" gender="M" description="*********************************************** &lt;br/&gt;2702, Aggravated Assault.&lt;br/&gt;2706, Terroristic Threats.&lt;br/&gt;"/><marker lat="40.389925643844535" lng="-79.976864795506046" zone="Zone 3" incidentdate="2015-06-23" incidenttime="21:03:00" incidentnumber="15114572" address="300 block Kirk Ave" type="ARREST" age="23" gender="M" description="*********************************************** &lt;br/&gt;13(a)(16), Possession of Controlled Substance&lt;br/&gt;13(a)(32), Paraphernalia - Use or Possession&lt;br/&gt;"/><marker lat="40.438808783984314" lng="-80.001618548213528" zone="Zone 2" incidentdate="2015-06-23" incidenttime="19:08:00" incidentnumber="15114496" address="300 block 3rd Ave" type="ARREST" age="36" gender="F" description="*********************************************** &lt;br/&gt;2701, Simple Assault.&lt;br/&gt;"/><marker lat="40.438234205527927" lng="-79.977664280434027" zone="Zone 2" incidentdate="2015-06-23" incidenttime="04:20:00" incidentnumber="15114021" address="5th Ave &amp; Jumonville St" type="ARREST" age="47" gender="F" description="*********************************************** &lt;br/&gt;9501, Bench Warrant&lt;br/&gt;"/></markers>
