<?xml version="1.0"?>
<markers><marker lat="40.45493173032483" lng="-80.010796490212854" zone="Zone 1" incidentdate="2016-10-19" incidenttime="06:00:00" incidentnumber="16197353" address="400 block E North Ave" type="OFFENSE" age="" gender="" description="*********************************************** &lt;br/&gt;3304, Criminal Mischief.&lt;br/&gt;"/><marker lat="40.466609745386876" lng="-79.898488248256953" zone="Zone 5" incidentdate="2016-10-19" incidenttime="06:17:00" incidentnumber="16197461" address="1300 block Pointview St" type="OFFENSE" age="" gender="" description="*********************************************** &lt;br/&gt;4106, Access Device Fraud&lt;br/&gt;"/><marker lat="40.457155854017508" lng="-79.929226237261304" zone="Zone 4" incidentdate="2016-10-19" incidenttime="17:30:00" incidentnumber="16197725" address="600 block College Ave" type="OFFENSE" age="" gender="" description="*********************************************** &lt;br/&gt;3921(a), Theft by Unlawful Taking or Disposition - Movable item&lt;br/&gt;"/><marker lat="40.4208058" lng="-79.9937105" zone="Zone 3" incidentdate="2016-10-19" incidenttime="13:10:00" incidentnumber="16197766" address="800 block Industry St" type="OFFENSE" age="" gender="" description="*********************************************** &lt;br/&gt;2702, Aggravated Assault.&lt;br/&gt;2701, Simple Assault.&lt;br/&gt;2709(a), Harassment.&lt;br/&gt;2706, Terroristic Threats.&lt;br/&gt;"/><marker lat="40.445508267249387" lng="-79.931954347668679" zone="Zone 4" incidentdate="2016-10-19" incidenttime="23:10:00" incidentnumber="16197920" address="5500 block Beeler St" type="OFFENSE" age="" gender="" description="*********************************************** &lt;br/&gt;3502, Burglary.&lt;br/&gt;"/><marker lat="40.478891981402221" lng="-79.915860067080544" zone="Zone 5" incidentdate="2016-10-19" incidenttime="12:50:00" incidentnumber="16197568" address="Reservoir Dr" type="OFFENSE" age="" gender="" description="*********************************************** &lt;br/&gt;3745, Accidents Involving Damage to Unattended Veh.or Prop.&lt;br/&gt;"/><marker lat="40.454864901528282" lng="-79.876010386122928" zone="Zone 5" incidentdate="2016-10-19" incidenttime="15:45:00" incidentnumber="16197660" address="700 block Wilkinsburg Ave" type="OFFENSE" age="" gender="" description="*********************************************** &lt;br/&gt;3502, Burglary.&lt;br/&gt;"/><marker lat="40.405302741289624" lng="-79.989138297527603" zone="Zone 3" incidentdate="2016-10-19" incidenttime="04:58:00" incidentnumber="16197341" address="100 block Wynoka St" type="OFFENSE" age="" gender="" description="*********************************************** &lt;br/&gt;1786, Required Financial Responsibility.&lt;br/&gt;3802(a)(1), DUI - General Impairment&lt;br/&gt;3802(b), DUI - High Rate of Alchol - BAC &gt;=.10% &lt;.16%&lt;br/&gt;"/><marker lat="40.46367480315746" lng="-80.012296661069598" zone="Zone 1" incidentdate="2016-10-19" incidenttime="19:39:00" incidentnumber="16197810" address="Wilson Ave &amp; Perrysville Ave" type="OFFENSE" age="" gender="" description="*********************************************** &lt;br/&gt;13(a)(16), Possession of Controlled Substance&lt;br/&gt;13(a)(30), Possession w/ Intent to Del. Controlled Substance&lt;br/&gt;5104, Resisting Arrest or Other Law Enforcement.&lt;br/&gt;"/><marker lat="40.418136157275576" lng="-79.974260178519685" zone="Zone 3" incidentdate="2016-10-19" incidenttime="11:00:00" incidentnumber="16197516" address="2300 block Eccles St" type="OFFENSE" age="" gender="" description="*********************************************** &lt;br/&gt;9489, Found Property&lt;br/&gt;"/><marker lat="40.466011403743479" lng="-79.922731041831852" zone="Zone 5" incidentdate="2016-10-19" incidenttime="13:15:00" incidentnumber="16197545" address="N Highland Ave &amp; East Liberty Blvd" type="OFFENSE" age="" gender="" description="*********************************************** &lt;br/&gt;13(a)(31), Marijuana: Possession Small Amount&lt;br/&gt;4910, Tampering with or Fabricating Physical Evidence.&lt;br/&gt;601.11(a), Littering and Dumping; Any waste, dangerous or detrimental substance upon public property&lt;br/&gt;"/><marker lat="40.486117473705356" lng="-80.033424857721329" zone="Zone 1" incidentdate="2016-10-19" incidenttime="14:21:00" incidentnumber="16197604" address="1200 block Benton Ave" type="OFFENSE" age="" gender="" description="*********************************************** &lt;br/&gt;029, Missing Juvenile&lt;br/&gt;"/><marker lat="40.443411043845622" lng="-79.994612539203288" zone="Zone 2" incidentdate="2016-10-19" incidenttime="16:02:00" incidentnumber="16197663" address="1000 block Liberty Ave" type="OFFENSE" age="" gender="" description="*********************************************** &lt;br/&gt;9497, Aided Case&lt;br/&gt;"/><marker lat="40.4659646" lng="-79.9786106" zone="Zone 1" incidentdate="2016-10-19" incidenttime="08:10:00" incidentnumber="16197423" address="Pa Rt 28 &amp; 31st St Brg" type="OFFENSE" age="" gender="" description="*********************************************** &lt;br/&gt;3743, Accidents Involving Damage to Attended Veh. or Property&lt;br/&gt;"/><marker lat="40.449050329583528" lng="-80.063576441367843" zone="Zone 6" incidentdate="2016-10-19" incidenttime="01:00:00" incidentnumber="16197291" address="Middletown Rd &amp; Hillsboro St" type="OFFENSE" age="" gender="" description="*********************************************** &lt;br/&gt;2701, Simple Assault.&lt;br/&gt;"/><marker lat="40.44058362667257" lng="-80.002189911351579" zone="Zone 2" incidentdate="2016-10-19" incidenttime="14:48:00" incidentnumber="16197616" address="Market St &amp; Forbes Ave" type="OFFENSE" age="" gender="" description="*********************************************** &lt;br/&gt;5503(a)(1), DISORDERLY CONDUCT - ENGAGE IN FIGHTING&lt;br/&gt;"/><marker lat="40.484550069346753" lng="-80.035692783449747" zone="Zone 1" incidentdate="2016-10-19" incidenttime="10:23:00" incidentnumber="16197464" address="3800 block Brighton Rd" type="OFFENSE" age="" gender="" description="*********************************************** &lt;br/&gt;4101, Forgery.&lt;br/&gt;"/><marker lat="40.421601621830511" lng="-79.929998677898183" zone="Zone 4" incidentdate="2016-10-19" incidenttime="12:50:00" incidentnumber="16197552" address="1100 block Greenfield Ave" type="OFFENSE" age="" gender="" description="*********************************************** &lt;br/&gt;3502, Burglary.&lt;br/&gt;"/><marker lat="40.408593098502109" lng="-80.024778506352533" zone="Zone 6" incidentdate="2016-10-19" incidenttime="12:00:00" incidentnumber="16197594" address="1700 block Realty Ave" type="OFFENSE" age="" gender="" description="*********************************************** &lt;br/&gt;3934, Theft from Vehicle&lt;br/&gt;"/><marker lat="40.450892721440539" lng="-80.000843891836467" zone="Zone 1" incidentdate="2016-10-19" incidenttime="02:35:00" incidentnumber="16197312" address="300 block Cedar Ave" type="OFFENSE" age="" gender="" description="*********************************************** &lt;br/&gt;2701, Simple Assault.&lt;br/&gt;"/><marker lat="40.461414099706971" lng="-79.92481805202975" zone="Zone 4" incidentdate="2016-10-19" incidenttime="20:00:00" incidentnumber="16197818" address="Penn Cir S &amp; S Highland Ave" type="OFFENSE" age="" gender="" description="*********************************************** &lt;br/&gt;9999, 9999 - (Misc. Incident):&lt;br/&gt;"/><marker lat="40.437577457374786" lng="-79.996384145625058" zone="Zone 2" incidentdate="2016-10-19" incidenttime="11:00:00" incidentnumber="16197482" address="400 block Ross St" type="OFFENSE" age="" gender="" description="*********************************************** &lt;br/&gt;9999, 9999 - (Misc. Incident):&lt;br/&gt;"/><marker lat="40.423748870783541" lng="-79.979095685400338" zone="Zone 3" incidentdate="2016-10-19" incidenttime="07:40:00" incidentnumber="16197388" address="2000 block Gregory St" type="OFFENSE" age="" gender="" description="*********************************************** &lt;br/&gt;3304, Criminal Mischief.&lt;br/&gt;3934, Theft from Vehicle&lt;br/&gt;"/><marker lat="40.4430352" lng="-80.0549319" zone="Zone 6" incidentdate="2016-10-19" incidenttime="16:00:00" incidentnumber="16197693" address="100 block Hollywood St" type="OFFENSE" age="" gender="" description="*********************************************** &lt;br/&gt;3921, Theft by Unlawful Taking or Disposition.&lt;br/&gt;"/><marker lat="40.4021033" lng="-80.0006283" zone="Zone 3" incidentdate="2016-10-19" incidenttime="18:24:00" incidentnumber="16197761" address="Saw Mill Run Blvd &amp; Edgebrook Ave" type="OFFENSE" age="" gender="" description="*********************************************** &lt;br/&gt;9999, 9999 - (Misc. Incident):&lt;br/&gt;"/><marker lat="40.463941389966493" lng="-80.028365155940136" zone="Zone 1" incidentdate="2016-10-19" incidenttime="19:30:00" incidentnumber="16197863" address="1300 block Marshall Ave" type="OFFENSE" age="" gender="" description="*********************************************** &lt;br/&gt;3934, Theft from Vehicle&lt;br/&gt;"/><marker lat="40.461263755824248" lng="-79.946362797859464" zone="Zone 5" incidentdate="2016-10-19" incidenttime="12:50:00" incidentnumber="16197548" address="4800 block Friendship Ave" type="OFFENSE" age="" gender="" description="*********************************************** &lt;br/&gt;2709(a), Harassment.&lt;br/&gt;"/><marker lat="40.44058362667257" lng="-80.002189911351579" zone="Zone 2" incidentdate="2016-10-19" incidenttime="13:20:00" incidentnumber="16197567" address="Forbes Ave &amp; Market St" type="OFFENSE" age="" gender="" description="*********************************************** &lt;br/&gt;3921, Theft by Unlawful Taking or Disposition.&lt;br/&gt;"/><marker lat="40.420019068985731" lng="-79.990853184377926" zone="Zone 3" incidentdate="2016-10-19" incidenttime="11:30:00" incidentnumber="16197511" address="Knox Ave" type="OFFENSE" age="" gender="" description="*********************************************** &lt;br/&gt;2702, Aggravated Assault.&lt;br/&gt;"/><marker lat="40.421798826380126" lng="-79.981722378187925" zone="Zone 3" incidentdate="2016-10-19" incidenttime="07:00:00" incidentnumber="16197800" address="1800 block St Paul St" type="OFFENSE" age="" gender="" description="*********************************************** &lt;br/&gt;3304, Criminal Mischief.&lt;br/&gt;"/><marker lat="40.445634165870715" lng="-79.907779941745304" zone="Zone 4" incidentdate="2016-10-19" incidenttime="08:00:00" incidentnumber="16197454" address="600 block Kirtland St" type="OFFENSE" age="" gender="" description="*********************************************** &lt;br/&gt;3934, Theft from Vehicle&lt;br/&gt;"/><marker lat="40.429417158451685" lng="-79.953711546107328" zone="Zone 4" incidentdate="2016-10-19" incidenttime="20:00:00" incidentnumber="16197844" address="3200 block Parkview Ave" type="OFFENSE" age="" gender="" description="*********************************************** &lt;br/&gt;3502, Burglary.&lt;br/&gt;"/><marker lat="40.438625012708876" lng="-79.953414200443888" zone="Zone 4" incidentdate="2016-10-19" incidenttime="17:40:00" incidentnumber="16197765" address="Bates St &amp; Oakland Ave" type="OFFENSE" age="" gender="" description="*********************************************** &lt;br/&gt;3921(a), Theft by Unlawful Taking or Disposition - Movable item&lt;br/&gt;"/><marker lat="40.452042212663898" lng="-80.008738896002342" zone="Zone 1" incidentdate="2016-10-19" incidenttime="21:15:00" incidentnumber="16197871" address="200 block Ridge Ave" type="OFFENSE" age="" gender="" description="*********************************************** &lt;br/&gt;2709, Harassment (Non-Specific)&lt;br/&gt;"/><marker lat="40.460011231530601" lng="-79.907190611646101" zone="Zone 5" incidentdate="2016-10-19" incidenttime="16:07:00" incidentnumber="16197662" address="900 block Washington Blvd" type="OFFENSE" age="" gender="" description="*********************************************** &lt;br/&gt;9999, 9999 - (Misc. Incident):&lt;br/&gt;"/><marker lat="40.466967677021174" lng="-79.991361232264538" zone="Zone 1" incidentdate="2016-10-19" incidenttime="10:00:00" incidentnumber="16197498" address="2100 block Donora St" type="OFFENSE" age="" gender="" description="*********************************************** &lt;br/&gt;3502, Burglary.&lt;br/&gt;"/><marker lat="40.4058500" lng="-80.0037096" zone="Zone 3" incidentdate="2016-10-19" incidenttime="11:10:00" incidentnumber="16197494" address="700 block Ensign Ave" type="OFFENSE" age="" gender="" description="*********************************************** &lt;br/&gt;9998, Overdose&lt;br/&gt;"/><marker lat="40.465913053577324" lng="-79.953250701447303" zone="Zone 2" incidentdate="2016-10-19" incidenttime="16:30:00" incidentnumber="16197700" address="4400 block Penn Ave" type="OFFENSE" age="" gender="" description="*********************************************** &lt;br/&gt;029, Missing Juvenile&lt;br/&gt;"/><marker lat="40.416127822623537" lng="-79.974588087598846" zone="Zone 3" incidentdate="2016-10-19" incidenttime="18:35:00" incidentnumber="16197772" address="2300 block Spring St" type="OFFENSE" age="" gender="" description="*********************************************** &lt;br/&gt;9998, Overdose&lt;br/&gt;"/><marker lat="40.479936560699926" lng="-80.041856845442879" zone="Zone 1" incidentdate="2016-10-19" incidenttime="17:00:00" incidentnumber="16197811" address="1800 block Davis Ave" type="OFFENSE" age="" gender="" description="*********************************************** &lt;br/&gt;611.03 (b), Burglary Alarm to Deactivate After 30 Minutes&lt;br/&gt;"/><marker lat="40.447651620550211" lng="-79.906952468349957" zone="Zone 4" incidentdate="2016-10-19" incidenttime="07:45:00" incidentnumber="16197533" address="400 block Lloyd St" type="OFFENSE" age="" gender="" description="*********************************************** &lt;br/&gt;3934, Theft from Vehicle&lt;br/&gt;"/><marker lat="40.427422591568721" lng="-79.976119622198283" zone="Zone 3" incidentdate="2016-10-19" incidenttime="17:30:00" incidentnumber="16197759" address="2100 block Sarah St" type="OFFENSE" age="" gender="" description="*********************************************** &lt;br/&gt;3934, Theft from Vehicle&lt;br/&gt;"/><marker lat="40.417087353445595" lng="-79.974439009540703" zone="Zone 3" incidentdate="2016-10-19" incidenttime="11:11:00" incidentnumber="16197577" address="2300 block Arlington Ave" type="OFFENSE" age="" gender="" description="*********************************************** &lt;br/&gt;9999, 9999 - (Misc. Incident):&lt;br/&gt;"/><marker lat="40.419745084735858" lng="-79.933047930760196" zone="Zone 4" incidentdate="2016-10-19" incidenttime="09:02:00" incidentnumber="16197435" address="700 block Hazelwood Ave" type="OFFENSE" age="" gender="" description="*********************************************** &lt;br/&gt;9498, 302 (Mental)&lt;br/&gt;"/><marker lat="40.458050197145134" lng="-79.94759002469354" zone="Zone 5" incidentdate="2016-10-19" incidenttime="16:13:00" incidentnumber="16197671" address="4900 block Yew St" type="OFFENSE" age="" gender="" description="*********************************************** &lt;br/&gt;13(a)(32), Paraphernalia - Use or Possession&lt;br/&gt;"/><marker lat="40.444700495407965" lng="-79.970104160188043" zone="Zone 2" incidentdate="2016-10-19" incidenttime="17:55:00" incidentnumber="16197744" address="2500 block Brackenridge St" type="OFFENSE" age="" gender="" description="*********************************************** &lt;br/&gt;13(a)(31), Marijuana: Possession Small Amount&lt;br/&gt;5104, Resisting Arrest or Other Law Enforcement.&lt;br/&gt;3925, Receiving Stolen Property.&lt;br/&gt;5121, Escape.&lt;br/&gt;5126, Flight to Avoid Apprehension, Trial or Punishment.&lt;br/&gt;"/><marker lat="40.459241184494772" lng="-80.005548013998464" zone="Zone 1" incidentdate="2016-10-19" incidenttime="14:15:00" incidentnumber="16197599" address="1600 block Sandusky Ct" type="OFFENSE" age="" gender="" description="*********************************************** &lt;br/&gt;13(a)(16), Possession of Controlled Substance&lt;br/&gt;13(a)(30), Possession w/ Intent to Del. Controlled Substance&lt;br/&gt;13(a)(32), Paraphernalia - Use or Possession&lt;br/&gt;903, Criminal Conspiracy.&lt;br/&gt;6105(a)(1), Persons not to possess, use, manufacture, control, sell or transfer firearms: Former convict enumerated in subsection (b)&lt;br/&gt;"/><marker lat="40.405945869548198" lng="-79.986684747502167" zone="Zone 3" incidentdate="2016-10-19" incidenttime="16:17:00" incidentnumber="16197668" address="1000 block Theona St" type="OFFENSE" age="" gender="" description="*********************************************** &lt;br/&gt;9998, Overdose&lt;br/&gt;"/><marker lat="40.441354979392592" lng="-79.994737122353087" zone="Zone 2" incidentdate="2016-10-19" incidenttime="10:57:00" incidentnumber="16197487" address="600 block Grant St" type="OFFENSE" age="" gender="" description="*********************************************** &lt;br/&gt;9123, Miscellaneous Fire Other Investigation to Continue&lt;br/&gt;"/><marker lat="40.4276437" lng="-79.9058134" zone="Zone 4" incidentdate="2016-10-19" incidenttime="18:45:00" incidentnumber="16197777" address="1200 block Commercial St" type="OFFENSE" age="" gender="" description="*********************************************** &lt;br/&gt;3934, Theft from Vehicle&lt;br/&gt;"/><marker lat="40.447837075845712" lng="-79.920569413861472" zone="Zone 4" incidentdate="2016-10-19" incidenttime="08:30:00" incidentnumber="16197438" address="1200 block Denniston St" type="OFFENSE" age="" gender="" description="*********************************************** &lt;br/&gt;3934, Theft from Vehicle&lt;br/&gt;"/><marker lat="40.456010947418342" lng="-80.049746596361274" zone="Zone 6" incidentdate="2016-10-19" incidenttime="10:00:00" incidentnumber="16197495" address="400 block Hammond St" type="OFFENSE" age="" gender="" description="*********************************************** &lt;br/&gt;9489, Found Property&lt;br/&gt;"/><marker lat="40.471621027089377" lng="-79.940158345226706" zone="Zone 5" incidentdate="2016-10-19" incidenttime="21:36:00" incidentnumber="16197881" address="5100 block Schenley Ave" type="OFFENSE" age="" gender="" description="*********************************************** &lt;br/&gt;2701, Simple Assault.&lt;br/&gt;3701, Robbery.&lt;br/&gt;3304(a)(5), CRIMINAL MISCHIEF - Intentionally Damages Real Or Personal Property Of Another&lt;br/&gt;"/><marker lat="40.477093407577023" lng="-80.041016732825128" zone="Zone 1" incidentdate="2016-10-19" incidenttime="12:45:00" incidentnumber="16197588" address="3500 block Mexico St" type="OFFENSE" age="" gender="" description="*********************************************** &lt;br/&gt;3304(a)(5), CRIMINAL MISCHIEF - Intentionally Damages Real Or Personal Property Of Another&lt;br/&gt;"/><marker lat="40.46527464336846" lng="-79.992123866962856" zone="Zone 1" incidentdate="2016-10-19" incidenttime="13:45:00" incidentnumber="16197555" address="Rhine St &amp; Steine St" type="OFFENSE" age="" gender="" description="*********************************************** &lt;br/&gt;9489, Found Property&lt;br/&gt;"/><marker lat="40.441987095894468" lng="-80.039787182635294" zone="Zone 6" incidentdate="2016-10-19" incidenttime="16:12:00" incidentnumber="16197657" address="800 block Crucible St" type="OFFENSE" age="" gender="" description="*********************************************** &lt;br/&gt;3304, Criminal Mischief.&lt;br/&gt;2705, Recklessly Endangering Another Person.&lt;br/&gt;2701, Simple Assault.&lt;br/&gt;"/><marker lat="40.4642071" lng="-79.9796681" zone="Zone 1" incidentdate="2016-10-19" incidenttime="18:49:00" incidentnumber="16197776" address="River Ave &amp; 30th St Brg" type="OFFENSE" age="" gender="" description="*********************************************** &lt;br/&gt;5507, Obstructing Highways and Passages.&lt;br/&gt;2705, Recklessly Endangering Another Person.&lt;br/&gt;2707, Propulsion of Missiles&lt;br/&gt;"/><marker lat="40.474814744271484" lng="-79.922597289648337" zone="Zone 5" incidentdate="2016-10-19" incidenttime="17:00:00" incidentnumber="16197749" address="1100 block Mellon St" type="OFFENSE" age="" gender="" description="*********************************************** &lt;br/&gt;3921, Theft by Unlawful Taking or Disposition.&lt;br/&gt;"/><marker lat="40.421531877189601" lng="-79.993577564166102" zone="Zone 3" incidentdate="2016-10-19" incidenttime="15:10:00" incidentnumber="16197670" address="800 block E Warrington Ave" type="OFFENSE" age="" gender="" description="*********************************************** &lt;br/&gt;2706, Terroristic Threats.&lt;br/&gt;"/><marker lat="40.490051116731578" lng="-80.015624160322076" zone="Zone 1" incidentdate="2016-10-19" incidenttime="15:39:00" incidentnumber="16197625" address="200 block Bonvue St" type="OFFENSE" age="" gender="" description="*********************************************** &lt;br/&gt;2701, Simple Assault.&lt;br/&gt;"/><marker lat="40.460361382042805" lng="-79.913777278204179" zone="Zone 5" incidentdate="2016-10-19" incidenttime="13:59:00" incidentnumber="16197592" address="6500 block Frankstown Ave" type="OFFENSE" age="" gender="" description="*********************************************** &lt;br/&gt;3502, Burglary.&lt;br/&gt;"/><marker lat="40.391579872568094" lng="-80.015378713407102" zone="Zone 6" incidentdate="2016-10-19" incidenttime="19:30:00" incidentnumber="16197834" address="1100 block Brookline Blvd" type="OFFENSE" age="" gender="" description="*********************************************** &lt;br/&gt;3921(a), Theft by Unlawful Taking or Disposition - Movable item&lt;br/&gt;4106, Access Device Fraud&lt;br/&gt;"/><marker lat="40.448218480707915" lng="-80.000503036736063" zone="Zone 1" incidentdate="2016-10-19" incidenttime="23:25:00" incidentnumber="16197918" address="Anderson St &amp; Isabella St" type="OFFENSE" age="" gender="" description="*********************************************** &lt;br/&gt;3736, Reckless Driving&lt;br/&gt;1543, Driving While Operating Privilege is Suspended or Revoked.&lt;br/&gt;3742, Accidents Involving Death or Personal Injury&lt;br/&gt;3802(a)(1), DUI - General Impairment&lt;br/&gt;3743, Accidents Involving Damage to Attended Veh. or Property&lt;br/&gt;3112, Traffic-Control Signals.&lt;br/&gt;1501(A), Valid Drivers License Required&lt;br/&gt;"/><marker lat="40.468949448621721" lng="-79.999184217115484" zone="Zone 1" incidentdate="2016-10-19" incidenttime="03:27:00" incidentnumber="16197324" address="900 block Mina St" type="OFFENSE" age="" gender="" description="*********************************************** &lt;br/&gt;3921, Theft by Unlawful Taking or Disposition.&lt;br/&gt;"/><marker lat="40.41585770010623" lng="-79.988118814925556" zone="Zone 3" incidentdate="2016-10-19" incidenttime="02:25:00" incidentnumber="16197306" address="100 block Zara St" type="OFFENSE" age="" gender="" description="*********************************************** &lt;br/&gt;2701, Simple Assault.&lt;br/&gt;2706, Terroristic Threats.&lt;br/&gt;2701(a)(3), Simple Assault - Attempts by Physical Menace&lt;br/&gt;"/><marker lat="40.452210852851195" lng="-79.998676352919205" zone="Zone 1" incidentdate="2016-10-19" incidenttime="19:15:00" incidentnumber="16197802" address="600 block Pressley St" type="OFFENSE" age="" gender="" description="*********************************************** &lt;br/&gt;9496, Dead on Arrival (DOA)&lt;br/&gt;"/><marker lat="40.415424065722213" lng="-80.040419247404557" zone="Zone 6" incidentdate="2016-10-19" incidenttime="00:01:00" incidentnumber="16197521" address="1400 block Crane Ave" type="OFFENSE" age="" gender="" description="*********************************************** &lt;br/&gt;3921, Theft by Unlawful Taking or Disposition.&lt;br/&gt;"/><marker lat="40.463504216805177" lng="-79.930660678953373" zone="Zone 5" incidentdate="2016-10-19" incidenttime="15:41:00" incidentnumber="16197652" address="Penn Ave &amp; N Negley Ave" type="OFFENSE" age="" gender="" description="*********************************************** &lt;br/&gt;2709(a)(1), Harassment by Physical Contact, or Attempts or Threats&lt;br/&gt;2701(a)(3), Simple Assault - Attempts by Physical Menace&lt;br/&gt;"/><marker lat="40.392612544600198" lng="-80.025159139637012" zone="Zone 6" incidentdate="2016-10-19" incidenttime="15:00:00" incidentnumber="16197620" address="600 block Fordham St" type="OFFENSE" age="" gender="" description="*********************************************** &lt;br/&gt;9999, 9999 - (Misc. Incident):&lt;br/&gt;"/><marker lat="40.462402719860648" lng="-79.950882093642306" zone="Zone 5" incidentdate="2016-10-19" incidenttime="16:30:00" incidentnumber="16197679" address="4600 block Liberty Ave" type="OFFENSE" age="" gender="" description="*********************************************** &lt;br/&gt;13(a)(16), Possession of Controlled Substance&lt;br/&gt;13(a)(30), Possession w/ Intent to Del. Controlled Substance&lt;br/&gt;"/><marker lat="40.468675897695007" lng="-79.895845057109298" zone="Zone 5" incidentdate="2016-10-19" incidenttime="21:15:00" incidentnumber="16197869" address="1500 block Lincoln Ave" type="OFFENSE" age="" gender="" description="*********************************************** &lt;br/&gt;3502, Burglary.&lt;br/&gt;3304, Criminal Mischief.&lt;br/&gt;2701, Simple Assault.&lt;br/&gt;903, Criminal Conspiracy.&lt;br/&gt;"/><marker lat="40.406023303157518" lng="-79.942408546715924" zone="Zone 4" incidentdate="2016-10-19" incidenttime="10:24:00" incidentnumber="16197465" address="100 block Johnston Ave" type="OFFENSE" age="" gender="" description="*********************************************** &lt;br/&gt;2706, Terroristic Threats.&lt;br/&gt;"/><marker lat="40.417474552785613" lng="-80.021805155334334" zone="Zone 6" incidentdate="2016-10-19" incidenttime="14:35:00" incidentnumber="16197612" address="1100 block Lowenhill St" type="OFFENSE" age="" gender="" description="*********************************************** &lt;br/&gt;029, Missing Juvenile&lt;br/&gt;"/><marker lat="40.475743982324708" lng="-79.999473074803177" zone="Zone 1" incidentdate="2016-10-19" incidenttime="11:00:00" incidentnumber="16197546" address="800 block Mt Pleasant Rd" type="OFFENSE" age="" gender="" description="*********************************************** &lt;br/&gt;3745, Accidents Involving Damage to Unattended Veh.or Prop.&lt;br/&gt;"/><marker lat="40.461853624774726" lng="-79.897416070395224" zone="Zone 5" incidentdate="2016-10-19" incidenttime="21:58:00" incidentnumber="16197892" address="7100 block Mt Vernon St" type="OFFENSE" age="" gender="" description="*********************************************** &lt;br/&gt;3921, Theft by Unlawful Taking or Disposition.&lt;br/&gt;"/><marker lat="40.410430092633511" lng="-80.015537438193363" zone="Zone 6" incidentdate="2016-10-19" incidenttime="20:40:00" incidentnumber="16197857" address="West Liberty Ave &amp; Brookside Ave" type="OFFENSE" age="" gender="" description="*********************************************** &lt;br/&gt;3743, Accidents Involving Damage to Attended Veh. or Property&lt;br/&gt;"/><marker lat="40.444575323143596" lng="-79.977189924914356" zone="Zone 2" incidentdate="2016-10-19" incidenttime="22:01:00" incidentnumber="16197895" address="Hemans St &amp; Elmore St" type="OFFENSE" age="" gender="" description="*********************************************** &lt;br/&gt;2702, Aggravated Assault.&lt;br/&gt;"/><marker lat="40.391350551337474" lng="-80.017143657592015" zone="Zone 6" incidentdate="2016-10-19" incidenttime="01:00:00" incidentnumber="16197284" address="1000 block Chelton Ave" type="OFFENSE" age="" gender="" description="*********************************************** &lt;br/&gt;3502, Burglary.&lt;br/&gt;"/><marker lat="40.456583428048198" lng="-80.000628483910404" zone="Zone 1" incidentdate="2016-10-19" incidenttime="17:06:00" incidentnumber="16197708" address="E North Ave &amp; Linden Pl" type="OFFENSE" age="" gender="" description="*********************************************** &lt;br/&gt;13(a)(32), Paraphernalia - Use or Possession&lt;br/&gt;5505, Public Drunkenness&lt;br/&gt;"/><marker lat="40.441372308321661" lng="-79.923287923128115" zone="Zone 4" incidentdate="2016-10-19" incidenttime="06:30:00" incidentnumber="16197982" address="5800 block Northumberland St" type="OFFENSE" age="" gender="" description="*********************************************** &lt;br/&gt;3304, Criminal Mischief.&lt;br/&gt;"/><marker lat="40.482061761957844" lng="-80.01163075793238" zone="Zone 1" incidentdate="2016-10-19" incidenttime="03:54:00" incidentnumber="16197330" address="3400 block Portola St" type="OFFENSE" age="" gender="" description="*********************************************** &lt;br/&gt;9488, False  Burglar Alarm&lt;br/&gt;"/><marker lat="40.437156120227932" lng="-79.952313350968979" zone="Zone 4" incidentdate="2016-10-19" incidenttime="23:30:00" incidentnumber="16197946" address="3700 block Dawson St" type="OFFENSE" age="" gender="" description="*********************************************** &lt;br/&gt;3502, Burglary.&lt;br/&gt;"/><marker lat="39.9965711" lng="-79.8906098" zone="Zone 2" incidentdate="2016-10-19" incidenttime="03:00:00" incidentnumber="16197509" address="Mon Wharf" type="OFFENSE" age="" gender="" description="*********************************************** &lt;br/&gt;3921, Theft by Unlawful Taking or Disposition.&lt;br/&gt;"/><marker lat="40.448683384163829" lng="-79.933110153706934" zone="Zone 4" incidentdate="2016-10-19" incidenttime="20:53:00" incidentnumber="16197848" address="5400 block 5th Ave" type="OFFENSE" age="" gender="" description="*********************************************** &lt;br/&gt;9496, Dead on Arrival (DOA)&lt;br/&gt;"/><marker lat="40.4683703008184" lng="-80.020060498907839" zone="Zone 1" incidentdate="2016-10-19" incidenttime="01:18:00" incidentnumber="16197258" address="800 block Marshall Ave" type="OFFENSE" age="" gender="" description="*********************************************** &lt;br/&gt;9497, Aided Case&lt;br/&gt;"/><marker lat="40.409613081121023" lng="-79.991430448936313" zone="Zone 3" incidentdate="2016-10-19" incidenttime="07:15:00" incidentnumber="16197406" address="200 block Alice St" type="OFFENSE" age="" gender="" description="*********************************************** &lt;br/&gt;3934, Theft from Vehicle&lt;br/&gt;"/><marker lat="40.443580942147605" lng="-79.979979097296493" zone="Zone 2" incidentdate="2016-10-19" incidenttime="09:59:00" incidentnumber="16197445" address="2000 block Centre Ave" type="OFFENSE" age="" gender="" description="*********************************************** &lt;br/&gt;9501, Bench Warrant&lt;br/&gt;"/><marker lat="40.459241184494772" lng="-80.005548013998464" zone="Zone 1" incidentdate="2016-10-19" incidenttime="11:50:00" incidentnumber="16197532" address="1600 block Sandusky Ct" type="OFFENSE" age="" gender="" description="*********************************************** &lt;br/&gt;2701, Simple Assault.&lt;br/&gt;4952, Intimidation of Witnesses or Victims&lt;br/&gt;"/><marker lat="40.446346164512178" lng="-79.994318011299683" zone="Zone 2" incidentdate="2016-10-19" incidenttime="13:20:00" incidentnumber="16197570" address="11th St" type="OFFENSE" age="" gender="" description="*********************************************** &lt;br/&gt;9497, Aided Case&lt;br/&gt;"/><marker lat="40.43539072031129" lng="-79.897235691942342" zone="Zone 4" incidentdate="2016-10-19" incidenttime="08:30:00" incidentnumber="16197439" address="900 block Milton St" type="OFFENSE" age="" gender="" description="*********************************************** &lt;br/&gt;3502, Burglary.&lt;br/&gt;"/><marker lat="40.445506184299511" lng="-79.978998857397144" zone="Zone 2" incidentdate="2016-10-19" incidenttime="18:00:00" incidentnumber="16197782" address="Trent St" type="OFFENSE" age="" gender="" description="*********************************************** &lt;br/&gt;2709(a), Harassment.&lt;br/&gt;"/><marker lat="40.440697119948119" lng="-80.003946068250272" zone="Zone 2" incidentdate="2016-10-19" incidenttime="18:19:00" incidentnumber="16197758" address="100 block Forbes Ave" type="OFFENSE" age="" gender="" description="*********************************************** &lt;br/&gt;9489, Found Property&lt;br/&gt;"/><marker lat="40.44608960903679" lng="-79.893619929343828" zone="Zone 4" incidentdate="2016-10-19" incidenttime="20:59:00" incidentnumber="16197861" address="7700 block Penn Ave" type="OFFENSE" age="" gender="" description="*********************************************** &lt;br/&gt;3701, Robbery.&lt;br/&gt;"/><marker lat="40.457808446581751" lng="-80.002020101504414" zone="Zone 1" incidentdate="2016-10-19" incidenttime="19:50:00" incidentnumber="16197816" address="James St &amp; Dunloe Ave" type="OFFENSE" age="" gender="" description="*********************************************** &lt;br/&gt;13(a)(16), Possession of Controlled Substance&lt;br/&gt;4910, Tampering with or Fabricating Physical Evidence.&lt;br/&gt;1543, Driving While Operating Privilege is Suspended or Revoked.&lt;br/&gt;3709, Dep. Waste and Other Material&lt;br/&gt;"/><marker lat="40.421798826380126" lng="-79.981722378187925" zone="Zone 3" incidentdate="2016-10-19" incidenttime="07:35:00" incidentnumber="16197380" address="1800 block St Paul St" type="OFFENSE" age="" gender="" description="*********************************************** &lt;br/&gt;3304, Criminal Mischief.&lt;br/&gt;3934, Theft from Vehicle&lt;br/&gt;"/><marker lat="40.459935996095638" lng="-79.947612973147926" zone="Zone 5" incidentdate="2016-10-19" incidenttime="13:00:00" incidentnumber="16197249" address="500 block S Mathilda St" type="ARREST" age="20" gender="M" description="*********************************************** &lt;br/&gt;3502, Burglary.&lt;br/&gt;13(a)(16), Possession of Controlled Substance&lt;br/&gt;13(a)(30), Possession w/ Intent to Del. Controlled Substance&lt;br/&gt;2702, Aggravated Assault.&lt;br/&gt;3701, Robbery.&lt;br/&gt;3925, Receiving Stolen Property.&lt;br/&gt;6106, Firearms not to be Carried without a License.&lt;br/&gt;6105(a)(1), Persons not to possess, use, manufacture, control, sell or transfer firearms: Former convict enumerated in subsection (b)&lt;br/&gt;"/><marker lat="40.41585770010623" lng="-79.988118814925556" zone="Zone 3" incidentdate="2016-10-19" incidenttime="02:55:00" incidentnumber="16197306" address="100 block Zara St" type="ARREST" age="30" gender="M" description="*********************************************** &lt;br/&gt;2701, Simple Assault.&lt;br/&gt;2706, Terroristic Threats.&lt;br/&gt;2701(a)(3), Simple Assault - Attempts by Physical Menace&lt;br/&gt;"/><marker lat="40.462568632486573" lng="-79.899262905744806" zone="Zone 5" incidentdate="2016-10-19" incidenttime="16:00:00" incidentnumber="16141465" address="1400 block N Murtland St" type="ARREST" age="46" gender="F" description="*********************************************** &lt;br/&gt;3921, Theft by Unlawful Taking or Disposition.&lt;br/&gt;3928, Unauthorized Use of Automobile and Other Vehicles.&lt;br/&gt;"/><marker lat="40.444700495407965" lng="-79.970104160188043" zone="Zone 2" incidentdate="2016-10-19" incidenttime="17:55:00" incidentnumber="16197744" address="2500 block Brackenridge St" type="ARREST" age="18" gender="M" description="*********************************************** &lt;br/&gt;13(a)(31), Marijuana: Possession Small Amount&lt;br/&gt;5104, Resisting Arrest or Other Law Enforcement.&lt;br/&gt;3925, Receiving Stolen Property.&lt;br/&gt;5121, Escape.&lt;br/&gt;5126, Flight to Avoid Apprehension, Trial or Punishment.&lt;br/&gt;"/><marker lat="40.409907809469559" lng="-79.944055701424162" zone="Zone 4" incidentdate="2016-10-19" incidenttime="16:00:00" incidentnumber="16179763" address="4900 block 2nd Ave" type="ARREST" age="59" gender="M" description="*********************************************** &lt;br/&gt;2701, Simple Assault.&lt;br/&gt;3701, Robbery.&lt;br/&gt;3925, Receiving Stolen Property.&lt;br/&gt;"/><marker lat="40.456583428048198" lng="-80.000628483910404" zone="Zone 1" incidentdate="2016-10-19" incidenttime="17:10:00" incidentnumber="16197708" address="E North Ave &amp; Linden Pl" type="ARREST" age="34" gender="M" description="*********************************************** &lt;br/&gt;13(a)(32), Paraphernalia - Use or Possession&lt;br/&gt;5505, Public Drunkenness&lt;br/&gt;"/><marker lat="40.462402719860648" lng="-79.950882093642306" zone="Zone 5" incidentdate="2016-10-19" incidenttime="16:20:00" incidentnumber="16197679" address="4600 block Liberty Ave" type="ARREST" age="34" gender="M" description="*********************************************** &lt;br/&gt;13(a)(16), Possession of Controlled Substance&lt;br/&gt;13(a)(30), Possession w/ Intent to Del. Controlled Substance&lt;br/&gt;"/><marker lat="40.439559663238619" lng="-79.896675159376343" zone="Zone 4" incidentdate="2016-10-19" incidenttime="13:30:00" incidentnumber="16021248" address="600 block East End Ave" type="ARREST" age="40" gender="M" description="*********************************************** &lt;br/&gt;2701, Simple Assault.&lt;br/&gt;2701(a)(1), Simple Assault - Intent., Know., Reckless.Cause Bod. Injury&lt;br/&gt;"/><marker lat="40.4764747" lng="-80.0386438" zone="Zone 1" incidentdate="2016-10-19" incidenttime="11:50:00" incidentnumber="16034831" address="1600 block Rankin Ave" type="ARREST" age="51" gender="F" description="*********************************************** &lt;br/&gt;3304(a)(5), CRIMINAL MISCHIEF - Intentionally Damages Real Or Personal Property Of Another&lt;br/&gt;3503(a), Criminal Trespass&lt;br/&gt;"/><marker lat="40.459935996095638" lng="-79.947612973147926" zone="Zone 5" incidentdate="2016-10-19" incidenttime="13:30:00" incidentnumber="16188266" address="500 block S Mathilda St" type="ARREST" age="23" gender="M" description="*********************************************** &lt;br/&gt;3304(a)(5), CRIMINAL MISCHIEF - Intentionally Damages Real Or Personal Property Of Another&lt;br/&gt;901, Criminal Attempt&lt;br/&gt;903, Criminal Conspiracy.&lt;br/&gt;"/><marker lat="40.466011403743479" lng="-79.922731041831852" zone="Zone 5" incidentdate="2016-10-19" incidenttime="13:15:00" incidentnumber="16197545" address="N Highland Ave &amp; East Liberty Blvd" type="ARREST" age="26" gender="M" description="*********************************************** &lt;br/&gt;13(a)(31), Marijuana: Possession Small Amount&lt;br/&gt;4910, Tampering with or Fabricating Physical Evidence.&lt;br/&gt;601.11(a), Littering and Dumping; Any waste, dangerous or detrimental substance upon public property&lt;br/&gt;"/><marker lat="40.434461580391591" lng="-80.045989716423875" zone="Zone 6" incidentdate="2016-10-19" incidenttime="10:20:00" incidentnumber="16098203" address="1800 block Hethlon St" type="ARREST" age="21" gender="M" description="*********************************************** &lt;br/&gt;3304(a)(5), CRIMINAL MISCHIEF - Intentionally Damages Real Or Personal Property Of Another&lt;br/&gt;2701(a)(3), Simple Assault - Attempts by Physical Menace&lt;br/&gt;"/><marker lat="40.4642071" lng="-79.9796681" zone="Zone 1" incidentdate="2016-10-19" incidenttime="18:52:00" incidentnumber="16197776" address="River Ave &amp; 30th St Brg" type="ARREST" age="51" gender="M" description="*********************************************** &lt;br/&gt;5507, Obstructing Highways and Passages.&lt;br/&gt;2705, Recklessly Endangering Another Person.&lt;br/&gt;2707, Propulsion of Missiles&lt;br/&gt;"/><marker lat="40.435095503606554" lng="-79.993077686753679" zone="Zone 2" incidentdate="2016-10-19" incidenttime="13:30:00" incidentnumber="16171832" address="900 block Second Ave" type="ARREST" age="35" gender="M" description="*********************************************** &lt;br/&gt;2701, Simple Assault.&lt;br/&gt;"/><marker lat="40.458050197145134" lng="-79.94759002469354" zone="Zone 5" incidentdate="2016-10-19" incidenttime="16:35:00" incidentnumber="16197671" address="4900 block Yew St" type="ARREST" age="17" gender="F" description="*********************************************** &lt;br/&gt;13(a)(32), Paraphernalia - Use or Possession&lt;br/&gt;"/><marker lat="40.45785679841795" lng="-79.874355945999625" zone="Zone 5" incidentdate="2016-10-19" incidenttime="03:49:00" incidentnumber="16195717" address="8600 block Bricelyn St" type="ARREST" age="52" gender="M" description="*********************************************** &lt;br/&gt;2701, Simple Assault.&lt;br/&gt;3304(a)(5), CRIMINAL MISCHIEF - Intentionally Damages Real Or Personal Property Of Another&lt;br/&gt;"/><marker lat="40.459241184494772" lng="-80.005548013998464" zone="Zone 1" incidentdate="2016-10-19" incidenttime="14:17:00" incidentnumber="16197599" address="1600 block Sandusky Ct" type="ARREST" age="19" gender="M" description="*********************************************** &lt;br/&gt;13(a)(16), Possession of Controlled Substance&lt;br/&gt;13(a)(30), Possession w/ Intent to Del. Controlled Substance&lt;br/&gt;13(a)(32), Paraphernalia - Use or Possession&lt;br/&gt;903, Criminal Conspiracy.&lt;br/&gt;6105(a)(1), Persons not to possess, use, manufacture, control, sell or transfer firearms: Former convict enumerated in subsection (b)&lt;br/&gt;"/><marker lat="40.444700495407965" lng="-79.970104160188043" zone="Zone 2" incidentdate="2016-10-19" incidenttime="17:55:00" incidentnumber="16197744" address="2500 block Brackenridge St" type="ARREST" age="17" gender="M" description="*********************************************** &lt;br/&gt;13(a)(31), Marijuana: Possession Small Amount&lt;br/&gt;5104, Resisting Arrest or Other Law Enforcement.&lt;br/&gt;3925, Receiving Stolen Property.&lt;br/&gt;5121, Escape.&lt;br/&gt;5126, Flight to Avoid Apprehension, Trial or Punishment.&lt;br/&gt;"/><marker lat="40.459935996095638" lng="-79.947612973147926" zone="Zone 5" incidentdate="2016-10-19" incidenttime="13:00:00" incidentnumber="16188266" address="500 block S Mathilda St" type="ARREST" age="20" gender="M" description="*********************************************** &lt;br/&gt;3304(a)(5), CRIMINAL MISCHIEF - Intentionally Damages Real Or Personal Property Of Another&lt;br/&gt;901, Criminal Attempt&lt;br/&gt;903, Criminal Conspiracy.&lt;br/&gt;"/><marker lat="40.459935996095638" lng="-79.947612973147926" zone="Zone 5" incidentdate="2016-10-19" incidenttime="13:30:00" incidentnumber="16197249" address="500 block S Mathilda St" type="ARREST" age="22" gender="M" description="*********************************************** &lt;br/&gt;3502, Burglary.&lt;br/&gt;13(a)(16), Possession of Controlled Substance&lt;br/&gt;13(a)(30), Possession w/ Intent to Del. Controlled Substance&lt;br/&gt;2702, Aggravated Assault.&lt;br/&gt;3701, Robbery.&lt;br/&gt;3925, Receiving Stolen Property.&lt;br/&gt;6106, Firearms not to be Carried without a License.&lt;br/&gt;6105(a)(1), Persons not to possess, use, manufacture, control, sell or transfer firearms: Former convict enumerated in subsection (b)&lt;br/&gt;"/><marker lat="40.477840543653322" lng="-79.938532530882625" zone="Zone 5" incidentdate="2016-10-19" incidenttime="21:18:00" incidentnumber="16192178" address="1100 block Brintell St" type="ARREST" age="18" gender="M" description="*********************************************** &lt;br/&gt;3921(a), Theft by Unlawful Taking or Disposition - Movable item&lt;br/&gt;3925, Receiving Stolen Property.&lt;br/&gt;"/><marker lat="40.4613620" lng="-79.9827298" zone="Zone 1" incidentdate="2016-10-19" incidenttime="18:47:00" incidentnumber="16151513" address="200 block East Ohio St" type="ARREST" age="62" gender="F" description="*********************************************** &lt;br/&gt;2709, Harassment (Non-Specific)&lt;br/&gt;2706, Terroristic Threats.&lt;br/&gt;"/><marker lat="40.459241184494772" lng="-80.005548013998464" zone="Zone 1" incidentdate="2016-10-19" incidenttime="14:17:00" incidentnumber="16197599" address="1600 block Sandusky Ct" type="ARREST" age="29" gender="M" description="*********************************************** &lt;br/&gt;13(a)(16), Possession of Controlled Substance&lt;br/&gt;13(a)(30), Possession w/ Intent to Del. Controlled Substance&lt;br/&gt;13(a)(32), Paraphernalia - Use or Possession&lt;br/&gt;903, Criminal Conspiracy.&lt;br/&gt;6105(a)(1), Persons not to possess, use, manufacture, control, sell or transfer firearms: Former convict enumerated in subsection (b)&lt;br/&gt;"/><marker lat="40.41585770010623" lng="-79.988118814925556" zone="Zone 3" incidentdate="2016-10-19" incidenttime="02:55:00" incidentnumber="16197306" address="100 block Zara St" type="ARREST" age="25" gender="F" description="*********************************************** &lt;br/&gt;2701, Simple Assault.&lt;br/&gt;2706, Terroristic Threats.&lt;br/&gt;2701(a)(3), Simple Assault - Attempts by Physical Menace&lt;br/&gt;"/><marker lat="40.457808446581751" lng="-80.002020101504414" zone="Zone 1" incidentdate="2016-10-19" incidenttime="19:50:00" incidentnumber="16197816" address="James St &amp; Dunloe Ave" type="ARREST" age="27" gender="M" description="*********************************************** &lt;br/&gt;13(a)(16), Possession of Controlled Substance&lt;br/&gt;4910, Tampering with or Fabricating Physical Evidence.&lt;br/&gt;1543, Driving While Operating Privilege is Suspended or Revoked.&lt;br/&gt;3709, Dep. Waste and Other Material&lt;br/&gt;"/><marker lat="40.488525073816504" lng="-80.023418388765137" zone="Zone 1" incidentdate="2016-10-19" incidenttime="13:00:00" incidentnumber="16177706" address="3900 block Vinceton St" type="ARREST" age="26" gender="F" description="*********************************************** &lt;br/&gt;4304(a)(1), Endangering Welfare of Children - Course of Conduct Enhanced&lt;br/&gt;"/><marker lat="40.441987095894468" lng="-80.039787182635294" zone="Zone 6" incidentdate="2016-10-19" incidenttime="16:18:00" incidentnumber="16197657" address="800 block Crucible St" type="ARREST" age="28" gender="M" description="*********************************************** &lt;br/&gt;3304, Criminal Mischief.&lt;br/&gt;2705, Recklessly Endangering Another Person.&lt;br/&gt;2701, Simple Assault.&lt;br/&gt;"/><marker lat="40.443580942147605" lng="-79.979979097296493" zone="Zone 2" incidentdate="2016-10-19" incidenttime="09:59:00" incidentnumber="16197445" address="2000 block Centre Ave" type="ARREST" age="36" gender="F" description="*********************************************** &lt;br/&gt;9501, Bench Warrant&lt;br/&gt;"/><marker lat="40.405302741289624" lng="-79.989138297527603" zone="Zone 3" incidentdate="2016-10-19" incidenttime="05:05:00" incidentnumber="16197341" address="100 block Wynoka St" type="ARREST" age="52" gender="M" description="*********************************************** &lt;br/&gt;1786, Required Financial Responsibility.&lt;br/&gt;3802(a)(1), DUI - General Impairment&lt;br/&gt;3802(b), DUI - High Rate of Alchol - BAC &gt;=.10% &lt;.16%&lt;br/&gt;"/><marker lat="40.46367480315746" lng="-80.012296661069598" zone="Zone 1" incidentdate="2016-10-19" incidenttime="19:39:00" incidentnumber="16197810" address="Wilson Ave &amp; Perrysville Ave" type="ARREST" age="22" gender="M" description="*********************************************** &lt;br/&gt;13(a)(16), Possession of Controlled Substance&lt;br/&gt;13(a)(30), Possession w/ Intent to Del. Controlled Substance&lt;br/&gt;5104, Resisting Arrest or Other Law Enforcement.&lt;br/&gt;"/></markers>
