<?xml version="1.0"?>
<markers><marker lat="40.454104315913447" lng="-80.019684162408282" zone="Zone 1" incidentdate="2015-12-09" incidenttime="10:30:00" incidentnumber="15235135" address="1300 block Allegheny Ave" type="OFFENSE" age="" gender="" description="*********************************************** &lt;br/&gt;2709(a), Harassment.&lt;br/&gt;"/><marker lat="40.427659731284727" lng="-79.993877173245835" zone="Zone 3" incidentdate="2015-12-09" incidenttime="20:17:00" incidentnumber="15235520" address="Windom Hill Pl" type="OFFENSE" age="" gender="" description="*********************************************** &lt;br/&gt;3921(a), Theft by Unlawful Taking or Disposition - Movable item&lt;br/&gt;3701, Robbery.&lt;br/&gt;2701(a)(3), Simple Assault - Attempts by Physical Menace&lt;br/&gt;"/><marker lat="40.385891735246354" lng="-79.978254236122268" zone="Zone 3" incidentdate="2015-12-09" incidenttime="18:20:00" incidentnumber="15235402" address="100 block Kirk Ave" type="OFFENSE" age="" gender="" description="*********************************************** &lt;br/&gt;9094, Recovered Stolen Vehicle (OUTSIDE CITY)&lt;br/&gt;"/><marker lat="40.421531877189601" lng="-79.993577564166102" zone="Zone 3" incidentdate="2015-12-09" incidenttime="07:00:00" incidentnumber="15235129" address="800 block E Warrington Ave" type="OFFENSE" age="" gender="" description="*********************************************** &lt;br/&gt;9124, Drug Investigation&lt;br/&gt;"/><marker lat="40.411352131057285" lng="-79.993006739748296" zone="Zone 3" incidentdate="2015-12-09" incidenttime="11:10:00" incidentnumber="15235128" address="300 block Moore Ave" type="OFFENSE" age="" gender="" description="*********************************************** &lt;br/&gt;9999, 9999 - (Misc. Incident):&lt;br/&gt;"/><marker lat="40.478609245153834" lng="-80.000851324884735" zone="Zone 1" incidentdate="2015-12-09" incidenttime="16:50:00" incidentnumber="15235349" address="Mt Pleasant Rd &amp; Chicago St" type="OFFENSE" age="" gender="" description="*********************************************** &lt;br/&gt;9999, 9999 - (Misc. Incident):&lt;br/&gt;"/><marker lat="40.455538462756572" lng="-79.867935534849607" zone="Zone 5" incidentdate="2015-12-09" incidenttime="07:40:00" incidentnumber="15235027" address="2400 block Bracey Dr" type="OFFENSE" age="" gender="" description="*********************************************** &lt;br/&gt;029, Missing Juvenile&lt;br/&gt;"/><marker lat="40.412030234321499" lng="-80.020364495718169" zone="Zone 6" incidentdate="2015-12-09" incidenttime="02:47:00" incidentnumber="15234941" address="1500 block Rockland Ave" type="OFFENSE" age="" gender="" description="*********************************************** &lt;br/&gt;5505, Public Drunkenness&lt;br/&gt;5503(a)(2), DISORDERLY CONDUCT - UNREASONABLE NOISE&lt;br/&gt;"/><marker lat="40.457644669440079" lng="-80.056984913637734" zone="Zone 6" incidentdate="2015-12-09" incidenttime="19:47:00" incidentnumber="15235456" address="3200 block Ashlyn St" type="OFFENSE" age="" gender="" description="*********************************************** &lt;br/&gt;13(a)(31), Marijuana: Possession Small Amount&lt;br/&gt;3736, Reckless Driving&lt;br/&gt;1543, Driving While Operating Privilege is Suspended or Revoked.&lt;br/&gt;5121, Escape.&lt;br/&gt;3733, Fleeing or Attempting to Elude Police Officer&lt;br/&gt;3323, Stop Signs and Yield Signs.&lt;br/&gt;1301, Registration and Certificate of Title Required.&lt;br/&gt;"/><marker lat="40.490599330523665" lng="-80.010706814817325" zone="Zone 1" incidentdate="2015-12-09" incidenttime="11:00:00" incidentnumber="15197109" address="3900 block Evergreen Rd" type="OFFENSE" age="" gender="" description="*********************************************** &lt;br/&gt;4304(a)(1), Endangering Welfare of Children - Course of Conduct Enhanced&lt;br/&gt;2701, Simple Assault.&lt;br/&gt;"/><marker lat="40.418899857196259" lng="-79.988061168931495" zone="Zone 3" incidentdate="2015-12-09" incidenttime="09:00:00" incidentnumber="15235075" address="1000 block Mt Oliver St" type="OFFENSE" age="" gender="" description="*********************************************** &lt;br/&gt;3304, Criminal Mischief.&lt;br/&gt;"/><marker lat="40.449646657025653" lng="-79.892798110797884" zone="Zone 4" incidentdate="2015-12-09" incidenttime="12:30:00" incidentnumber="15235168" address="300 block N Braddock Ave" type="OFFENSE" age="" gender="" description="*********************************************** &lt;br/&gt;9497, Aided Case&lt;br/&gt;"/><marker lat="40.484454877545488" lng="-80.040477404897274" zone="Zone 1" incidentdate="2015-12-09" incidenttime="15:37:00" incidentnumber="15235279" address="3800 block California Ave" type="OFFENSE" age="" gender="" description="*********************************************** &lt;br/&gt;9488, False  Burglar Alarm&lt;br/&gt;"/><marker lat="40.443580942147605" lng="-79.979979097296493" zone="Zone 2" incidentdate="2015-12-09" incidenttime="16:50:00" incidentnumber="15235421" address="2000 block Centre Ave" type="OFFENSE" age="" gender="" description="*********************************************** &lt;br/&gt;9124, Drug Investigation&lt;br/&gt;"/><marker lat="40.440086472089142" lng="-79.958320548707789" zone="Zone 4" incidentdate="2015-12-09" incidenttime="17:35:00" incidentnumber="15235378" address="3500 block Forbes Ave" type="OFFENSE" age="" gender="" description="*********************************************** &lt;br/&gt;9497, Aided Case&lt;br/&gt;"/><marker lat="40.463620045534832" lng="-80.005817430079929" zone="Zone 1" incidentdate="2015-12-09" incidenttime="11:29:00" incidentnumber="15235146" address="300 block Rising Main Ave" type="OFFENSE" age="" gender="" description="*********************************************** &lt;br/&gt;2709(a)(5), Harassment Communicates Repeatedly in Anonymous Manner&lt;br/&gt;"/><marker lat="40.385516843832981" lng="-80.012022003877689" zone="Zone 6" incidentdate="2015-12-09" incidenttime="12:00:00" incidentnumber="15235385" address="1600 block rockford Ave" type="OFFENSE" age="" gender="" description="*********************************************** &lt;br/&gt;4120, Identity Theft&lt;br/&gt;"/><marker lat="40.411336685894881" lng="-79.990390740620356" zone="Zone 3" incidentdate="2015-12-09" incidenttime="20:40:00" incidentnumber="15235484" address="200 block Moore Ave" type="OFFENSE" age="" gender="" description="*********************************************** &lt;br/&gt;2701, Simple Assault.&lt;br/&gt;"/><marker lat="40.457267579856016" lng="-80.051856353957618" zone="Zone 6" incidentdate="2015-12-09" incidenttime="17:13:00" incidentnumber="15235371" address="3000 block Merwyn Ave" type="OFFENSE" age="" gender="" description="*********************************************** &lt;br/&gt;029, Missing Juvenile&lt;br/&gt;"/><marker lat="40.419475639030367" lng="-79.995743358588271" zone="Zone 3" incidentdate="2015-12-09" incidenttime="06:15:00" incidentnumber="15235206" address="700 block Loyal Way" type="OFFENSE" age="" gender="" description="*********************************************** &lt;br/&gt;3921, Theft by Unlawful Taking or Disposition.&lt;br/&gt;"/><marker lat="40.453503033880601" lng="-80.00053544678407" zone="Zone 1" incidentdate="2015-12-09" incidenttime="13:50:00" incidentnumber="15235215" address="700 block James St" type="OFFENSE" age="" gender="" description="*********************************************** &lt;br/&gt;13(a)(16), Possession of Controlled Substance&lt;br/&gt;"/><marker lat="40.467207829941444" lng="-79.937563678689926" zone="Zone 5" incidentdate="2015-12-09" incidenttime="01:33:00" incidentnumber="15234917" address="5300 block Rosetta St" type="OFFENSE" age="" gender="" description="*********************************************** &lt;br/&gt;3502, Burglary.&lt;br/&gt;"/><marker lat="40.461423112843683" lng="-79.988356819496047" zone="Zone 1" incidentdate="2015-12-09" incidenttime="06:30:00" incidentnumber="15235013" address="1300 block High St" type="OFFENSE" age="" gender="" description="*********************************************** &lt;br/&gt;3502, Burglary.&lt;br/&gt;"/><marker lat="40.460770540941056" lng="-79.915653002039789" zone="Zone 5" incidentdate="2015-12-09" incidenttime="09:30:00" incidentnumber="15235120" address="6400 block Frankstown Ave" type="OFFENSE" age="" gender="" description="*********************************************** &lt;br/&gt;3921, Theft by Unlawful Taking or Disposition.&lt;br/&gt;4106, Access Device Fraud&lt;br/&gt;"/><marker lat="40.443919803552113" lng="-79.976677867110723" zone="Zone 2" incidentdate="2015-12-09" incidenttime="09:00:00" incidentnumber="15235059" address="2100 block Rose St" type="OFFENSE" age="" gender="" description="*********************************************** &lt;br/&gt;029, Missing Juvenile&lt;br/&gt;"/><marker lat="40.464554816859568" lng="-79.910370988900652" zone="Zone 5" incidentdate="2015-12-09" incidenttime="16:00:00" incidentnumber="15235312" address="600 block Paulson Ave" type="OFFENSE" age="" gender="" description="*********************************************** &lt;br/&gt;3921, Theft by Unlawful Taking or Disposition.&lt;br/&gt;3503, Criminal Trespass&lt;br/&gt;2701, Simple Assault.&lt;br/&gt;9093, Indirect Criminal Contempt&lt;br/&gt;2709(a), Harassment.&lt;br/&gt;2709(b), Stalking&lt;br/&gt;"/><marker lat="40.476628915333301" lng="-80.031523025959146" zone="Zone 1" incidentdate="2015-12-09" incidenttime="13:00:00" incidentnumber="15235282" address="3300 block Brighton Rd" type="OFFENSE" age="" gender="" description="*********************************************** &lt;br/&gt;9999, 9999 - (Misc. Incident):&lt;br/&gt;"/><marker lat="40.430028091967571" lng="-79.920633569588375" zone="Zone 4" incidentdate="2015-12-09" incidenttime="11:00:00" incidentnumber="15235428" address="2400 block Shady Ave" type="OFFENSE" age="" gender="" description="*********************************************** &lt;br/&gt;3921(a), Theft by Unlawful Taking or Disposition - Movable item&lt;br/&gt;"/><marker lat="40.466877756870879" lng="-79.994177935104844" zone="Zone 1" incidentdate="2015-12-09" incidenttime="09:40:00" incidentnumber="15235086" address="100 block Rhine Pl" type="OFFENSE" age="" gender="" description="*********************************************** &lt;br/&gt;9999, 9999 - (Misc. Incident):&lt;br/&gt;"/><marker lat="40.438367888293556" lng="-80.004376760638351" zone="Zone 2" incidentdate="2015-12-09" incidenttime="02:02:00" incidentnumber="15234931" address="100 block 1st Ave" type="OFFENSE" age="" gender="" description="*********************************************** &lt;br/&gt;9488, False  Burglar Alarm&lt;br/&gt;"/><marker lat="40.414365639085922" lng="-79.990515118133288" zone="Zone 3" incidentdate="2015-12-09" incidenttime="19:15:00" incidentnumber="15235502" address="Knox Ave &amp; Bausman St" type="OFFENSE" age="" gender="" description="*********************************************** &lt;br/&gt;3304, Criminal Mischief.&lt;br/&gt;"/><marker lat="40.462184881409343" lng="-79.910994180283993" zone="Zone 5" incidentdate="2015-12-09" incidenttime="18:00:00" incidentnumber="15235448" address="500 block Lowell St" type="OFFENSE" age="" gender="" description="*********************************************** &lt;br/&gt;9090, Recovered Firearm&lt;br/&gt;"/><marker lat="40.459241184494772" lng="-80.005548013998464" zone="Zone 1" incidentdate="2015-12-09" incidenttime="14:00:00" incidentnumber="15235256" address="1600 block Sandusky Ct" type="OFFENSE" age="" gender="" description="*********************************************** &lt;br/&gt;3745, Accidents Involving Damage to Unattended Veh.or Prop.&lt;br/&gt;"/><marker lat="40.46755429268579" lng="-79.919308675599808" zone="Zone 6" incidentdate="2015-12-09" incidenttime="18:14:00" incidentnumber="15235417" address="700 block Sheraden Blvd" type="OFFENSE" age="" gender="" description="*********************************************** &lt;br/&gt;8106, Shots Fired&lt;br/&gt;"/><marker lat="40.458145456551087" lng="-79.989782292941541" zone="Zone 1" incidentdate="2015-12-09" incidenttime="08:15:00" incidentnumber="15235053" address="1300 block Goettmann St" type="OFFENSE" age="" gender="" description="*********************************************** &lt;br/&gt;3502, Burglary.&lt;br/&gt;"/><marker lat="40.432542791990649" lng="-79.92435381355665" zone="Zone 4" incidentdate="2015-12-09" incidenttime="00:01:00" incidentnumber="15234888" address="5700 block Hobart St" type="OFFENSE" age="" gender="" description="*********************************************** &lt;br/&gt;029, Missing Juvenile&lt;br/&gt;"/><marker lat="40.45147201895437" lng="-79.882470302843942" zone="Zone 5" incidentdate="2015-12-09" incidenttime="18:07:00" incidentnumber="15235410" address="600 block Sickles St" type="OFFENSE" age="" gender="" description="*********************************************** &lt;br/&gt;3743, Accidents Involving Damage to Attended Veh. or Property&lt;br/&gt;"/><marker lat="40.489613629341036" lng="-80.018113956283486" zone="Zone 1" incidentdate="2015-12-09" incidenttime="06:58:00" incidentnumber="15235309" address="3900 block Perrysville Ave" type="OFFENSE" age="" gender="" description="*********************************************** &lt;br/&gt;3922, Theft by Deception.&lt;br/&gt;"/><marker lat="40.442157005864999" lng="-79.994958416960131" zone="Zone 2" incidentdate="2015-12-09" incidenttime="16:15:00" incidentnumber="15235353" address="Grant St &amp; 7th Ave" type="OFFENSE" age="" gender="" description="*********************************************** &lt;br/&gt;9999, 9999 - (Misc. Incident):&lt;br/&gt;"/><marker lat="40.466361564628137" lng="-80.025784730614262" zone="Zone 1" incidentdate="2015-12-09" incidenttime="03:45:00" incidentnumber="15235197" address="1100 block New Hampshire Dr" type="OFFENSE" age="" gender="" description="*********************************************** &lt;br/&gt;3304, Criminal Mischief.&lt;br/&gt;3934, Theft from Vehicle&lt;br/&gt;"/><marker lat="40.434348049519336" lng="-80.006335021862654" zone="Zone 3" incidentdate="2015-12-09" incidenttime="15:20:00" incidentnumber="15235294" address="300 block Station Square Dr W" type="OFFENSE" age="" gender="" description="*********************************************** &lt;br/&gt;3745, Accidents Involving Damage to Unattended Veh.or Prop.&lt;br/&gt;"/><marker lat="40.425652952938002" lng="-79.934473311105776" zone="Zone 4" incidentdate="2015-12-09" incidenttime="15:00:00" incidentnumber="15235457" address="800 block Mirror St" type="OFFENSE" age="" gender="" description="*********************************************** &lt;br/&gt;3745, Accidents Involving Damage to Unattended Veh.or Prop.&lt;br/&gt;"/><marker lat="40.442699834204745" lng="-80.002206793246714" zone="Zone 2" incidentdate="2015-12-09" incidenttime="10:00:00" incidentnumber="15235395" address="200 block 6th St" type="OFFENSE" age="" gender="" description="*********************************************** &lt;br/&gt;3502, Burglary.&lt;br/&gt;"/><marker lat="40.45015230580578" lng="-80.045078696802776" zone="Zone 6" incidentdate="2015-12-09" incidenttime="21:28:00" incidentnumber="15235519" address="Chartiers Ave &amp; Corliss St" type="OFFENSE" age="" gender="" description="*********************************************** &lt;br/&gt;13(a)(16), Possession of Controlled Substance&lt;br/&gt;4303, General Lighting Requirements.&lt;br/&gt;"/><marker lat="40.437391508303115" lng="-79.982508210108563" zone="Zone 2" incidentdate="2015-12-09" incidenttime="16:00:00" incidentnumber="15235284" address="1700 block Forbes Ave" type="OFFENSE" age="" gender="" description="*********************************************** &lt;br/&gt;13(a)(32), Paraphernalia - Use or Possession&lt;br/&gt;"/><marker lat="40.443935256531574" lng="-80.055370894566948" zone="Zone 6" incidentdate="2015-12-09" incidenttime="02:06:00" incidentnumber="15234934" address="Steuben St &amp; Middletown Rd" type="OFFENSE" age="" gender="" description="*********************************************** &lt;br/&gt;3743, Accidents Involving Damage to Attended Veh. or Property&lt;br/&gt;"/><marker lat="40.4550206" lng="-80.0558082" zone="Zone 6" incidentdate="2015-12-09" incidenttime="16:05:00" incidentnumber="15235314" address="700 block Sherwood Ave" type="OFFENSE" age="" gender="" description="*********************************************** &lt;br/&gt;2701, Simple Assault.&lt;br/&gt;903, Criminal Conspiracy.&lt;br/&gt;"/><marker lat="40.4550206" lng="-80.0558082" zone="Zone 6" incidentdate="2015-12-09" incidenttime="17:45:00" incidentnumber="15235391" address="700 block Sherwood Ave" type="OFFENSE" age="" gender="" description="*********************************************** &lt;br/&gt;2701, Simple Assault.&lt;br/&gt;"/><marker lat="40.460672464720588" lng="-79.988541430999106" zone="Zone 1" incidentdate="2015-12-09" incidenttime="07:19:00" incidentnumber="15235025" address="1300 block Tell St" type="OFFENSE" age="" gender="" description="*********************************************** &lt;br/&gt;2701, Simple Assault.&lt;br/&gt;"/><marker lat="40.457245452030563" lng="-80.01021908963709" zone="Zone 1" incidentdate="2015-12-09" incidenttime="12:00:00" incidentnumber="15235292" address="1400 block Sherman Ave" type="OFFENSE" age="" gender="" description="*********************************************** &lt;br/&gt;3304, Criminal Mischief.&lt;br/&gt;3921, Theft by Unlawful Taking or Disposition.&lt;br/&gt;"/><marker lat="40.467491969520502" lng="-80.030225176204013" zone="Zone 1" incidentdate="2015-12-09" incidenttime="01:50:00" incidentnumber="15133493" address="1300 block Highwood St" type="ARREST" age="29" gender="M" description="*********************************************** &lt;br/&gt;3921(a), Theft by Unlawful Taking or Disposition - Movable item&lt;br/&gt;517.8(A1), Improvement Fraud&lt;br/&gt;"/><marker lat="40.430837591444103" lng="-80.00741602085877" zone="Zone 3" incidentdate="2015-12-09" incidenttime="17:15:00" incidentnumber="15217637" address="100 block W Sycamore St" type="ARREST" age="23" gender="M" description="*********************************************** &lt;br/&gt;3502, Burglary.&lt;br/&gt;3921, Theft by Unlawful Taking or Disposition.&lt;br/&gt;3925, Receiving Stolen Property.&lt;br/&gt;"/><marker lat="40.460672464720588" lng="-79.988541430999106" zone="Zone 1" incidentdate="2015-12-09" incidenttime="11:00:00" incidentnumber="15235025" address="1300 block Tell St" type="ARREST" age="51" gender="F" description="*********************************************** &lt;br/&gt;2701, Simple Assault.&lt;br/&gt;"/><marker lat="40.382356783041914" lng="-79.976934723729002" zone="Zone 3" incidentdate="2015-12-09" incidenttime="09:00:00" incidentnumber="15136814" address="2900 block Brownsville Rd" type="ARREST" age="24" gender="M" description="*********************************************** &lt;br/&gt;3701, Robbery.&lt;br/&gt;903, Criminal Conspiracy.&lt;br/&gt;"/><marker lat="40.442465287182827" lng="-79.969989365185654" zone="Zone 2" incidentdate="2015-12-09" incidenttime="20:00:00" incidentnumber="15216844" address="400 block Garner Ct" type="ARREST" age="25" gender="M" description="*********************************************** &lt;br/&gt;2701(a)(1), Simple Assault - Intent., Know., Reckless.Cause Bod. Injury&lt;br/&gt;2701(a)(3), Simple Assault - Attempts by Physical Menace&lt;br/&gt;"/><marker lat="40.45015230580578" lng="-80.045078696802776" zone="Zone 6" incidentdate="2015-12-09" incidenttime="21:20:00" incidentnumber="15235519" address="Chartiers Ave &amp; Corliss St" type="ARREST" age="21" gender="M" description="*********************************************** &lt;br/&gt;13(a)(16), Possession of Controlled Substance&lt;br/&gt;4303, General Lighting Requirements.&lt;br/&gt;"/><marker lat="40.443182637881215" lng="-80.00022096572269" zone="Zone 2" incidentdate="2015-12-09" incidenttime="11:30:00" incidentnumber="15212249" address="700 block Penn Ave" type="ARREST" age="17" gender="M" description="*********************************************** &lt;br/&gt;3701, Robbery.&lt;br/&gt;"/><marker lat="40.427168151484665" lng="-79.977741347784132" zone="Zone 3" incidentdate="2015-12-09" incidenttime="17:15:00" incidentnumber="15209510" address="2000 block Larkins Way" type="ARREST" age="23" gender="M" description="*********************************************** &lt;br/&gt;3502, Burglary.&lt;br/&gt;3921, Theft by Unlawful Taking or Disposition.&lt;br/&gt;3925, Receiving Stolen Property.&lt;br/&gt;"/><marker lat="40.393178860990766" lng="-79.985244154128225" zone="Zone 3" incidentdate="2015-12-09" incidenttime="10:00:00" incidentnumber="15208588" address="100 block E Woodford Ave" type="ARREST" age="33" gender="M" description="*********************************************** &lt;br/&gt;3925, Receiving Stolen Property.&lt;br/&gt;"/><marker lat="40.427659731284727" lng="-79.993877173245835" zone="Zone 3" incidentdate="2015-12-09" incidenttime="22:24:00" incidentnumber="15235520" address="Windom Hill Pl" type="ARREST" age="33" gender="M" description="*********************************************** &lt;br/&gt;3921(a), Theft by Unlawful Taking or Disposition - Movable item&lt;br/&gt;3701, Robbery.&lt;br/&gt;2701(a)(3), Simple Assault - Attempts by Physical Menace&lt;br/&gt;"/><marker lat="40.457644669440079" lng="-80.056984913637734" zone="Zone 6" incidentdate="2015-12-09" incidenttime="19:47:00" incidentnumber="15235456" address="3200 block Ashlyn St" type="ARREST" age="35" gender="M" description="*********************************************** &lt;br/&gt;13(a)(31), Marijuana: Possession Small Amount&lt;br/&gt;3736, Reckless Driving&lt;br/&gt;1543, Driving While Operating Privilege is Suspended or Revoked.&lt;br/&gt;5121, Escape.&lt;br/&gt;3733, Fleeing or Attempting to Elude Police Officer&lt;br/&gt;3323, Stop Signs and Yield Signs.&lt;br/&gt;1301, Registration and Certificate of Title Required.&lt;br/&gt;"/><marker lat="40.437391508303115" lng="-79.982508210108563" zone="Zone 2" incidentdate="2015-12-09" incidenttime="16:00:00" incidentnumber="15235284" address="1700 block Forbes Ave" type="ARREST" age="29" gender="M" description="*********************************************** &lt;br/&gt;13(a)(32), Paraphernalia - Use or Possession&lt;br/&gt;"/><marker lat="40.41888675413233" lng="-79.971017403577463" zone="Zone 3" incidentdate="2015-12-09" incidenttime="09:00:00" incidentnumber="15145445" address="1400 block Clover St" type="ARREST" age="29" gender="F" description="*********************************************** &lt;br/&gt;2705, Recklessly Endangering Another Person.&lt;br/&gt;2702, Aggravated Assault.&lt;br/&gt;3304(a)(5), CRIMINAL MISCHIEF - Intentionally Damages Real Or Personal Property Of Another&lt;br/&gt;607.03, Discharging Firearm or Airgun&lt;br/&gt;2706, Terroristic Threats.&lt;br/&gt;"/><marker lat="40.411336685894881" lng="-79.990390740620356" zone="Zone 3" incidentdate="2015-12-09" incidenttime="20:52:00" incidentnumber="15235484" address="200 block Moore Ave" type="ARREST" age="33" gender="M" description="*********************************************** &lt;br/&gt;2701, Simple Assault.&lt;br/&gt;"/><marker lat="40.452868692947852" lng="-79.896447075123959" zone="Zone 5" incidentdate="2015-12-09" incidenttime="10:00:00" incidentnumber="15163299" address="7300 block Susquehanna St" type="ARREST" age="21" gender="M" description="*********************************************** &lt;br/&gt;3502, Burglary.&lt;br/&gt;2701, Simple Assault.&lt;br/&gt;"/><marker lat="40.490599330523665" lng="-80.010706814817325" zone="Zone 1" incidentdate="2015-12-09" incidenttime="11:00:00" incidentnumber="15197109" address="3900 block Evergreen Rd" type="ARREST" age="42" gender="M" description="*********************************************** &lt;br/&gt;4304(a)(1), Endangering Welfare of Children - Course of Conduct Enhanced&lt;br/&gt;2701, Simple Assault.&lt;br/&gt;"/><marker lat="40.453503033880601" lng="-80.00053544678407" zone="Zone 1" incidentdate="2015-12-09" incidenttime="13:45:00" incidentnumber="15235215" address="700 block James St" type="ARREST" age="43" gender="M" description="*********************************************** &lt;br/&gt;13(a)(16), Possession of Controlled Substance&lt;br/&gt;"/><marker lat="40.425535639433569" lng="-80.002978818959178" zone="Zone 3" incidentdate="2015-12-09" incidenttime="17:15:00" incidentnumber="15190847" address="Haberman Ave" type="ARREST" age="23" gender="M" description="*********************************************** &lt;br/&gt;3502, Burglary.&lt;br/&gt;3925, Receiving Stolen Property.&lt;br/&gt;"/><marker lat="40.435095503606554" lng="-79.993077686753679" zone="Zone 2" incidentdate="2015-12-09" incidenttime="12:45:00" incidentnumber="15203681" address="900 block 2ND Ave" type="ARREST" age="47" gender="M" description="*********************************************** &lt;br/&gt;4915, Failure to Comply with Megans Law&lt;br/&gt;"/></markers>
