<?xml version="1.0"?>
<markers><marker lat="40.467297934671024" lng="-79.918616759600511" zone="Zone 5" incidentdate="2015-02-11" incidenttime="07:30:00" incidentnumber="15024932" address="800 block Collins Ave" type="OFFENSE" age="" gender="" description="*********************************************** &lt;br/&gt;3304(a)(4), CRIMINAL MISCHIEF- Intentionally Damage Property (By Graffiti, Aerosol Spray Paint, Broad Tip Marker, or Similar)&lt;br/&gt;"/><marker lat="40.461414099706971" lng="-79.92481805202975" zone="Zone 5" incidentdate="2015-02-11" incidenttime="19:00:00" incidentnumber="15025285" address="Penn Ave &amp; N Highland Ave" type="OFFENSE" age="" gender="" description="*********************************************** &lt;br/&gt;9504, Lost Property&lt;br/&gt;"/><marker lat="40.454805394016809" lng="-79.89936146663365" zone="Zone 5" incidentdate="2015-02-11" incidenttime="08:40:00" incidentnumber="15024953" address="7100 block Hamilton Ave" type="OFFENSE" age="" gender="" description="*********************************************** &lt;br/&gt;9999, 9999 - (Misc. Incident):&lt;br/&gt;"/><marker lat="40.467465940925841" lng="-79.908833274714695" zone="Zone 5" incidentdate="2015-02-11" incidenttime="19:00:00" incidentnumber="15025242" address="1300 block Washington Blvd" type="OFFENSE" age="" gender="" description="*********************************************** &lt;br/&gt;9999, 9999 - (Misc. Incident):&lt;br/&gt;"/><marker lat="40.465433729962889" lng="-79.934660774497047" zone="Zone 5" incidentdate="2015-02-11" incidenttime="20:40:00" incidentnumber="15025300" address="Broad St &amp; N Graham St" type="OFFENSE" age="" gender="" description="*********************************************** &lt;br/&gt;13(a)(16), Possession of Controlled Substance&lt;br/&gt;13(a)(30), Possession w/ Intent to Del. Controlled Substance&lt;br/&gt;13(a)(32), Paraphernalia - Use or Possession&lt;br/&gt;6110.2, Possesion of Firearm with Altered Mfg. Number&lt;br/&gt;6106, Firearms not to be Carried without a License.&lt;br/&gt;3334, Turning Movements and Required Signals.&lt;br/&gt;"/><marker lat="40.416127822623537" lng="-79.974588087598846" zone="Zone 3" incidentdate="2015-02-11" incidenttime="00:30:00" incidentnumber="15024931" address="2300 block Spring St" type="OFFENSE" age="" gender="" description="*********************************************** &lt;br/&gt;3304, Criminal Mischief.&lt;br/&gt;3934, Theft from Vehicle&lt;br/&gt;"/><marker lat="40.418136157275576" lng="-79.974260178519685" zone="Zone 3" incidentdate="2015-02-11" incidenttime="08:00:00" incidentnumber="15024924" address="2300 block Eccles St" type="OFFENSE" age="" gender="" description="*********************************************** &lt;br/&gt;3304, Criminal Mischief.&lt;br/&gt;3934, Theft from Vehicle&lt;br/&gt;"/><marker lat="40.443175141980426" lng="-79.953544848229939" zone="Zone 4" incidentdate="2015-02-11" incidenttime="22:09:00" incidentnumber="15025336" address="Forbes Ave &amp; Bigelow Blvd" type="OFFENSE" age="" gender="" description="*********************************************** &lt;br/&gt;13(a)(31), Marijuana: Possession Small Amount&lt;br/&gt;4910, Tampering with or Fabricating Physical Evidence.&lt;br/&gt;3112, Traffic-Control Signals.&lt;br/&gt;13(a)(32), Paraphernalia - Use or Possession&lt;br/&gt;"/><marker lat="40.483676145885518" lng="-80.038478612877768" zone="Zone 1" incidentdate="2015-02-11" incidenttime="14:17:00" incidentnumber="15025067" address="1500 block Cooper Ave" type="OFFENSE" age="" gender="" description="*********************************************** &lt;br/&gt;13(a)(16), Possession of Controlled Substance&lt;br/&gt;13(a)(30), Possession w/ Intent to Del. Controlled Substance&lt;br/&gt;3323, Stop Signs and Yield Signs.&lt;br/&gt;3733, Fleeing or Attempting to Elude Police Officer&lt;br/&gt;3334, Turning Movements and Required Signals.&lt;br/&gt;"/><marker lat="40.480351496503999" lng="-80.010099601603486" zone="Zone 1" incidentdate="2015-02-11" incidenttime="17:00:00" incidentnumber="15025323" address="100 block Watson Blvd" type="OFFENSE" age="" gender="" description="*********************************************** &lt;br/&gt;9124, Drug Investigation&lt;br/&gt;"/><marker lat="40.42155201085292" lng="-79.99720376810096" zone="Zone 3" incidentdate="2015-02-11" incidenttime="16:19:00" incidentnumber="15025125" address="600 block E Warrington Ave" type="OFFENSE" age="" gender="" description="*********************************************** &lt;br/&gt;2701(a)(3), Simple Assault - Attempts by Physical Menace&lt;br/&gt;3925, Receiving Stolen Property.&lt;br/&gt;2705, Recklessly Endangering Another Person.&lt;br/&gt;6110.2, Possesion of Firearm with Altered Mfg. Number&lt;br/&gt;"/><marker lat="40.484550069346753" lng="-80.035692783449747" zone="Zone 1" incidentdate="2015-02-11" incidenttime="12:40:00" incidentnumber="15025078" address="3800 block Brighton Rd" type="OFFENSE" age="" gender="" description="*********************************************** &lt;br/&gt;13(a)(32), Paraphernalia - Use or Possession&lt;br/&gt;"/><marker lat="40.480061447617878" lng="-80.027129768412976" zone="Zone 1" incidentdate="2015-02-11" incidenttime="17:03:00" incidentnumber="15025167" address="900 block Woods Run Ave" type="OFFENSE" age="" gender="" description="*********************************************** &lt;br/&gt;2709(a), Harassment.&lt;br/&gt;"/><marker lat="40.418768356120303" lng="-79.974154917908024" zone="Zone 3" incidentdate="2015-02-11" incidenttime="07:30:00" incidentnumber="15024918" address="2300 block Salisbury St" type="OFFENSE" age="" gender="" description="*********************************************** &lt;br/&gt;3304, Criminal Mischief.&lt;br/&gt;"/><marker lat="40.426629192405649" lng="-79.950020484556703" zone="Zone 4" incidentdate="2015-02-11" incidenttime="18:40:00" incidentnumber="15025227" address="3800 block Acorn St" type="OFFENSE" age="" gender="" description="*********************************************** &lt;br/&gt;7513, Restriction on Alcoholic Beverages - Open Container&lt;br/&gt;5505, Public Drunkenness&lt;br/&gt;"/><marker lat="40.425586511852678" lng="-80.010454954852008" zone="Zone 3" incidentdate="2015-02-11" incidenttime="02:50:00" incidentnumber="15024202" address="400 block Norton St" type="OFFENSE" age="" gender="" description="*********************************************** &lt;br/&gt;2701, Simple Assault.&lt;br/&gt;"/><marker lat="40.460381100494189" lng="-80.009781887918692" zone="Zone 1" incidentdate="2015-02-11" incidenttime="20:31:00" incidentnumber="15025299" address="1700 block Perrysville Ave" type="OFFENSE" age="" gender="" description="*********************************************** &lt;br/&gt;3502, Burglary.&lt;br/&gt;"/><marker lat="40.437694537589067" lng="-79.972643159209809" zone="Zone 2" incidentdate="2015-02-11" incidenttime="21:35:00" incidentnumber="15025327" address="5th Ave &amp; Birmingham Brg" type="OFFENSE" age="" gender="" description="*********************************************** &lt;br/&gt;3714, Careless Driving&lt;br/&gt;1543, Driving While Operating Privilege is Suspended or Revoked.&lt;br/&gt;13(a)(16), Possession of Controlled Substance&lt;br/&gt;13(a)(30), Possession w/ Intent to Del. Controlled Substance&lt;br/&gt;3323, Stop Signs and Yield Signs.&lt;br/&gt;3703, Driving Upon Sidewalk.&lt;br/&gt;3308, One-Way Roadways and Rotary Traffic Islands.&lt;br/&gt;3736, Reckless Driving&lt;br/&gt;3112, Traffic-Control Signals.&lt;br/&gt;3733, Fleeing or Attempting to Elude Police Officer&lt;br/&gt;2705, Recklessly Endangering Another Person.&lt;br/&gt;3743, Accidents Involving Damage to Attended Veh. or Property&lt;br/&gt;"/><marker lat="40.427541855392327" lng="-79.977596384534849" zone="Zone 3" incidentdate="2015-02-11" incidenttime="04:00:00" incidentnumber="15024911" address="2000 block Sarah St" type="OFFENSE" age="" gender="" description="*********************************************** &lt;br/&gt;2709, Harassment (Non-Specific)&lt;br/&gt;"/><marker lat="40.479829245655225" lng="-80.001901444196207" zone="Zone 1" incidentdate="2015-02-11" incidenttime="00:25:00" incidentnumber="15024805" address="400 block Mt Pleasant Rd" type="OFFENSE" age="" gender="" description="*********************************************** &lt;br/&gt;9488, False  Burglar Alarm&lt;br/&gt;"/><marker lat="40.443336606679345" lng="-80.028791309734899" zone="Zone 3" incidentdate="2015-02-11" incidenttime="17:40:00" incidentnumber="15025205" address="S Main St &amp; West End Cir" type="OFFENSE" age="" gender="" description="*********************************************** &lt;br/&gt;3743, Accidents Involving Damage to Attended Veh. or Property&lt;br/&gt;"/><marker lat="40.438601293806705" lng="-79.95334729494455" zone="Zone 4" incidentdate="2015-02-11" incidenttime="17:30:00" incidentnumber="15025162" address="3800 block Bates St" type="OFFENSE" age="" gender="" description="*********************************************** &lt;br/&gt;9130, Graffiti Investigation&lt;br/&gt;"/><marker lat="40.418611314894143" lng="-79.993550885700472" zone="Zone 3" incidentdate="2015-02-11" incidenttime="18:30:00" incidentnumber="15025276" address="800 block Lillian Way" type="OFFENSE" age="" gender="" description="*********************************************** &lt;br/&gt;3934, Theft from Vehicle&lt;br/&gt;"/><marker lat="40.478363988687164" lng="-79.955435483733993" zone="Zone 2" incidentdate="2015-02-11" incidenttime="18:39:00" incidentnumber="15025233" address="5100 block Butler St" type="OFFENSE" age="" gender="" description="*********************************************** &lt;br/&gt;2701, Simple Assault.&lt;br/&gt;"/><marker lat="40.397428461837784" lng="-80.018776428925733" zone="Zone 6" incidentdate="2015-02-11" incidenttime="22:15:00" incidentnumber="15025343" address="2400 block Wolford St" type="OFFENSE" age="" gender="" description="*********************************************** &lt;br/&gt;3304, Criminal Mischief.&lt;br/&gt;901, Criminal Attempt&lt;br/&gt;"/><marker lat="40.436036005233959" lng="-79.985455385193148" zone="Zone 2" incidentdate="2015-02-11" incidenttime="10:40:00" incidentnumber="15024978" address="1400 block Locust St" type="OFFENSE" age="" gender="" description="*********************************************** &lt;br/&gt;2709(a), Harassment.&lt;br/&gt;"/><marker lat="40.438610014203924" lng="-79.968020290435504" zone="Zone 2" incidentdate="2015-02-11" incidenttime="00:29:00" incidentnumber="15024808" address="200 block Burrows St" type="OFFENSE" age="" gender="" description="*********************************************** &lt;br/&gt;2702, Aggravated Assault.&lt;br/&gt;2701, Simple Assault.&lt;br/&gt;"/><marker lat="40.438055922456748" lng="-79.953951852261469" zone="Zone 4" incidentdate="2015-02-11" incidenttime="08:00:00" incidentnumber="15024960" address="400 block Atwood St" type="OFFENSE" age="" gender="" description="*********************************************** &lt;br/&gt;3304, Criminal Mischief.&lt;br/&gt;"/><marker lat="40.455479200809719" lng="-80.030827820910446" zone="Zone 1" incidentdate="2015-02-11" incidenttime="11:43:00" incidentnumber="15025001" address="1600 block Metropolitan St" type="OFFENSE" age="" gender="" description="*********************************************** &lt;br/&gt;9999, 9999 - (Misc. Incident):&lt;br/&gt;"/><marker lat="40.486117473705356" lng="-80.033424857721329" zone="Zone 1" incidentdate="2015-02-11" incidenttime="16:30:00" incidentnumber="15025172" address="1200 block Benton Ave" type="OFFENSE" age="" gender="" description="*********************************************** &lt;br/&gt;2709(a)(1), Harassment by Physical Contact, or Attempts or Threats&lt;br/&gt;"/><marker lat="40.469731647057117" lng="-80.027507012884371" zone="Zone 1" incidentdate="2015-02-11" incidenttime="12:45:00" incidentnumber="15025270" address="1200 block Woodland Ave" type="OFFENSE" age="" gender="" description="*********************************************** &lt;br/&gt;3921, Theft by Unlawful Taking or Disposition.&lt;br/&gt;"/><marker lat="40.459316941946291" lng="-79.937052134891005" zone="Zone 5" incidentdate="2015-02-11" incidenttime="14:00:00" incidentnumber="15025244" address="400 block S Graham St" type="OFFENSE" age="" gender="" description="*********************************************** &lt;br/&gt;3921(a), Theft by Unlawful Taking or Disposition - Movable item&lt;br/&gt;"/><marker lat="40.454597805259198" lng="-79.888458159289598" zone="Zone 5" incidentdate="2015-02-11" incidenttime="11:55:00" incidentnumber="15025007" address="Brushton Ave &amp; Bennett St" type="OFFENSE" age="" gender="" description="*********************************************** &lt;br/&gt;13(a)(16), Possession of Controlled Substance&lt;br/&gt;1543, Driving While Operating Privilege is Suspended or Revoked.&lt;br/&gt;4703, Operation of Vehicle without Official Certif. of Inspection&lt;br/&gt;9501, Bench Warrant&lt;br/&gt;4706, Prohib. on Expend. for Emission Insp Prog..&lt;br/&gt;5123, Contraband.&lt;br/&gt;"/><marker lat="40.451956456961845" lng="-80.054380274125705" zone="Zone 6" incidentdate="2015-02-11" incidenttime="11:43:00" incidentnumber="15025002" address="700 block Litchfield St" type="OFFENSE" age="" gender="" description="*********************************************** &lt;br/&gt;2709, Harassment (Non-Specific)&lt;br/&gt;"/><marker lat="40.415843495116036" lng="-80.003895193369019" zone="Zone 3" incidentdate="2015-02-11" incidenttime="20:45:00" incidentnumber="15025303" address="Michigan St &amp; Delmont Ave" type="OFFENSE" age="" gender="" description="*********************************************** &lt;br/&gt;9999, 9999 - (Misc. Incident):&lt;br/&gt;"/><marker lat="40.456597816414458" lng="-79.967698429169602" zone="Zone 2" incidentdate="2015-02-11" incidenttime="06:25:00" incidentnumber="15024947" address="3100 block Dobson St" type="OFFENSE" age="" gender="" description="*********************************************** &lt;br/&gt;1786, Required Financial Responsibility.&lt;br/&gt;"/><marker lat="40.440280966182222" lng="-79.993432845850279" zone="Zone 4" incidentdate="2015-02-11" incidenttime="20:00:00" incidentnumber="15025284" address="4600 block Centre Ave" type="OFFENSE" age="" gender="" description="*********************************************** &lt;br/&gt;9489, Found Property&lt;br/&gt;"/><marker lat="40.421277835067528" lng="-79.995283254493202" zone="Zone 3" incidentdate="2015-02-11" incidenttime="16:14:00" incidentnumber="15025128" address="Manton Way &amp; Eugenie Way" type="OFFENSE" age="" gender="" description="*********************************************** &lt;br/&gt;13(a)(30)*, Delivery of Controlled Substance&lt;br/&gt;13(a)(16), Possession of Controlled Substance&lt;br/&gt;13(a)(30), Possession w/ Intent to Del. Controlled Substance&lt;br/&gt;"/><marker lat="40.465157804159951" lng="-79.922171643415098" zone="Zone 5" incidentdate="2015-02-11" incidenttime="02:03:00" incidentnumber="15024850" address="400 block N Highland Ave" type="OFFENSE" age="" gender="" description="*********************************************** &lt;br/&gt;9501, Bench Warrant&lt;br/&gt;"/><marker lat="40.473333488811335" lng="-80.000257757805727" zone="Zone 1" incidentdate="2015-02-11" incidenttime="09:12:00" incidentnumber="15024943" address="2600 block Sunset Ave" type="OFFENSE" age="" gender="" description="*********************************************** &lt;br/&gt;9488, False  Burglar Alarm&lt;br/&gt;"/><marker lat="40.399184649147095" lng="-80.025493435297477" zone="Zone 6" incidentdate="2015-02-11" incidenttime="19:15:00" incidentnumber="15025253" address="2500 block West Liberty Ave" type="OFFENSE" age="" gender="" description="*********************************************** &lt;br/&gt;1543, Driving While Operating Privilege is Suspended or Revoked.&lt;br/&gt;13(a)(16), Possession of Controlled Substance&lt;br/&gt;5104, Resisting Arrest or Other Law Enforcement.&lt;br/&gt;"/><marker lat="40.454026450549442" lng="-79.885648948961446" zone="Zone 5" incidentdate="2015-02-11" incidenttime="01:22:00" incidentnumber="15024830" address="Oakwood St &amp; Bennett St" type="OFFENSE" age="" gender="" description="*********************************************** &lt;br/&gt;3303, Overtaking Vehicle on the Left.&lt;br/&gt;3733, Fleeing or Attempting to Elude Police Officer&lt;br/&gt;3736, Reckless Driving&lt;br/&gt;"/><marker lat="40.467282453311789" lng="-79.918502493357437" zone="Zone 5" incidentdate="2015-02-11" incidenttime="19:06:00" incidentnumber="15025251" address="6200 block Huntress St" type="OFFENSE" age="" gender="" description="*********************************************** &lt;br/&gt;2702, Aggravated Assault.&lt;br/&gt;"/><marker lat="40.47452965780257" lng="-80.028667696752336" zone="Zone 1" incidentdate="2015-02-11" incidenttime="01:00:00" incidentnumber="15025105" address="3100 block Sorento St" type="OFFENSE" age="" gender="" description="*********************************************** &lt;br/&gt;3745, Accidents Involving Damage to Unattended Veh.or Prop.&lt;br/&gt;"/><marker lat="40.471012276973703" lng="-80.016772844247583" zone="Zone 1" incidentdate="2015-02-11" incidenttime="16:29:00" incidentnumber="15025143" address="500 block Marshall Ave" type="OFFENSE" age="" gender="" description="*********************************************** &lt;br/&gt;9497, Aided Case&lt;br/&gt;"/><marker lat="40.409886040514401" lng="-79.99132858247529" zone="Zone 3" incidentdate="2015-02-11" incidenttime="14:00:00" incidentnumber="15025095" address="800 block Roll Way" type="OFFENSE" age="" gender="" description="*********************************************** &lt;br/&gt;4120, Identity Theft&lt;br/&gt;"/><marker lat="40.441851399571895" lng="-79.92540568860268" zone="Zone 4" incidentdate="2015-02-11" incidenttime="14:30:00" incidentnumber="15025312" address="5700 block Woodmont St" type="OFFENSE" age="" gender="" description="*********************************************** &lt;br/&gt;4106, Access Device Fraud&lt;br/&gt;4120, Identity Theft&lt;br/&gt;"/><marker lat="40.441234571705877" lng="-80.003477050749922" zone="Zone 2" incidentdate="2015-02-11" incidenttime="07:45:00" incidentnumber="15024926" address="500 block Liberty Ave" type="OFFENSE" age="" gender="" description="*********************************************** &lt;br/&gt;3921(a), Theft by Unlawful Taking or Disposition - Movable item&lt;br/&gt;"/><marker lat="40.415843495116036" lng="-80.003895193369019" zone="Zone 4" incidentdate="2015-02-11" incidenttime="02:20:00" incidentnumber="15024852" address="100 block Kirkpatrick St &amp; Beelen St" type="OFFENSE" age="" gender="" description="*********************************************** &lt;br/&gt;3802(b), DUI - High Rate of Alchol - BAC &gt;=.10% &lt;.16%&lt;br/&gt;3802(a)(1), DUI - General Impairment&lt;br/&gt;"/><marker lat="40.480061447617878" lng="-80.027129768412976" zone="Zone 1" incidentdate="2015-02-11" incidenttime="17:15:00" incidentnumber="15025182" address="900 block woods run Ave" type="OFFENSE" age="" gender="" description="*********************************************** &lt;br/&gt;2709(a)(4), Harassment Communicates Prohibited Acts&lt;br/&gt;"/><marker lat="40.463165972626136" lng="-79.951881321732742" zone="Zone 5" incidentdate="2015-02-11" incidenttime="18:00:00" incidentnumber="15025214" address="300 block Ella St" type="OFFENSE" age="" gender="" description="*********************************************** &lt;br/&gt;3502, Burglary.&lt;br/&gt;"/><marker lat="40.456127163177364" lng="-80.015108866216636" zone="Zone 1" incidentdate="2015-02-11" incidenttime="03:46:00" incidentnumber="15024878" address="1300 block Brighton Rd" type="OFFENSE" age="" gender="" description="*********************************************** &lt;br/&gt;9488, False  Burglar Alarm&lt;br/&gt;"/><marker lat="40.470770679955066" lng="-79.924083299050579" zone="Zone 5" incidentdate="2015-02-11" incidenttime="13:37:00" incidentnumber="15025057" address="100 block N St. Clair St" type="OFFENSE" age="" gender="" description="*********************************************** &lt;br/&gt;9496, Dead on Arrival (DOA)&lt;br/&gt;"/><marker lat="40.45870687379368" lng="-79.888607322327985" zone="Zone 5" incidentdate="2015-02-11" incidenttime="20:15:00" incidentnumber="15025292" address="Brushton Ave &amp; Hermitage St" type="OFFENSE" age="" gender="" description="*********************************************** &lt;br/&gt;13(a)(31), Marijuana: Possession Small Amount&lt;br/&gt;"/><marker lat="40.451820149581188" lng="-80.059446491038642" zone="Zone 6" incidentdate="2015-02-11" incidenttime="01:26:00" incidentnumber="15024827" address="1100 block Hillsboro St" type="OFFENSE" age="" gender="" description="*********************************************** &lt;br/&gt;5506, Loitering and Prowling at Night&lt;br/&gt;"/><marker lat="40.469467329468863" lng="-79.918545990188122" zone="Zone 5" incidentdate="2015-02-11" incidenttime="07:15:00" incidentnumber="15024946" address="Sheridan Ave &amp; Bellman Way" type="OFFENSE" age="" gender="" description="*********************************************** &lt;br/&gt;3304(a)(4), CRIMINAL MISCHIEF- Intentionally Damage Property (By Graffiti, Aerosol Spray Paint, Broad Tip Marker, or Similar)&lt;br/&gt;"/><marker lat="40.457697893561857" lng="-80.065064142940514" zone="Zone 6" incidentdate="2015-02-11" incidenttime="14:31:00" incidentnumber="15025071" address="1100 block Moyer St" type="OFFENSE" age="" gender="" description="*********************************************** &lt;br/&gt;9488, False  Burglar Alarm&lt;br/&gt;"/><marker lat="40.433690729937041" lng="-80.019491545937441" zone="Zone 3" incidentdate="2015-02-11" incidenttime="17:50:00" incidentnumber="15025193" address="1200 block W Sycamore St" type="OFFENSE" age="" gender="" description="*********************************************** &lt;br/&gt;9501, Bench Warrant&lt;br/&gt;"/><marker lat="40.47452965780257" lng="-80.028667696752336" zone="Zone 1" incidentdate="2015-02-11" incidenttime="01:50:00" incidentnumber="15024839" address="West End Brg Ramp &amp; Ohio River Blvd" type="OFFENSE" age="" gender="" description="*********************************************** &lt;br/&gt;3714, Careless Driving&lt;br/&gt;3802(a)(1), DUI - General Impairment&lt;br/&gt;"/><marker lat="40.465157804159951" lng="-79.922171643415098" zone="Zone 5" incidentdate="2015-02-11" incidenttime="12:40:00" incidentnumber="15025025" address="400 block N Highland Ave" type="OFFENSE" age="" gender="" description="*********************************************** &lt;br/&gt;3929, Retail Theft.&lt;br/&gt;"/><marker lat="40.465346520898493" lng="-79.983183106905074" zone="Zone 1" incidentdate="2015-02-11" incidenttime="17:10:00" incidentnumber="15025273" address="1800 block Harpster St" type="OFFENSE" age="" gender="" description="*********************************************** &lt;br/&gt;9999, 9999 - (Misc. Incident):&lt;br/&gt;"/><marker lat="40.455593869338273" lng="-80.029823068037729" zone="Zone 1" incidentdate="2015-02-11" incidenttime="14:15:00" incidentnumber="15025064" address="2800 block Beaver Ave" type="OFFENSE" age="" gender="" description="*********************************************** &lt;br/&gt;9488, False  Burglar Alarm&lt;br/&gt;"/><marker lat="40.480351496503999" lng="-80.010099601603486" zone="Zone 1" incidentdate="2015-02-11" incidenttime="19:05:00" incidentnumber="15025248" address="100 block Watson Blvd" type="OFFENSE" age="" gender="" description="*********************************************** &lt;br/&gt;13(a)(32), Paraphernalia - Use or Possession&lt;br/&gt;4910, Tampering with or Fabricating Physical Evidence.&lt;br/&gt;"/><marker lat="40.441228428031053" lng="-80.002073791411135" zone="Zone 2" incidentdate="2015-02-11" incidenttime="17:10:00" incidentnumber="15025175" address="200 block 5th Ave" type="OFFENSE" age="" gender="" description="*********************************************** &lt;br/&gt;5123, Contraband.&lt;br/&gt;3353, Prohibitions in Specified Places.&lt;br/&gt;13(a)(32), Paraphernalia - Use or Possession&lt;br/&gt;9501, Bench Warrant&lt;br/&gt;"/><marker lat="40.464599212950745" lng="-79.899652537116339" zone="Zone 5" incidentdate="2015-02-11" incidenttime="16:00:00" incidentnumber="15025257" address="7000 block Apple Ave" type="OFFENSE" age="" gender="" description="*********************************************** &lt;br/&gt;3921(a), Theft by Unlawful Taking or Disposition - Movable item&lt;br/&gt;"/><marker lat="40.369684777778929" lng="-79.922200289662911" zone="Zone 4" incidentdate="2015-02-11" incidenttime="07:30:00" incidentnumber="15024917" address="900 block Mifflinridge Rd" type="OFFENSE" age="" gender="" description="*********************************************** &lt;br/&gt;2702, Aggravated Assault.&lt;br/&gt;2902, Unlawful Restraint.&lt;br/&gt;2706, Terroristic Threats.&lt;br/&gt;5104, Resisting Arrest or Other Law Enforcement.&lt;br/&gt;2701(a)(1), Simple Assault - Intent., Know., Reckless.Cause Bod. Injury&lt;br/&gt;"/><marker lat="40.491171083037642" lng="-80.019869774112294" zone="Zone 1" incidentdate="2015-02-11" incidenttime="15:49:00" incidentnumber="15025108" address="4000 block Perrysville Ave" type="OFFENSE" age="" gender="" description="*********************************************** &lt;br/&gt;9488, False  Burglar Alarm&lt;br/&gt;"/><marker lat="40.462222978466166" lng="-79.890920908365871" zone="Zone 5" incidentdate="2015-02-11" incidenttime="12:40:00" incidentnumber="15025030" address="1400 block Oakdene St" type="OFFENSE" age="" gender="" description="*********************************************** &lt;br/&gt;3502, Burglary.&lt;br/&gt;"/><marker lat="40.465433729962889" lng="-79.934660774497047" zone="Zone 5" incidentdate="2015-02-11" incidenttime="20:34:00" incidentnumber="15025300" address="Broad St &amp; N Graham St" type="ARREST" age="18" gender="M" description="*********************************************** &lt;br/&gt;13(a)(16), Possession of Controlled Substance&lt;br/&gt;13(a)(30), Possession w/ Intent to Del. Controlled Substance&lt;br/&gt;13(a)(32), Paraphernalia - Use or Possession&lt;br/&gt;6110.2, Possesion of Firearm with Altered Mfg. Number&lt;br/&gt;6106, Firearms not to be Carried without a License.&lt;br/&gt;3334, Turning Movements and Required Signals.&lt;br/&gt;"/><marker lat="40.425586511852678" lng="-80.010454954852008" zone="Zone 3" incidentdate="2015-02-11" incidenttime="02:51:00" incidentnumber="15024202" address="400 block Norton St" type="ARREST" age="31" gender="M" description="*********************************************** &lt;br/&gt;2701, Simple Assault.&lt;br/&gt;"/><marker lat="40.483676145885518" lng="-80.038478612877768" zone="Zone 1" incidentdate="2015-02-11" incidenttime="14:19:00" incidentnumber="15025067" address="1500 block Cooper Ave" type="ARREST" age="39" gender="M" description="*********************************************** &lt;br/&gt;13(a)(16), Possession of Controlled Substance&lt;br/&gt;13(a)(30), Possession w/ Intent to Del. Controlled Substance&lt;br/&gt;3323, Stop Signs and Yield Signs.&lt;br/&gt;3733, Fleeing or Attempting to Elude Police Officer&lt;br/&gt;3334, Turning Movements and Required Signals.&lt;br/&gt;"/><marker lat="40.434696587775576" lng="-79.996300985228572" zone="Zone 2" incidentdate="2015-02-11" incidenttime="09:05:00" incidentnumber="14200073" address="600 block 1st Ave" type="ARREST" age="32" gender="F" description="*********************************************** &lt;br/&gt;3929, Retail Theft.&lt;br/&gt;"/><marker lat="40.435095503606554" lng="-79.993077686753679" zone="Zone 2" incidentdate="2015-02-11" incidenttime="10:20:00" incidentnumber="14111343" address="900 block 2nd Ave" type="ARREST" age="48" gender="M" description="*********************************************** &lt;br/&gt;3925, Receiving Stolen Property.&lt;br/&gt;3922, Theft by Deception.&lt;br/&gt;"/><marker lat="40.465157804159951" lng="-79.922171643415098" zone="Zone 5" incidentdate="2015-02-11" incidenttime="12:40:00" incidentnumber="15025025" address="400 block N Highland Ave" type="ARREST" age="31" gender="M" description="*********************************************** &lt;br/&gt;3929, Retail Theft.&lt;br/&gt;"/><marker lat="40.454597805259198" lng="-79.888458159289598" zone="Zone 5" incidentdate="2015-02-11" incidenttime="12:15:00" incidentnumber="15025007" address="Brushton Ave &amp; Bennett St" type="ARREST" age="23" gender="F" description="*********************************************** &lt;br/&gt;13(a)(16), Possession of Controlled Substance&lt;br/&gt;1543, Driving While Operating Privilege is Suspended or Revoked.&lt;br/&gt;4703, Operation of Vehicle without Official Certif. of Inspection&lt;br/&gt;9501, Bench Warrant&lt;br/&gt;4706, Prohib. on Expend. for Emission Insp Prog..&lt;br/&gt;5123, Contraband.&lt;br/&gt;"/><marker lat="40.421277835067528" lng="-79.995283254493202" zone="Zone 3" incidentdate="2015-02-11" incidenttime="16:14:00" incidentnumber="15025128" address="Manton Way &amp; Eugenie Way" type="ARREST" age="44" gender="M" description="*********************************************** &lt;br/&gt;13(a)(30)*, Delivery of Controlled Substance&lt;br/&gt;13(a)(16), Possession of Controlled Substance&lt;br/&gt;13(a)(30), Possession w/ Intent to Del. Controlled Substance&lt;br/&gt;"/><marker lat="40.459907567660288" lng="-80.005930216500616" zone="Zone 1" incidentdate="2015-02-11" incidenttime="02:30:00" incidentnumber="14188609" address="1600 block Sandusky Ct" type="ARREST" age="20" gender="M" description="*********************************************** &lt;br/&gt;13(a)(31), Marijuana: Possession Small Amount&lt;br/&gt;"/><marker lat="40.441228428031053" lng="-80.002073791411135" zone="Zone 2" incidentdate="2015-02-11" incidenttime="17:10:00" incidentnumber="14064528" address="200 block 5th Ave" type="ARREST" age="33" gender="M" description="*********************************************** &lt;br/&gt;13(a)(16), Possession of Controlled Substance&lt;br/&gt;"/><marker lat="40.465157804159951" lng="-79.922171643415098" zone="Zone 5" incidentdate="2015-02-11" incidenttime="02:03:00" incidentnumber="15024850" address="400 block N Highland Ave" type="ARREST" age="21" gender="M" description="*********************************************** &lt;br/&gt;9501, Bench Warrant&lt;br/&gt;"/><marker lat="40.45870687379368" lng="-79.888607322327985" zone="Zone 5" incidentdate="2015-02-11" incidenttime="20:15:00" incidentnumber="15025292" address="Brushton Ave &amp; Hermitage St" type="ARREST" age="41" gender="M" description="*********************************************** &lt;br/&gt;13(a)(31), Marijuana: Possession Small Amount&lt;br/&gt;"/><marker lat="40.478363988687164" lng="-79.955435483733993" zone="Zone 2" incidentdate="2015-02-11" incidenttime="18:44:00" incidentnumber="15025233" address="5100 block Butler St" type="ARREST" age="28" gender="M" description="*********************************************** &lt;br/&gt;2701, Simple Assault.&lt;br/&gt;"/><marker lat="40.480403073330407" lng="-79.954224549032361" zone="Zone 2" incidentdate="2015-02-11" incidenttime="17:40:00" incidentnumber="15024456" address="5200 block Butler St" type="ARREST" age="28" gender="M" description="*********************************************** &lt;br/&gt;2706, Terroristic Threats.&lt;br/&gt;3701, Robbery.&lt;br/&gt;"/><marker lat="40.478363988687164" lng="-79.955435483733993" zone="Zone 2" incidentdate="2015-02-11" incidenttime="18:44:00" incidentnumber="15025233" address="5100 block Butler St" type="ARREST" age="27" gender="F" description="*********************************************** &lt;br/&gt;2701, Simple Assault.&lt;br/&gt;"/><marker lat="40.480351496503999" lng="-80.010099601603486" zone="Zone 1" incidentdate="2015-02-11" incidenttime="19:06:00" incidentnumber="15025248" address="100 block Watson Blvd" type="ARREST" age="51" gender="M" description="*********************************************** &lt;br/&gt;13(a)(32), Paraphernalia - Use or Possession&lt;br/&gt;4910, Tampering with or Fabricating Physical Evidence.&lt;br/&gt;"/><marker lat="40.369684777778929" lng="-79.922200289662911" zone="Zone 4" incidentdate="2015-02-11" incidenttime="09:00:00" incidentnumber="15024917" address="900 block Mifflinridge Rd" type="ARREST" age="46" gender="M" description="*********************************************** &lt;br/&gt;2702, Aggravated Assault.&lt;br/&gt;2902, Unlawful Restraint.&lt;br/&gt;2706, Terroristic Threats.&lt;br/&gt;5104, Resisting Arrest or Other Law Enforcement.&lt;br/&gt;2701(a)(1), Simple Assault - Intent., Know., Reckless.Cause Bod. Injury&lt;br/&gt;"/><marker lat="40.423622007225454" lng="-79.993693050792444" zone="Zone 3" incidentdate="2015-02-11" incidenttime="17:00:00" incidentnumber="15019121" address="800 block Eureka St" type="ARREST" age="17" gender="M" description="*********************************************** &lt;br/&gt;3921(a), Theft by Unlawful Taking or Disposition - Movable item&lt;br/&gt;903, Criminal Conspiracy.&lt;br/&gt;"/><marker lat="40.433690729937041" lng="-80.019491545937441" zone="Zone 3" incidentdate="2015-02-11" incidenttime="18:20:00" incidentnumber="15025193" address="1200 block W Sycamore St" type="ARREST" age="47" gender="M" description="*********************************************** &lt;br/&gt;9501, Bench Warrant&lt;br/&gt;"/><marker lat="40.438610014203924" lng="-79.968020290435504" zone="Zone 2" incidentdate="2015-02-11" incidenttime="01:21:00" incidentnumber="15024808" address="200 block Burrows St" type="ARREST" age="23" gender="F" description="*********************************************** &lt;br/&gt;2702, Aggravated Assault.&lt;br/&gt;2701, Simple Assault.&lt;br/&gt;"/><marker lat="40.399184649147095" lng="-80.025493435297477" zone="Zone 6" incidentdate="2015-02-11" incidenttime="19:15:00" incidentnumber="15025253" address="2500 block West Liberty Ave" type="ARREST" age="27" gender="M" description="*********************************************** &lt;br/&gt;1543, Driving While Operating Privilege is Suspended or Revoked.&lt;br/&gt;13(a)(16), Possession of Controlled Substance&lt;br/&gt;5104, Resisting Arrest or Other Law Enforcement.&lt;br/&gt;"/><marker lat="40.438610014203924" lng="-79.968020290435504" zone="Zone 2" incidentdate="2015-02-11" incidenttime="01:09:00" incidentnumber="15024808" address="200 block Burrows St" type="ARREST" age="38" gender="M" description="*********************************************** &lt;br/&gt;2702, Aggravated Assault.&lt;br/&gt;2701, Simple Assault.&lt;br/&gt;"/><marker lat="40.443175141980426" lng="-79.953544848229939" zone="Zone 4" incidentdate="2015-02-11" incidenttime="22:09:00" incidentnumber="15025336" address="Forbes Ave &amp; Bigelow Blvd" type="ARREST" age="18" gender="M" description="*********************************************** &lt;br/&gt;13(a)(31), Marijuana: Possession Small Amount&lt;br/&gt;4910, Tampering with or Fabricating Physical Evidence.&lt;br/&gt;3112, Traffic-Control Signals.&lt;br/&gt;13(a)(32), Paraphernalia - Use or Possession&lt;br/&gt;"/><marker lat="40.467282453311789" lng="-79.918502493357437" zone="Zone 5" incidentdate="2015-02-11" incidenttime="19:43:00" incidentnumber="15025251" address="6200 block Huntress St" type="ARREST" age="18" gender="F" description="*********************************************** &lt;br/&gt;2702, Aggravated Assault.&lt;br/&gt;"/><marker lat="40.488081814906529" lng="-79.894317224387123" zone="Zone 5" incidentdate="2015-02-11" incidenttime="11:20:00" incidentnumber="14214273" address="900 block Freeport Rd" type="ARREST" age="42" gender="M" description="*********************************************** &lt;br/&gt;3929(a)(1), Retail Theft; takes possession of, carries away, or transfers displayed merchandise&lt;br/&gt;3503(b)(1)(iii), Defiant Trespass - Fencing or Other Enclosure&lt;br/&gt;"/><marker lat="40.41910505809637" lng="-79.995820009539997" zone="Zone 3" incidentdate="2015-02-11" incidenttime="11:50:00" incidentnumber="14224938" address="millbridge St" type="ARREST" age="28" gender="M" description="*********************************************** &lt;br/&gt;13(a)(31), Marijuana: Possession Small Amount&lt;br/&gt;9015, Failure To Appear/Arrest on Attachment Order&lt;br/&gt;"/><marker lat="40.435095503606554" lng="-79.993077686753679" zone="Zone 2" incidentdate="2015-02-11" incidenttime="14:35:00" incidentnumber="13132248" address="900 block Second Ave" type="ARREST" age="41" gender="M" description="*********************************************** &lt;br/&gt;13(a)(16), Possession of Controlled Substance&lt;br/&gt;3334, Turning Movements and Required Signals.&lt;br/&gt;4107(b)(2), Vehicle Equipment Standards&lt;br/&gt;"/><marker lat="40.460268383400177" lng="-79.991521549865112" zone="Zone 1" incidentdate="2015-02-11" incidenttime="19:40:00" incidentnumber="14138688" address="1200 block Spring Garden Ave" type="ARREST" age="23" gender="M" description="*********************************************** &lt;br/&gt;2702, Aggravated Assault.&lt;br/&gt;"/><marker lat="40.42155201085292" lng="-79.99720376810096" zone="Zone 3" incidentdate="2015-02-11" incidenttime="16:19:00" incidentnumber="15025125" address="600 block E Warrington Ave" type="ARREST" age="25" gender="M" description="*********************************************** &lt;br/&gt;2701(a)(3), Simple Assault - Attempts by Physical Menace&lt;br/&gt;3925, Receiving Stolen Property.&lt;br/&gt;2705, Recklessly Endangering Another Person.&lt;br/&gt;6110.2, Possesion of Firearm with Altered Mfg. Number&lt;br/&gt;"/><marker lat="40.421277835067528" lng="-79.995283254493202" zone="Zone 3" incidentdate="2015-02-11" incidenttime="16:14:00" incidentnumber="15025128" address="Manton Way &amp; Eugenie Way" type="ARREST" age="43" gender="M" description="*********************************************** &lt;br/&gt;13(a)(30)*, Delivery of Controlled Substance&lt;br/&gt;13(a)(16), Possession of Controlled Substance&lt;br/&gt;13(a)(30), Possession w/ Intent to Del. Controlled Substance&lt;br/&gt;"/><marker lat="40.437694537589067" lng="-79.972643159209809" zone="Zone 2" incidentdate="2015-02-11" incidenttime="21:40:00" incidentnumber="15025327" address="5th Ave &amp; Birmingham Brg" type="ARREST" age="33" gender="M" description="*********************************************** &lt;br/&gt;3714, Careless Driving&lt;br/&gt;1543, Driving While Operating Privilege is Suspended or Revoked.&lt;br/&gt;13(a)(16), Possession of Controlled Substance&lt;br/&gt;13(a)(30), Possession w/ Intent to Del. Controlled Substance&lt;br/&gt;3323, Stop Signs and Yield Signs.&lt;br/&gt;3703, Driving Upon Sidewalk.&lt;br/&gt;3308, One-Way Roadways and Rotary Traffic Islands.&lt;br/&gt;3736, Reckless Driving&lt;br/&gt;3112, Traffic-Control Signals.&lt;br/&gt;3733, Fleeing or Attempting to Elude Police Officer&lt;br/&gt;2705, Recklessly Endangering Another Person.&lt;br/&gt;3743, Accidents Involving Damage to Attended Veh. or Property&lt;br/&gt;"/><marker lat="40.47452965780257" lng="-80.028667696752336" zone="Zone 1" incidentdate="2015-02-11" incidenttime="01:50:00" incidentnumber="15024839" address="West End Brg Ramp &amp; Ohio River Blvd" type="ARREST" age="22" gender="F" description="*********************************************** &lt;br/&gt;3714, Careless Driving&lt;br/&gt;3802(a)(1), DUI - General Impairment&lt;br/&gt;"/><marker lat="40.441228428031053" lng="-80.002073791411135" zone="Zone 2" incidentdate="2015-02-11" incidenttime="17:10:00" incidentnumber="15025175" address="200 block 5th Ave" type="ARREST" age="33" gender="M" description="*********************************************** &lt;br/&gt;5123, Contraband.&lt;br/&gt;3353, Prohibitions in Specified Places.&lt;br/&gt;13(a)(32), Paraphernalia - Use or Possession&lt;br/&gt;9501, Bench Warrant&lt;br/&gt;"/><marker lat="40.415843495116036" lng="-80.003895193369019" zone="Zone 4" incidentdate="2015-02-11" incidenttime="02:35:00" incidentnumber="15024852" address="100 block Kirkpatrick St &amp; Beelen St" type="ARREST" age="23" gender="F" description="*********************************************** &lt;br/&gt;3802(b), DUI - High Rate of Alchol - BAC &gt;=.10% &lt;.16%&lt;br/&gt;3802(a)(1), DUI - General Impairment&lt;br/&gt;"/></markers>
