<?xml version="1.0"?>
<markers><marker lat="40.404939361855945" lng="-79.990899233620965" zone="Zone 3" incidentdate="2015-07-22" incidenttime="13:00:00" incidentnumber="15135586" address="1100 block Brownsville Rd" type="OFFENSE" age="" gender="" description="*********************************************** &lt;br/&gt;2709(a), Harassment.&lt;br/&gt;"/><marker lat="40.418113180355292" lng="-79.988290306359971" zone="Zone 3" incidentdate="2015-07-22" incidenttime="12:15:00" incidentnumber="15135599" address="Amanda Ave" type="OFFENSE" age="" gender="" description="*********************************************** &lt;br/&gt;3745, Accidents Involving Damage to Unattended Veh.or Prop.&lt;br/&gt;"/><marker lat="40.436311375722831" lng="-80.01533630840008" zone="Zone 3" incidentdate="2015-07-22" incidenttime="01:06:00" incidentnumber="15135324" address="800 block Grandview Ave" type="OFFENSE" age="" gender="" description="*********************************************** &lt;br/&gt;2701, Simple Assault.&lt;br/&gt;2709(a)(1), Harassment by Physical Contact, or Attempts or Threats&lt;br/&gt;2706, Terroristic Threats.&lt;br/&gt;"/><marker lat="40.386926638543144" lng="-79.983552458412845" zone="Zone 3" incidentdate="2015-07-22" incidenttime="00:50:00" incidentnumber="15135244" address="2400 block Brownsville Rd" type="OFFENSE" age="" gender="" description="*********************************************** &lt;br/&gt;901, Criminal Attempt&lt;br/&gt;2901, Kidnapping.&lt;br/&gt;"/><marker lat="40.484491035783861" lng="-79.939149543194617" zone="Zone 5" incidentdate="2015-07-22" incidenttime="16:48:00" incidentnumber="15135716" address="1100 block Fairfield St" type="OFFENSE" age="" gender="" description="*********************************************** &lt;br/&gt;9999, 9999 - (Misc. Incident):&lt;br/&gt;"/><marker lat="40.4656231615335" lng="-79.900321283382283" zone="Zone 5" incidentdate="2015-07-22" incidenttime="12:18:00" incidentnumber="15135549" address="1200 block Pointview St" type="OFFENSE" age="" gender="" description="*********************************************** &lt;br/&gt;3502, Burglary.&lt;br/&gt;"/><marker lat="40.406816058417306" lng="-80.03436582726296" zone="Zone 6" incidentdate="2015-07-22" incidenttime="13:45:00" incidentnumber="15135598" address="2500 block Banksville Rd" type="OFFENSE" age="" gender="" description="*********************************************** &lt;br/&gt;3304, Criminal Mischief.&lt;br/&gt;3929, Retail Theft.&lt;br/&gt;"/><marker lat="40.441406159731216" lng="-80.002873255548053" zone="Zone 2" incidentdate="2015-07-22" incidenttime="12:45:00" incidentnumber="15135870" address="100 block 5th Ave" type="OFFENSE" age="" gender="" description="*********************************************** &lt;br/&gt;3924, Theft of Property Lost, Mislaid or Delivered by Mistake.&lt;br/&gt;"/><marker lat="40.434930024319137" lng="-79.962813640246168" zone="Zone 4" incidentdate="2015-07-22" incidenttime="10:58:00" incidentnumber="15135499" address="Craft Pl &amp; Ophelia St" type="OFFENSE" age="" gender="" description="*********************************************** &lt;br/&gt;3304, Criminal Mischief.&lt;br/&gt;3934, Theft from Vehicle&lt;br/&gt;"/><marker lat="40.417757711260535" lng="-79.941394347908002" zone="Zone 4" incidentdate="2015-07-22" incidenttime="01:00:00" incidentnumber="15135574" address="4500 block Parade St" type="OFFENSE" age="" gender="" description="*********************************************** &lt;br/&gt;901, Criminal Attempt&lt;br/&gt;"/><marker lat="40.437850264562179" lng="-80.004567110517371" zone="Zone 2" incidentdate="2015-07-22" incidenttime="14:55:00" incidentnumber="15135662" address="Market St" type="OFFENSE" age="" gender="" description="*********************************************** &lt;br/&gt;3924, Theft of Property Lost, Mislaid or Delivered by Mistake.&lt;br/&gt;"/><marker lat="40.467528136259652" lng="-79.942231121958727" zone="Zone 5" incidentdate="2015-07-22" incidenttime="23:20:00" incidentnumber="15136011" address="5100 block Brown Way" type="OFFENSE" age="" gender="" description="*********************************************** &lt;br/&gt;9999, 9999 - (Misc. Incident):&lt;br/&gt;"/><marker lat="40.395651084098226" lng="-79.988534793365389" zone="Zone 3" incidentdate="2015-07-22" incidenttime="20:00:00" incidentnumber="15135897" address="1900 block Westmont Ave" type="OFFENSE" age="" gender="" description="*********************************************** &lt;br/&gt;3502, Burglary.&lt;br/&gt;"/><marker lat="40.467406592877161" lng="-80.010739077147363" zone="Zone 1" incidentdate="2015-07-22" incidenttime="12:19:00" incidentnumber="15135551" address="100 block W Burgess St" type="OFFENSE" age="" gender="" description="*********************************************** &lt;br/&gt;3304, Criminal Mischief.&lt;br/&gt;4304(a)(1), Endangering Welfare of Children - Course of Conduct Enhanced&lt;br/&gt;"/><marker lat="40.485331998975155" lng="-80.009535962286023" zone="Zone 1" incidentdate="2015-07-22" incidenttime="00:30:00" incidentnumber="15135190" address="East St &amp; Venture St" type="OFFENSE" age="" gender="" description="*********************************************** &lt;br/&gt;13(a)(16), Possession of Controlled Substance&lt;br/&gt;13(a)(30), Possession w/ Intent to Del. Controlled Substance&lt;br/&gt;5104, Resisting Arrest or Other Law Enforcement.&lt;br/&gt;13(a)(32), Paraphernalia - Use or Possession&lt;br/&gt;5121, Escape.&lt;br/&gt;9501, Bench Warrant&lt;br/&gt;"/><marker lat="40.482879021356389" lng="-80.04453300763744" zone="Zone 1" incidentdate="2015-07-22" incidenttime="19:25:00" incidentnumber="15135853" address="2000 block Termon Ave" type="OFFENSE" age="" gender="" description="*********************************************** &lt;br/&gt;2709(a)(1), Harassment by Physical Contact, or Attempts or Threats&lt;br/&gt;"/><marker lat="40.440824068996903" lng="-80.003015961193057" zone="Zone 2" incidentdate="2015-07-22" incidenttime="21:37:00" incidentnumber="15135932" address="Market Square" type="OFFENSE" age="" gender="" description="*********************************************** &lt;br/&gt;2702, Aggravated Assault.&lt;br/&gt;5503, Disorderly Conduct.&lt;br/&gt;5104, Resisting Arrest or Other Law Enforcement.&lt;br/&gt;2709, Harassment (Non-Specific)&lt;br/&gt;"/><marker lat="40.473967860152136" lng="-79.988598521314941" zone="Zone 1" incidentdate="2015-07-22" incidenttime="17:15:00" incidentnumber="15135736" address="2600 block Spring Garden Ave" type="OFFENSE" age="" gender="" description="*********************************************** &lt;br/&gt;9497, Aided Case&lt;br/&gt;"/><marker lat="40.424153844229302" lng="-79.933379761561497" zone="Zone 4" incidentdate="2015-07-22" incidenttime="11:00:00" incidentnumber="15135764" address="900 block Greenfield Ave" type="OFFENSE" age="" gender="" description="*********************************************** &lt;br/&gt;3502, Burglary.&lt;br/&gt;"/><marker lat="40.451701704465094" lng="-79.980854326238614" zone="Zone 2" incidentdate="2015-07-22" incidenttime="07:15:00" incidentnumber="15135371" address="2500 block Liberty Ave" type="OFFENSE" age="" gender="" description="*********************************************** &lt;br/&gt;3743, Accidents Involving Damage to Attended Veh. or Property&lt;br/&gt;"/><marker lat="40.481290225152456" lng="-80.041954274390108" zone="Zone 1" incidentdate="2015-07-22" incidenttime="07:45:00" incidentnumber="15135380" address="Verner Ave" type="OFFENSE" age="" gender="" description="*********************************************** &lt;br/&gt;9501, Bench Warrant&lt;br/&gt;"/><marker lat="40.393381465666913" lng="-80.023176044457372" zone="Zone 6" incidentdate="2015-07-22" incidenttime="23:25:00" incidentnumber="15135993" address="700 block Woodbourne Ave" type="OFFENSE" age="" gender="" description="*********************************************** &lt;br/&gt;3921(a), Theft by Unlawful Taking or Disposition - Movable item&lt;br/&gt;"/><marker lat="40.480119283146038" lng="-79.954037631641071" zone="Zone 2" incidentdate="2015-07-22" incidenttime="07:00:00" incidentnumber="15135366" address="Dresden Way &amp; 52nd St" type="OFFENSE" age="" gender="" description="*********************************************** &lt;br/&gt;3745, Accidents Involving Damage to Unattended Veh.or Prop.&lt;br/&gt;"/><marker lat="40.430208650087671" lng="-79.974460898016957" zone="Zone 3" incidentdate="2015-07-22" incidenttime="15:45:00" incidentnumber="15135677" address="S 22nd St &amp; Wharton St" type="OFFENSE" age="" gender="" description="*********************************************** &lt;br/&gt;3304, Criminal Mischief.&lt;br/&gt;"/><marker lat="40.434299457525853" lng="-79.954228609639202" zone="Zone 4" incidentdate="2015-07-22" incidenttime="21:30:00" incidentnumber="15135996" address="3600 block Blvd of the Allies" type="OFFENSE" age="" gender="" description="*********************************************** &lt;br/&gt;4101, Forgery.&lt;br/&gt;"/><marker lat="40.441371364794612" lng="-80.00389725761795" zone="Zone 2" incidentdate="2015-07-22" incidenttime="17:00:00" incidentnumber="15135718" address="Liberty ave &amp; Stanwix Street" type="OFFENSE" age="" gender="" description="*********************************************** &lt;br/&gt;13(a)(16), Possession of Controlled Substance&lt;br/&gt;3802(d)(2), DUI - Drug - Impaired Ability&lt;br/&gt;3111, Obedience to Traffic-Control Devices.&lt;br/&gt;"/><marker lat="40.419505206194074" lng="-79.993673235982314" zone="Zone 3" incidentdate="2015-07-22" incidenttime="14:45:00" incidentnumber="15135651" address="800 block Loyal Way" type="OFFENSE" age="" gender="" description="*********************************************** &lt;br/&gt;3502, Burglary.&lt;br/&gt;"/><marker lat="40.479864793810727" lng="-79.919738711106376" zone="Zone 5" incidentdate="2015-07-22" incidenttime="18:05:00" incidentnumber="15135799" address="One Wild Pl" type="OFFENSE" age="" gender="" description="*********************************************** &lt;br/&gt;3745, Accidents Involving Damage to Unattended Veh.or Prop.&lt;br/&gt;"/><marker lat="40.395101489760023" lng="-79.986742226339501" zone="Zone 3" incidentdate="2015-07-22" incidenttime="12:45:00" incidentnumber="15135562" address="W Agnew Ave &amp; Brownsville Rd" type="OFFENSE" age="" gender="" description="*********************************************** &lt;br/&gt;3701, Robbery.&lt;br/&gt;"/><marker lat="40.396052433870693" lng="-79.987505497219203" zone="Zone 3" incidentdate="2015-07-22" incidenttime="22:59:00" incidentnumber="15135976" address="1900 block Brownsville Rd" type="OFFENSE" age="" gender="" description="*********************************************** &lt;br/&gt;1543, Driving While Operating Privilege is Suspended or Revoked.&lt;br/&gt;3714, Careless Driving&lt;br/&gt;3802(c), DUI - Highest Rate of Alcohol - BAC &gt;= .16%&lt;br/&gt;3802(a)(1), DUI - General Impairment&lt;br/&gt;"/><marker lat="40.483179529109456" lng="-79.943169650748899" zone="Zone 2" incidentdate="2015-07-22" incidenttime="20:30:00" incidentnumber="15135877" address="Duncan St &amp; Christopher St" type="OFFENSE" age="" gender="" description="*********************************************** &lt;br/&gt;9999, 9999 - (Misc. Incident):&lt;br/&gt;"/><marker lat="40.458310181393557" lng="-79.942791385062407" zone="Zone 5" incidentdate="2015-07-22" incidenttime="16:00:00" incidentnumber="15135692" address="Liberty Ave &amp; Aspen St" type="OFFENSE" age="" gender="" description="*********************************************** &lt;br/&gt;3745, Accidents Involving Damage to Unattended Veh.or Prop.&lt;br/&gt;"/><marker lat="40.448816178432267" lng="-79.987503558376119" zone="Zone 2" incidentdate="2015-07-22" incidenttime="21:00:00" incidentnumber="15135915" address="16th St &amp; Penn Ave" type="OFFENSE" age="" gender="" description="*********************************************** &lt;br/&gt;3701, Robbery.&lt;br/&gt;"/><marker lat="40.472112650140353" lng="-80.009329113493848" zone="Zone 1" incidentdate="2015-07-22" incidenttime="15:06:00" incidentnumber="15135639" address="2600 block Veteran St" type="OFFENSE" age="" gender="" description="*********************************************** &lt;br/&gt;2709(a)(4), Harassment Communicates Prohibited Acts&lt;br/&gt;"/><marker lat="40.412953337364975" lng="-80.020451947406627" zone="Zone 6" incidentdate="2015-07-22" incidenttime="15:00:00" incidentnumber="15135655" address="1400 block Rockland Ave" type="OFFENSE" age="" gender="" description="*********************************************** &lt;br/&gt;3502, Burglary.&lt;br/&gt;"/><marker lat="40.382550098596738" lng="-79.98295724220479" zone="Zone 3" incidentdate="2015-07-22" incidenttime="18:00:00" incidentnumber="15135811" address="200 block Sunnyland Ave" type="OFFENSE" age="" gender="" description="*********************************************** &lt;br/&gt;3921, Theft by Unlawful Taking or Disposition.&lt;br/&gt;"/><marker lat="40.404822944398759" lng="-79.934938582152668" zone="Zone 4" incidentdate="2015-07-22" incidenttime="04:57:00" incidentnumber="15135343" address="600 block Johnston Ave" type="OFFENSE" age="" gender="" description="*********************************************** &lt;br/&gt;3934, Theft from Vehicle&lt;br/&gt;3304, Criminal Mischief.&lt;br/&gt;"/><marker lat="40.415716995341683" lng="-79.937465213324117" zone="Zone 4" incidentdate="2015-07-22" incidenttime="05:10:00" incidentnumber="15135348" address="500 block Frayne St" type="OFFENSE" age="" gender="" description="*********************************************** &lt;br/&gt;3934, Theft from Vehicle&lt;br/&gt;"/><marker lat="40.472496774889684" lng="-80.017420250666618" zone="Zone 1" incidentdate="2015-07-22" incidenttime="16:25:00" incidentnumber="15135703" address="2800 block Brighton Rd" type="OFFENSE" age="" gender="" description="*********************************************** &lt;br/&gt;3934, Theft from Vehicle&lt;br/&gt;"/><marker lat="40.4535854" lng="-80.0646199" zone="Zone 6" incidentdate="2015-07-22" incidenttime="17:30:00" incidentnumber="15135778" address="1200 block Pritchard St" type="OFFENSE" age="" gender="" description="*********************************************** &lt;br/&gt;3745, Accidents Involving Damage to Unattended Veh.or Prop.&lt;br/&gt;"/><marker lat="40.445899823505272" lng="-80.052204137456769" zone="Zone 6" incidentdate="2015-07-22" incidenttime="15:00:00" incidentnumber="15135686" address="900 block Woodlow St" type="OFFENSE" age="" gender="" description="*********************************************** &lt;br/&gt;2709(a)(1), Harassment by Physical Contact, or Attempts or Threats&lt;br/&gt;"/><marker lat="40.443343866959928" lng="-80.037667344517629" zone="Zone 6" incidentdate="2015-07-22" incidenttime="20:13:00" incidentnumber="15135898" address="700 block Fairview Ave" type="OFFENSE" age="" gender="" description="*********************************************** &lt;br/&gt;13(a)(16), Possession of Controlled Substance&lt;br/&gt;"/><marker lat="40.389503354859656" lng="-80.008189935834196" zone="Zone 6" incidentdate="2015-07-22" incidenttime="11:40:00" incidentnumber="15135546" address="1500 block Eben St" type="OFFENSE" age="" gender="" description="*********************************************** &lt;br/&gt;4912, Impersonating a Public Servant.&lt;br/&gt;"/><marker lat="40.473481220987026" lng="-79.962813878468651" zone="Zone 2" incidentdate="2015-07-22" incidenttime="15:00:00" incidentnumber="15135725" address="100 block 44th St" type="OFFENSE" age="" gender="" description="*********************************************** &lt;br/&gt;9999, 9999 - (Misc. Incident):&lt;br/&gt;"/><marker lat="40.3883003" lng="-79.9882833" zone="Zone 3" incidentdate="2015-07-22" incidenttime="15:15:00" incidentnumber="15135641" address="2200 block Almont St" type="OFFENSE" age="" gender="" description="*********************************************** &lt;br/&gt;3304, Criminal Mischief.&lt;br/&gt;3503, Criminal Trespass&lt;br/&gt;"/><marker lat="40.412868050103597" lng="-80.025135374935701" zone="Zone 6" incidentdate="2015-07-22" incidenttime="20:00:00" incidentnumber="15136010" address="1500 block Beechview Ave" type="OFFENSE" age="" gender="" description="*********************************************** &lt;br/&gt;3502, Burglary.&lt;br/&gt;"/><marker lat="40.424153844229302" lng="-79.933379761561497" zone="Zone 4" incidentdate="2015-07-22" incidenttime="08:30:00" incidentnumber="15135493" address="900 block Greenfield Ave" type="OFFENSE" age="" gender="" description="*********************************************** &lt;br/&gt;3934, Theft from Vehicle&lt;br/&gt;"/><marker lat="40.457170147582374" lng="-79.891597856496432" zone="Zone 5" incidentdate="2015-07-22" incidenttime="19:21:00" incidentnumber="15135841" address="Idlewild St &amp; Collier St" type="OFFENSE" age="" gender="" description="*********************************************** &lt;br/&gt;2701(a)(1), Simple Assault - Intent., Know., Reckless.Cause Bod. Injury&lt;br/&gt;"/><marker lat="40.456542939615126" lng="-79.887664136937502" zone="Zone 5" incidentdate="2015-07-22" incidenttime="02:05:00" incidentnumber="15135271" address="1000 block Brushton Ave" type="OFFENSE" age="" gender="" description="*********************************************** &lt;br/&gt;9999, 9999 - (Misc. Incident):&lt;br/&gt;"/><marker lat="40.4703872" lng="-79.9599442" zone="Zone 2" incidentdate="2015-07-22" incidenttime="05:00:00" incidentnumber="15135345" address="200 block 43rd St" type="OFFENSE" age="" gender="" description="*********************************************** &lt;br/&gt;3304, Criminal Mischief.&lt;br/&gt;"/><marker lat="40.462621695693898" lng="-80.026768251794863" zone="Zone 1" incidentdate="2015-07-22" incidenttime="18:13:00" incidentnumber="15135769" address="1300 block Success St" type="OFFENSE" age="" gender="" description="*********************************************** &lt;br/&gt;2709, Harassment (Non-Specific)&lt;br/&gt;"/><marker lat="40.461841605554909" lng="-80.026585896490914" zone="Zone 1" incidentdate="2015-07-22" incidenttime="16:32:00" incidentnumber="15135707" address="1300 block Marvista St" type="OFFENSE" age="" gender="" description="*********************************************** &lt;br/&gt;3502, Burglary.&lt;br/&gt;"/><marker lat="40.4406248" lng="-79.9958864" zone="Zone 1" incidentdate="2015-07-22" incidenttime="06:54:00" incidentnumber="15135362" address="I-579 &amp; Pa Rt 28 Ramp" type="OFFENSE" age="" gender="" description="*********************************************** &lt;br/&gt;3743, Accidents Involving Damage to Attended Veh. or Property&lt;br/&gt;"/><marker lat="40.457979452652395" lng="-80.055018758938502" zone="Zone 6" incidentdate="2015-07-22" incidenttime="22:40:00" incidentnumber="15135977" address="Ashlyn St &amp; Zephyr Ave" type="OFFENSE" age="" gender="" description="*********************************************** &lt;br/&gt;2707, Propulsion of Missiles&lt;br/&gt;"/><marker lat="40.452449678940027" lng="-79.891236624112281" zone="Zone 5" incidentdate="2015-07-22" incidenttime="20:23:00" incidentnumber="15135881" address="7600 block Mulford St" type="OFFENSE" age="" gender="" description="*********************************************** &lt;br/&gt;13(a)(31), Marijuana: Possession Small Amount&lt;br/&gt;"/><marker lat="40.443315554772433" lng="-79.959560343748407" zone="Zone 4" incidentdate="2015-07-22" incidenttime="14:00:00" incidentnumber="15135636" address="3800 block O Hara St" type="OFFENSE" age="" gender="" description="*********************************************** &lt;br/&gt;9490, Missing Persons (18 and Over)&lt;br/&gt;"/><marker lat="40.3835451" lng="-79.9830551" zone="Zone 3" incidentdate="2015-07-22" incidenttime="14:40:00" incidentnumber="15135611" address="Meritt Ave" type="OFFENSE" age="" gender="" description="*********************************************** &lt;br/&gt;9999, 9999 - (Misc. Incident):&lt;br/&gt;"/><marker lat="40.435950041434253" lng="-79.956175634596292" zone="Zone 4" incidentdate="2015-07-22" incidenttime="09:00:00" incidentnumber="15135444" address="Zulema St &amp; Bates St" type="OFFENSE" age="" gender="" description="*********************************************** &lt;br/&gt;3934, Theft from Vehicle&lt;br/&gt;"/><marker lat="40.437731326470676" lng="-79.986533067644729" zone="Zone 2" incidentdate="2015-07-22" incidenttime="20:15:00" incidentnumber="15135882" address="Forbes Ave &amp; Stevenson St" type="OFFENSE" age="" gender="" description="*********************************************** &lt;br/&gt;5902(a)(2), Prostitution - Loitering for purpose of&lt;br/&gt;5507, Obstructing Highways and Passages.&lt;br/&gt;4914, False Identification to Law Enforcement Authorities&lt;br/&gt;9501, Bench Warrant&lt;br/&gt;"/><marker lat="40.421770664827413" lng="-79.929058161195556" zone="Zone 4" incidentdate="2015-07-22" incidenttime="06:30:00" incidentnumber="15135487" address="4300 block Murray Ave" type="OFFENSE" age="" gender="" description="*********************************************** &lt;br/&gt;3934, Theft from Vehicle&lt;br/&gt;"/><marker lat="40.491301931890057" lng="-80.026560888427966" zone="Zone 1" incidentdate="2015-07-22" incidenttime="04:06:00" incidentnumber="15135331" address="500 block Dornestic St" type="OFFENSE" age="" gender="" description="*********************************************** &lt;br/&gt;9496, Dead on Arrival (DOA)&lt;br/&gt;"/><marker lat="40.446935785650446" lng="-79.949029458315451" zone="Zone 4" incidentdate="2015-07-22" incidenttime="07:15:00" incidentnumber="15135384" address="5th Ave &amp; N Craig St" type="OFFENSE" age="" gender="" description="*********************************************** &lt;br/&gt;3745, Accidents Involving Damage to Unattended Veh.or Prop.&lt;br/&gt;"/><marker lat="40.408611737978767" lng="-79.943135078952523" zone="Zone 4" incidentdate="2015-07-22" incidenttime="09:23:00" incidentnumber="15135428" address="100 block Tecumseh St" type="OFFENSE" age="" gender="" description="*********************************************** &lt;br/&gt;9496, Dead on Arrival (DOA)&lt;br/&gt;"/><marker lat="40.472182281798872" lng="-79.937686703685941" zone="Zone 4" incidentdate="2015-07-22" incidenttime="00:01:00" incidentnumber="15135631" address="5300 block Schenley Dr" type="OFFENSE" age="" gender="" description="*********************************************** &lt;br/&gt;9504, Lost Property&lt;br/&gt;"/><marker lat="40.440916658244909" lng="-80.020392211329721" zone="Zone 3" incidentdate="2015-07-22" incidenttime="01:45:00" incidentnumber="15135287" address="1000 block E Carson St" type="OFFENSE" age="" gender="" description="*********************************************** &lt;br/&gt;3934, Theft from Vehicle&lt;br/&gt;"/><marker lat="40.487823540011732" lng="-79.897614208935366" zone="Zone 5" incidentdate="2015-07-22" incidenttime="11:05:00" incidentnumber="15135495" address="800 block Freeport Rd" type="OFFENSE" age="" gender="" description="*********************************************** &lt;br/&gt;3929, Retail Theft.&lt;br/&gt;"/><marker lat="40.431104940456201" lng="-80.010514630904211" zone="Zone 3" incidentdate="2015-07-22" incidenttime="17:10:00" incidentnumber="15135737" address="Virginia Ave &amp; Kearsarge St" type="OFFENSE" age="" gender="" description="*********************************************** &lt;br/&gt;13(a)(16), Possession of Controlled Substance&lt;br/&gt;"/><marker lat="40.447108366607274" lng="-79.941982825058304" zone="Zone 4" incidentdate="2015-07-22" incidenttime="14:15:00" incidentnumber="15135640" address="5000 block 5th Ave" type="OFFENSE" age="" gender="" description="*********************************************** &lt;br/&gt;3304, Criminal Mischief.&lt;br/&gt;3921, Theft by Unlawful Taking or Disposition.&lt;br/&gt;"/><marker lat="40.44399023304031" lng="-80.002630134211415" zone="Zone 2" incidentdate="2015-07-22" incidenttime="11:00:00" incidentnumber="15135765" address="100 block 6th St" type="OFFENSE" age="" gender="" description="*********************************************** &lt;br/&gt;3921, Theft by Unlawful Taking or Disposition.&lt;br/&gt;"/><marker lat="40.421647870695793" lng="-79.997400077748267" zone="Zone 3" incidentdate="2015-07-22" incidenttime="11:15:00" incidentnumber="15135510" address="Beltzhoover Ave &amp; E Warrington Ave" type="OFFENSE" age="" gender="" description="*********************************************** &lt;br/&gt;9999, 9999 - (Misc. Incident):&lt;br/&gt;"/><marker lat="40.460341693312827" lng="-79.986977783015149" zone="Zone 1" incidentdate="2015-07-22" incidenttime="17:30:00" incidentnumber="15135779" address="1300 block Herman St" type="OFFENSE" age="" gender="" description="*********************************************** &lt;br/&gt;9999, 9999 - (Misc. Incident):&lt;br/&gt;"/><marker lat="40.418082391679732" lng="-79.988232290693446" zone="Zone 3" incidentdate="2015-07-22" incidenttime="00:20:00" incidentnumber="15135225" address="100 block Orchard Pl" type="OFFENSE" age="" gender="" description="*********************************************** &lt;br/&gt;5503(a)(2), DISORDERLY CONDUCT - UNREASONABLE NOISE&lt;br/&gt;"/><marker lat="40.452034108420726" lng="-79.938796144585069" zone="Zone 4" incidentdate="2015-07-22" incidenttime="23:38:00" incidentnumber="15136004" address="Ellsworth Ave &amp; Ellsworth Pl" type="OFFENSE" age="" gender="" description="*********************************************** &lt;br/&gt;3701, Robbery.&lt;br/&gt;"/><marker lat="40.5812272" lng="-79.7788911" zone="Zone OSC" incidentdate="2015-07-22" incidenttime="23:41:00" incidentnumber="15135998" address="Freeport Rd &amp; Murrayhill Rd" type="OFFENSE" age="" gender="" description="*********************************************** &lt;br/&gt;9094, Recovered Stolen Vehicle (OUTSIDE CITY)&lt;br/&gt;"/><marker lat="40.455020717981817" lng="-80.021344877819061" zone="Zone 1" incidentdate="2015-07-22" incidenttime="11:00:00" incidentnumber="15135525" address="1100 block Pennsylvania Ave" type="OFFENSE" age="" gender="" description="*********************************************** &lt;br/&gt;4106, Access Device Fraud&lt;br/&gt;"/><marker lat="40.419574608605721" lng="-79.936898601364092" zone="Zone 4" incidentdate="2015-07-22" incidenttime="01:30:00" incidentnumber="15135622" address="Exeter St" type="OFFENSE" age="" gender="" description="*********************************************** &lt;br/&gt;3934, Theft from Vehicle&lt;br/&gt;"/><marker lat="40.422703998069622" lng="-79.995775354266669" zone="Zone 3" incidentdate="2015-07-22" incidenttime="06:30:00" incidentnumber="15135360" address="700 block Excelsior St" type="OFFENSE" age="" gender="" description="*********************************************** &lt;br/&gt;9496, Dead on Arrival (DOA)&lt;br/&gt;"/><marker lat="40.438598717248304" lng="-79.991664753587926" zone="Zone 2" incidentdate="2015-07-22" incidenttime="16:24:00" incidentnumber="15135700" address="900 block 5th Ave" type="OFFENSE" age="" gender="" description="*********************************************** &lt;br/&gt;3929, Retail Theft.&lt;br/&gt;"/><marker lat="40.465742686724063" lng="-79.981257181433378" zone="Zone 1" incidentdate="2015-07-22" incidenttime="22:30:00" incidentnumber="15136023" address="1900 block Lowrie St" type="OFFENSE" age="" gender="" description="*********************************************** &lt;br/&gt;3304, Criminal Mischief.&lt;br/&gt;"/><marker lat="40.432254502970792" lng="-80.010248602684442" zone="Zone 3" incidentdate="2015-07-22" incidenttime="09:30:00" incidentnumber="15135539" address="W Sycamore St &amp; Kearsarge St" type="OFFENSE" age="" gender="" description="*********************************************** &lt;br/&gt;3745, Accidents Involving Damage to Unattended Veh.or Prop.&lt;br/&gt;"/><marker lat="40.452042212663898" lng="-80.008738896002342" zone="Zone 1" incidentdate="2015-07-22" incidenttime="09:42:00" incidentnumber="15135447" address="200 block Ridge Ave" type="OFFENSE" age="" gender="" description="*********************************************** &lt;br/&gt;029, Missing Juvenile&lt;br/&gt;"/><marker lat="40.449606365527259" lng="-79.974270684591801" zone="Zone 2" incidentdate="2015-07-22" incidenttime="16:00:00" incidentnumber="15135695" address="2400 block Bedford Ave" type="OFFENSE" age="" gender="" description="*********************************************** &lt;br/&gt;029, Missing Juvenile&lt;br/&gt;"/><marker lat="40.420851659179483" lng="-79.899461276512781" zone="Zone 4" incidentdate="2015-07-22" incidenttime="19:00:00" incidentnumber="15135846" address="200 block Homestead St" type="OFFENSE" age="" gender="" description="*********************************************** &lt;br/&gt;9999, 9999 - (Misc. Incident):&lt;br/&gt;"/><marker lat="40.475970803438344" lng="-80.003076972725822" zone="Zone 1" incidentdate="2015-07-22" incidenttime="19:41:00" incidentnumber="15135856" address="100 block Hazlett St" type="OFFENSE" age="" gender="" description="*********************************************** &lt;br/&gt;029, Missing Juvenile&lt;br/&gt;"/><marker lat="40.45502247083629" lng="-80.055619564864116" zone="Zone 6" incidentdate="2015-07-22" incidenttime="19:29:00" incidentnumber="15135851" address="Sherwood Ave &amp; Ashlyn St" type="OFFENSE" age="" gender="" description="*********************************************** &lt;br/&gt;2702, Aggravated Assault.&lt;br/&gt;"/><marker lat="40.44490518577846" lng="-79.99377796067661" zone="Zone 2" incidentdate="2015-07-22" incidenttime="04:10:00" incidentnumber="15135411" address="1100 block Penn Ave" type="OFFENSE" age="" gender="" description="*********************************************** &lt;br/&gt;3921(a), Theft by Unlawful Taking or Disposition - Movable item&lt;br/&gt;"/><marker lat="40.419350328866692" lng="-79.935939333733572" zone="Zone 4" incidentdate="2015-07-22" incidenttime="12:00:00" incidentnumber="15135792" address="600 block Bigelow St" type="OFFENSE" age="" gender="" description="*********************************************** &lt;br/&gt;3934, Theft from Vehicle&lt;br/&gt;"/><marker lat="40.433717438999118" lng="-80.031405907548987" zone="Zone 6" incidentdate="2015-07-22" incidenttime="16:54:00" incidentnumber="15135720" address="1900 block Woodville Ave" type="OFFENSE" age="" gender="" description="*********************************************** &lt;br/&gt;2709, Harassment (Non-Specific)&lt;br/&gt;"/><marker lat="40.45625168914637" lng="-80.014442989629387" zone="Zone 1" incidentdate="2015-07-22" incidenttime="17:00:00" incidentnumber="15135873" address="700 block N taylor Ave" type="OFFENSE" age="" gender="" description="*********************************************** &lt;br/&gt;3921(a), Theft by Unlawful Taking or Disposition - Movable item&lt;br/&gt;"/><marker lat="40.430417751390969" lng="-79.978919924772214" zone="Zone 3" incidentdate="2015-07-22" incidenttime="12:30:00" incidentnumber="15135587" address="1900 block Wharton St" type="OFFENSE" age="" gender="" description="*********************************************** &lt;br/&gt;1786, Required Financial Responsibility.&lt;br/&gt;"/><marker lat="40.449558530122637" lng="-80.0555783091135" zone="Zone 6" incidentdate="2015-07-22" incidenttime="09:22:00" incidentnumber="15135431" address="1200 block Justine St" type="OFFENSE" age="" gender="" description="*********************************************** &lt;br/&gt;9497, Aided Case&lt;br/&gt;"/><marker lat="40.440514946221782" lng="-79.964826501760243" zone="Zone 4" incidentdate="2015-07-22" incidenttime="22:39:00" incidentnumber="15135974" address="200 block Dunseith St" type="OFFENSE" age="" gender="" description="*********************************************** &lt;br/&gt;6106, Firearms not to be Carried without a License.&lt;br/&gt;6105(a)(1), Persons not to possess, use, manufacture, control, sell or transfer firearms: Former convict enumerated in subsection (b)&lt;br/&gt;"/><marker lat="40.446346164512178" lng="-79.994318011299683" zone="Zone 2" incidentdate="2015-07-22" incidenttime="17:15:00" incidentnumber="15135809" address="11th St" type="OFFENSE" age="" gender="" description="*********************************************** &lt;br/&gt;3745, Accidents Involving Damage to Unattended Veh.or Prop.&lt;br/&gt;"/><marker lat="40.437295887843689" lng="-80.000221139810591" zone="Zone 2" incidentdate="2015-07-22" incidenttime="22:56:00" incidentnumber="15135982" address="100 block Smithfield St" type="OFFENSE" age="" gender="" description="*********************************************** &lt;br/&gt;13(a)(31), Marijuana: Possession Small Amount&lt;br/&gt;5104, Resisting Arrest or Other Law Enforcement.&lt;br/&gt;"/><marker lat="40.468313022718029" lng="-80.025878129179986" zone="Zone 1" incidentdate="2015-07-22" incidenttime="17:05:00" incidentnumber="15135748" address="2600 block Mc Dowell St" type="OFFENSE" age="" gender="" description="*********************************************** &lt;br/&gt;1543, Driving While Operating Privilege is Suspended or Revoked.&lt;br/&gt;13(a)(16), Possession of Controlled Substance&lt;br/&gt;13(a)(30), Possession w/ Intent to Del. Controlled Substance&lt;br/&gt;3736, Reckless Driving&lt;br/&gt;"/><marker lat="40.41136888220619" lng="-79.990299456571108" zone="Zone 3" incidentdate="2015-07-22" incidenttime="19:00:00" incidentnumber="15135821" address="200 block Knox Ave" type="OFFENSE" age="" gender="" description="*********************************************** &lt;br/&gt;029, Missing Juvenile&lt;br/&gt;"/><marker lat="40.441137684867279" lng="-79.957585934716349" zone="Zone 4" incidentdate="2015-07-22" incidenttime="18:00:00" incidentnumber="15135793" address="200 block Atwood St" type="OFFENSE" age="" gender="" description="*********************************************** &lt;br/&gt;3924, Theft of Property Lost, Mislaid or Delivered by Mistake.&lt;br/&gt;"/><marker lat="40.465757913835297" lng="-79.929035730197427" zone="Zone 5" incidentdate="2015-07-22" incidenttime="09:30:00" incidentnumber="14179054" address="300 block N Negley Ave" type="ARREST" age="29" gender="M" description="*********************************************** &lt;br/&gt;3921(a), Theft by Unlawful Taking or Disposition - Movable item&lt;br/&gt;2701, Simple Assault.&lt;br/&gt;"/><marker lat="40.459431038763775" lng="-79.886892905158163" zone="Zone 5" incidentdate="2015-07-22" incidenttime="12:45:00" incidentnumber="15125931" address="1200 block Nolan Ct" type="ARREST" age="15" gender="F" description="*********************************************** &lt;br/&gt;2709(a), Harassment.&lt;br/&gt;2701, Simple Assault.&lt;br/&gt;"/><marker lat="40.434696587775576" lng="-79.996300985228572" zone="Zone 2" incidentdate="2015-07-22" incidenttime="18:40:00" incidentnumber="15134591" address="600 block First Ave" type="ARREST" age="64" gender="M" description="*********************************************** &lt;br/&gt;4952, Intimidation of Witnesses or Victims&lt;br/&gt;2709(a)(1), Harassment by Physical Contact, or Attempts or Threats&lt;br/&gt;"/><marker lat="40.468313022718029" lng="-80.025878129179986" zone="Zone 1" incidentdate="2015-07-22" incidenttime="17:10:00" incidentnumber="15135748" address="2600 block Mc Dowell St" type="ARREST" age="19" gender="M" description="*********************************************** &lt;br/&gt;1543, Driving While Operating Privilege is Suspended or Revoked.&lt;br/&gt;13(a)(16), Possession of Controlled Substance&lt;br/&gt;13(a)(30), Possession w/ Intent to Del. Controlled Substance&lt;br/&gt;3736, Reckless Driving&lt;br/&gt;"/><marker lat="40.437295887843689" lng="-80.000221139810591" zone="Zone 2" incidentdate="2015-07-22" incidenttime="23:03:00" incidentnumber="15135982" address="100 block Smithfield St" type="ARREST" age="" gender="M" description="*********************************************** &lt;br/&gt;13(a)(31), Marijuana: Possession Small Amount&lt;br/&gt;5104, Resisting Arrest or Other Law Enforcement.&lt;br/&gt;"/><marker lat="40.414429655287627" lng="-80.014420994849857" zone="Zone 6" incidentdate="2015-07-22" incidenttime="02:33:00" incidentnumber="15135267" address="Dawn Ave" type="ARREST" age="53" gender="M" description="*********************************************** &lt;br/&gt;9093, Indirect Criminal Contempt&lt;br/&gt;"/><marker lat="40.435095503606554" lng="-79.993077686753679" zone="Zone 2" incidentdate="2015-07-22" incidenttime="14:00:00" incidentnumber="15078188" address="900 block Second Ave" type="ARREST" age="35" gender="M" description="*********************************************** &lt;br/&gt;13(a)(16), Possession of Controlled Substance&lt;br/&gt;"/><marker lat="40.487823540011732" lng="-79.897614208935366" zone="Zone 5" incidentdate="2015-07-22" incidenttime="09:30:00" incidentnumber="15032339" address="800 block Freeport Rd" type="ARREST" age="46" gender="F" description="*********************************************** &lt;br/&gt;3922, Theft by Deception.&lt;br/&gt;4101, Forgery.&lt;br/&gt;4105(a)(1), Bad Checks&lt;br/&gt;4120, Identity Theft&lt;br/&gt;"/><marker lat="40.454016520179565" lng="-79.895644292400064" zone="Zone 5" incidentdate="2015-07-22" incidenttime="18:30:00" incidentnumber="15094695" address="7300 block Hamilton Ave" type="ARREST" age="22" gender="M" description="*********************************************** &lt;br/&gt;3304, Criminal Mischief.&lt;br/&gt;2701, Simple Assault.&lt;br/&gt;3503.B1I, DEF. TRESPASS ACTUAL COMMUNICATION&lt;br/&gt;"/><marker lat="40.441371364794612" lng="-80.00389725761795" zone="Zone 2" incidentdate="2015-07-22" incidenttime="17:00:00" incidentnumber="15135718" address="Liberty ave &amp; Stanwix Street" type="ARREST" age="32" gender="F" description="*********************************************** &lt;br/&gt;13(a)(16), Possession of Controlled Substance&lt;br/&gt;3802(d)(2), DUI - Drug - Impaired Ability&lt;br/&gt;3111, Obedience to Traffic-Control Devices.&lt;br/&gt;"/><marker lat="40.482386011855226" lng="-80.00290703640357" zone="Zone 1" incidentdate="2015-07-22" incidenttime="14:30:00" incidentnumber="15072271" address="300 block Mt Pleasant Rd" type="ARREST" age="24" gender="F" description="*********************************************** &lt;br/&gt;2701, Simple Assault.&lt;br/&gt;"/><marker lat="40.396052433870693" lng="-79.987505497219203" zone="Zone 3" incidentdate="2015-07-22" incidenttime="22:59:00" incidentnumber="15135976" address="1900 block Brownsville Rd" type="ARREST" age="45" gender="M" description="*********************************************** &lt;br/&gt;1543, Driving While Operating Privilege is Suspended or Revoked.&lt;br/&gt;3714, Careless Driving&lt;br/&gt;3802(c), DUI - Highest Rate of Alcohol - BAC &gt;= .16%&lt;br/&gt;3802(a)(1), DUI - General Impairment&lt;br/&gt;"/><marker lat="40.452449678940027" lng="-79.891236624112281" zone="Zone 5" incidentdate="2015-07-22" incidenttime="20:23:00" incidentnumber="15135881" address="7600 block Mulford St" type="ARREST" age="20" gender="M" description="*********************************************** &lt;br/&gt;13(a)(31), Marijuana: Possession Small Amount&lt;br/&gt;"/><marker lat="40.448816178432267" lng="-79.987503558376119" zone="Zone 2" incidentdate="2015-07-22" incidenttime="21:15:00" incidentnumber="15135915" address="16th St &amp; Penn Ave" type="ARREST" age="48" gender="M" description="*********************************************** &lt;br/&gt;3701, Robbery.&lt;br/&gt;"/><marker lat="40.437731326470676" lng="-79.986533067644729" zone="Zone 2" incidentdate="2015-07-22" incidenttime="20:15:00" incidentnumber="15135882" address="Forbes Ave &amp; Stevenson St" type="ARREST" age="43" gender="F" description="*********************************************** &lt;br/&gt;5902(a)(2), Prostitution - Loitering for purpose of&lt;br/&gt;5507, Obstructing Highways and Passages.&lt;br/&gt;4914, False Identification to Law Enforcement Authorities&lt;br/&gt;9501, Bench Warrant&lt;br/&gt;"/><marker lat="40.440824068996903" lng="-80.003015961193057" zone="Zone 2" incidentdate="2015-07-22" incidenttime="21:37:00" incidentnumber="15135932" address="Market Square" type="ARREST" age="34" gender="M" description="*********************************************** &lt;br/&gt;2702, Aggravated Assault.&lt;br/&gt;5503, Disorderly Conduct.&lt;br/&gt;5104, Resisting Arrest or Other Law Enforcement.&lt;br/&gt;2709, Harassment (Non-Specific)&lt;br/&gt;"/><marker lat="40.441752063788769" lng="-80.05426228355276" zone="Zone 6" incidentdate="2015-07-22" incidenttime="09:50:00" incidentnumber="14252396" address="1100 block Round Top St" type="ARREST" age="56" gender="F" description="*********************************************** &lt;br/&gt;2709(a)(4), Harassment Communicates Prohibited Acts&lt;br/&gt;2709.2, Stalking Conduct or Repeatedly Communicates&lt;br/&gt;2706, Terroristic Threats.&lt;br/&gt;"/><marker lat="40.435095503606554" lng="-79.993077686753679" zone="Zone 2" incidentdate="2015-07-22" incidenttime="00:20:00" incidentnumber="15126703" address="900 block 2ND Ave" type="ARREST" age="27" gender="F" description="*********************************************** &lt;br/&gt;2702, Aggravated Assault.&lt;br/&gt;3502, Burglary.&lt;br/&gt;2705, Recklessly Endangering Another Person.&lt;br/&gt;"/><marker lat="40.460706790003542" lng="-79.923780776230444" zone="Zone 5" incidentdate="2015-07-22" incidenttime="12:58:00" incidentnumber="15075532" address="6100 block Penn Ave" type="ARREST" age="39" gender="M" description="*********************************************** &lt;br/&gt;2706, Terroristic Threats.&lt;br/&gt;"/><marker lat="40.453164862899186" lng="-79.891108542969775" zone="Zone 5" incidentdate="2015-07-22" incidenttime="18:00:00" incidentnumber="15058629" address="Hamilton Ave &amp; N Braddock Ave" type="ARREST" age="30" gender="F" description="*********************************************** &lt;br/&gt;9501, Bench Warrant&lt;br/&gt;3334, Turning Movements and Required Signals.&lt;br/&gt;13(a)(16), Possession of Controlled Substance&lt;br/&gt;"/><marker lat="40.435095503606554" lng="-79.993077686753679" zone="Zone 2" incidentdate="2015-07-22" incidenttime="00:30:00" incidentnumber="15085061" address="900 block 2ND Ave" type="ARREST" age="28" gender="M" description="*********************************************** &lt;br/&gt;9015, Failure To Appear/Arrest on Attachment Order&lt;br/&gt;7303, Sale or Illegal Use of Certain Solvents.&lt;br/&gt;"/><marker lat="40.443343866959928" lng="-80.037667344517629" zone="Zone 6" incidentdate="2015-07-22" incidenttime="20:13:00" incidentnumber="15135898" address="700 block Fairview Ave" type="ARREST" age="60" gender="M" description="*********************************************** &lt;br/&gt;13(a)(16), Possession of Controlled Substance&lt;br/&gt;"/><marker lat="40.435095503606554" lng="-79.993077686753679" zone="Zone 2" incidentdate="2015-07-22" incidenttime="08:50:00" incidentnumber="15125312" address="900 block Second Ave" type="ARREST" age="20" gender="M" description="*********************************************** &lt;br/&gt;3701, Robbery.&lt;br/&gt;3502, Burglary.&lt;br/&gt;"/><marker lat="40.431104940456201" lng="-80.010514630904211" zone="Zone 3" incidentdate="2015-07-22" incidenttime="17:12:00" incidentnumber="15135737" address="Virginia Ave &amp; Kearsarge St" type="ARREST" age="23" gender="F" description="*********************************************** &lt;br/&gt;13(a)(16), Possession of Controlled Substance&lt;br/&gt;"/><marker lat="40.440514946221782" lng="-79.964826501760243" zone="Zone 4" incidentdate="2015-07-22" incidenttime="22:56:00" incidentnumber="15135974" address="200 block Dunseith St" type="ARREST" age="20" gender="M" description="*********************************************** &lt;br/&gt;6106, Firearms not to be Carried without a License.&lt;br/&gt;6105(a)(1), Persons not to possess, use, manufacture, control, sell or transfer firearms: Former convict enumerated in subsection (b)&lt;br/&gt;"/><marker lat="40.4627137134433" lng="-79.897502712280485" zone="Zone 5" incidentdate="2015-07-22" incidenttime="18:00:00" incidentnumber="15087182" address="1500 block N Lang Ave" type="ARREST" age="30" gender="F" description="*********************************************** &lt;br/&gt;4304(a)(1) Enhanced, Welfare of Children - Course of Conduct&lt;br/&gt;4304(a)(1), Endangering Welfare of Children - Course of Conduct Enhanced&lt;br/&gt;"/><marker lat="40.450496053299034" lng="-80.065400619016998" zone="Zone 6" incidentdate="2015-07-22" incidenttime="18:50:00" incidentnumber="15124706" address="3100 block Middletown Rd" type="ARREST" age="45" gender="M" description="*********************************************** &lt;br/&gt;2701, Simple Assault.&lt;br/&gt;"/><marker lat="40.481290225152456" lng="-80.041954274390108" zone="Zone 1" incidentdate="2015-07-22" incidenttime="07:45:00" incidentnumber="15135380" address="Verner Ave" type="ARREST" age="37" gender="F" description="*********************************************** &lt;br/&gt;9501, Bench Warrant&lt;br/&gt;"/></markers>
