<?xml version="1.0"?>
<markers><marker lat="40.456982442346316" lng="-79.997221721677747" zone="Zone 1" incidentdate="2016-07-27" incidenttime="01:00:00" incidentnumber="16138937" address="Blossom Way" type="OFFENSE" age="" gender="" description="*********************************************** &lt;br/&gt;2701, Simple Assault.&lt;br/&gt;"/><marker lat="40.4199199875451" lng="-79.993675059038551" zone="Zone 3" incidentdate="2016-07-27" incidenttime="17:30:00" incidentnumber="16139466" address="800 block Climax St" type="OFFENSE" age="" gender="" description="*********************************************** &lt;br/&gt;2702, Aggravated Assault.&lt;br/&gt;"/><marker lat="40.38940338753342" lng="-80.01736541014921" zone="Zone 6" incidentdate="2016-07-27" incidenttime="09:00:00" incidentnumber="16139499" address="1100 block Woodbourne Ave" type="OFFENSE" age="" gender="" description="*********************************************** &lt;br/&gt;3304, Criminal Mischief.&lt;br/&gt;"/><marker lat="40.454685758420347" lng="-80.00099471473446" zone="Zone 1" incidentdate="2016-07-27" incidenttime="06:00:00" incidentnumber="16139061" address="James St &amp; Shawano St" type="OFFENSE" age="" gender="" description="*********************************************** &lt;br/&gt;3304, Criminal Mischief.&lt;br/&gt;"/><marker lat="40.448942190324978" lng="-80.000741036074729" zone="Zone 1" incidentdate="2016-07-27" incidenttime="17:15:00" incidentnumber="16139346" address="Anderson St &amp; General Robinson St E" type="OFFENSE" age="" gender="" description="*********************************************** &lt;br/&gt;13(a)(16), Possession of Controlled Substance&lt;br/&gt;13(a)(32), Paraphernalia - Use or Possession&lt;br/&gt;3802(d)(2), DUI - Drug - Impaired Ability&lt;br/&gt;"/><marker lat="40.44608960903679" lng="-79.893619929343828" zone="Zone 4" incidentdate="2016-07-27" incidenttime="16:03:00" incidentnumber="16139392" address="7700 block Penn Ave" type="OFFENSE" age="" gender="" description="*********************************************** &lt;br/&gt;3928, Unauthorized Use of Automobile and Other Vehicles.&lt;br/&gt;"/><marker lat="40.453291956742412" lng="-80.049252626946071" zone="Zone 6" incidentdate="2016-07-27" incidenttime="10:43:00" incidentnumber="16139172" address="2700 block Glen Mawr St" type="OFFENSE" age="" gender="" description="*********************************************** &lt;br/&gt;2709, Harassment (Non-Specific)&lt;br/&gt;4120, Identity Theft&lt;br/&gt;"/><marker lat="40.398014924477827" lng="-79.989149045385915" zone="Zone 3" incidentdate="2016-07-27" incidenttime="13:02:00" incidentnumber="16139270" address="W Cherryhill St &amp; Dellrose St" type="OFFENSE" age="" gender="" description="*********************************************** &lt;br/&gt;9124, Drug Investigation&lt;br/&gt;"/><marker lat="40.450892721440539" lng="-80.000843891836467" zone="Zone 1" incidentdate="2016-07-27" incidenttime="06:30:00" incidentnumber="16139029" address="300 block Cedar Ave" type="OFFENSE" age="" gender="" description="*********************************************** &lt;br/&gt;3304(a)(5), CRIMINAL MISCHIEF - Intentionally Damages Real Or Personal Property Of Another&lt;br/&gt;"/><marker lat="40.460828040504161" lng="-79.988253965699073" zone="Zone 1" incidentdate="2016-07-27" incidenttime="02:21:00" incidentnumber="16138957" address="1300 block Spring Garden Ave" type="OFFENSE" age="" gender="" description="*********************************************** &lt;br/&gt;3921(a), Theft by Unlawful Taking or Disposition - Movable item&lt;br/&gt;"/><marker lat="40.438005896444679" lng="-80.025269779246813" zone="Zone 3" incidentdate="2016-07-27" incidenttime="03:04:00" incidentnumber="16138973" address="300 block Shaler St" type="OFFENSE" age="" gender="" description="*********************************************** &lt;br/&gt;3745, Accidents Involving Damage to Unattended Veh.or Prop.&lt;br/&gt;"/><marker lat="40.417627041456356" lng="-80.009889438915522" zone="Zone 3" incidentdate="2016-07-27" incidenttime="10:20:00" incidentnumber="16139163" address="Climax St" type="OFFENSE" age="" gender="" description="*********************************************** &lt;br/&gt;3934, Theft from Vehicle&lt;br/&gt;"/><marker lat="40.440029003189935" lng="-79.994182342395732" zone="Zone 2" incidentdate="2016-07-27" incidenttime="11:30:00" incidentnumber="16139235" address="CENTRE Ave" type="OFFENSE" age="" gender="" description="*********************************************** &lt;br/&gt;9999, 9999 - (Misc. Incident):&lt;br/&gt;"/><marker lat="40.4471653" lng="-80.0523328" zone="Zone 6" incidentdate="2016-07-27" incidenttime="14:40:00" incidentnumber="16139334" address="1500 block Crucible St" type="OFFENSE" age="" gender="" description="*********************************************** &lt;br/&gt;2701(a)(1), Simple Assault - Intent., Know., Reckless.Cause Bod. Injury&lt;br/&gt;5503(a)(1), DISORDERLY CONDUCT - ENGAGE IN FIGHTING&lt;br/&gt;"/><marker lat="40.470459914974732" lng="-79.908540011902716" zone="Zone 5" incidentdate="2016-07-27" incidenttime="18:15:00" incidentnumber="16139507" address="1400 block Washington Blvd" type="OFFENSE" age="" gender="" description="*********************************************** &lt;br/&gt;9124, Drug Investigation&lt;br/&gt;"/><marker lat="40.472414293875232" lng="-80.037267812357882" zone="Zone 1" incidentdate="2016-07-27" incidenttime="20:03:00" incidentnumber="16139607" address="3100 block Mt. Hope Rd" type="OFFENSE" age="" gender="" description="*********************************************** &lt;br/&gt;9999, 9999 - (Misc. Incident):&lt;br/&gt;"/><marker lat="40.438386586802537" lng="-79.981365455308961" zone="Zone 2" incidentdate="2016-07-27" incidenttime="20:40:00" incidentnumber="16139610" address="5th Ave &amp; Miltenberger St" type="OFFENSE" age="" gender="" description="*********************************************** &lt;br/&gt;5902(e), Patronizing a Prostitute&lt;br/&gt;902, Criminal Solicitation.&lt;br/&gt;"/><marker lat="40.405934655153253" lng="-79.943182659504586" zone="Zone 4" incidentdate="2016-07-27" incidenttime="06:25:00" incidentnumber="16139038" address="5200 block 2nd Ave" type="OFFENSE" age="" gender="" description="*********************************************** &lt;br/&gt;3921(a), Theft by Unlawful Taking or Disposition - Movable item&lt;br/&gt;"/><marker lat="40.455424585858509" lng="-79.999625597076943" zone="Zone 1" incidentdate="2016-07-27" incidenttime="06:30:00" incidentnumber="16139056" address="600 block Suismon St" type="OFFENSE" age="" gender="" description="*********************************************** &lt;br/&gt;3304, Criminal Mischief.&lt;br/&gt;3934, Theft from Vehicle&lt;br/&gt;"/><marker lat="40.469494162320771" lng="-79.999272492742662" zone="Zone 1" incidentdate="2016-07-27" incidenttime="13:24:00" incidentnumber="16139281" address="Sunset St &amp; South Side Ave" type="OFFENSE" age="" gender="" description="*********************************************** &lt;br/&gt;3921, Theft by Unlawful Taking or Disposition.&lt;br/&gt;"/><marker lat="40.465157804159951" lng="-79.922171643415098" zone="Zone 5" incidentdate="2016-07-27" incidenttime="11:10:00" incidentnumber="16139218" address="400 block N Highland Ave" type="OFFENSE" age="" gender="" description="*********************************************** &lt;br/&gt;3934, Theft from Vehicle&lt;br/&gt;"/><marker lat="40.464507343675798" lng="-79.930077501336058" zone="Zone 5" incidentdate="2016-07-27" incidenttime="20:45:00" incidentnumber="16139615" address="N Negley Ave &amp; Broad St" type="OFFENSE" age="" gender="" description="*********************************************** &lt;br/&gt;5902(e), Patronizing a Prostitute&lt;br/&gt;902, Criminal Solicitation.&lt;br/&gt;"/><marker lat="40.454877408624277" lng="-79.999168576409389" zone="Zone 1" incidentdate="2016-07-27" incidenttime="01:10:00" incidentnumber="16138963" address="600 block Foreland St" type="OFFENSE" age="" gender="" description="*********************************************** &lt;br/&gt;3934, Theft from Vehicle&lt;br/&gt;"/><marker lat="40.430020824945359" lng="-79.976813326700821" zone="Zone 3" incidentdate="2016-07-27" incidenttime="08:55:00" incidentnumber="16139108" address="2000 block Wharton St" type="OFFENSE" age="" gender="" description="*********************************************** &lt;br/&gt;3929, Retail Theft.&lt;br/&gt;"/><marker lat="40.468726176243251" lng="-79.959440592262069" zone="Zone 2" incidentdate="2016-07-27" incidenttime="09:30:00" incidentnumber="16139160" address="Main St &amp; Davison St" type="OFFENSE" age="" gender="" description="*********************************************** &lt;br/&gt;3921, Theft by Unlawful Taking or Disposition.&lt;br/&gt;"/><marker lat="40.4154107" lng="-79.9248085" zone="Zone 4" incidentdate="2016-07-27" incidenttime="14:30:00" incidentnumber="16139463" address="4600 block Browns Hill Rd" type="OFFENSE" age="" gender="" description="*********************************************** &lt;br/&gt;3921, Theft by Unlawful Taking or Disposition.&lt;br/&gt;"/><marker lat="40.431214111877495" lng="-79.956016866866946" zone="Zone 4" incidentdate="2016-07-27" incidenttime="19:40:00" incidentnumber="16139609" address="3200 block Hardie Way" type="OFFENSE" age="" gender="" description="*********************************************** &lt;br/&gt;9999, 9999 - (Misc. Incident):&lt;br/&gt;"/><marker lat="40.421531877189601" lng="-79.993577564166102" zone="Zone 3" incidentdate="2016-07-27" incidenttime="17:15:00" incidentnumber="16139480" address="800 block E Warrington Ave" type="OFFENSE" age="" gender="" description="*********************************************** &lt;br/&gt;9999, 9999 - (Misc. Incident):&lt;br/&gt;"/><marker lat="40.421531877189601" lng="-79.993577564166102" zone="Zone 3" incidentdate="2016-07-27" incidenttime="09:31:00" incidentnumber="16139133" address="800 block E Warrington Ave" type="OFFENSE" age="" gender="" description="*********************************************** &lt;br/&gt;2701(b)(1), Simple Assault - Fight or Scuffle Entered by Mutual Consent&lt;br/&gt;"/><marker lat="40.4533101" lng="-80.0016797" zone="Zone 1" incidentdate="2016-07-27" incidenttime="12:52:00" incidentnumber="16139258" address="East Ohio St &amp; Cedar Ave" type="OFFENSE" age="" gender="" description="*********************************************** &lt;br/&gt;5505, Public Drunkenness&lt;br/&gt;"/><marker lat="40.459786134623464" lng="-80.015386748816439" zone="Zone 1" incidentdate="2016-07-27" incidenttime="06:41:00" incidentnumber="16139042" address="1800 block Buena Vista St" type="OFFENSE" age="" gender="" description="*********************************************** &lt;br/&gt;3304(a)(5), CRIMINAL MISCHIEF - Intentionally Damages Real Or Personal Property Of Another&lt;br/&gt;"/><marker lat="40.467406592877161" lng="-80.010739077147363" zone="Zone 1" incidentdate="2016-07-27" incidenttime="00:01:00" incidentnumber="16139078" address="100 block W Burgess St" type="OFFENSE" age="" gender="" description="*********************************************** &lt;br/&gt;3304, Criminal Mischief.&lt;br/&gt;"/><marker lat="40.437295887843689" lng="-80.000221139810591" zone="Zone 2" incidentdate="2016-07-27" incidenttime="03:49:00" incidentnumber="16138993" address="100 block Smithfield St" type="OFFENSE" age="" gender="" description="*********************************************** &lt;br/&gt;9501, Bench Warrant&lt;br/&gt;"/><marker lat="40.418008673560131" lng="-79.990763868073245" zone="Zone 3" incidentdate="2016-07-27" incidenttime="20:00:00" incidentnumber="16139595" address="200 block Orchard Pl" type="OFFENSE" age="" gender="" description="*********************************************** &lt;br/&gt;3745, Accidents Involving Damage to Unattended Veh.or Prop.&lt;br/&gt;"/><marker lat="40.438453357373042" lng="-80.020503939660657" zone="Zone 3" incidentdate="2016-07-27" incidenttime="20:45:00" incidentnumber="16139604" address="Trimont Ln" type="OFFENSE" age="" gender="" description="*********************************************** &lt;br/&gt;3921(a), Theft by Unlawful Taking or Disposition - Movable item&lt;br/&gt;"/><marker lat="40.399765495251444" lng="-79.991111430667971" zone="Zone 3" incidentdate="2016-07-27" incidenttime="12:05:00" incidentnumber="16139232" address="1600 block Oakhurst St" type="OFFENSE" age="" gender="" description="*********************************************** &lt;br/&gt;13(a)(16), Possession of Controlled Substance&lt;br/&gt;13(a)(30), Possession w/ Intent to Del. Controlled Substance&lt;br/&gt;13(a)(32), Paraphernalia - Use or Possession&lt;br/&gt;6105(a)(1), Persons not to possess, use, manufacture, control, sell or transfer firearms: Former convict enumerated in subsection (b)&lt;br/&gt;6105(a)(2)(i), Persons not to possess, use, manufacture, control, sell or transfer firearms: 60 days to&lt;br/&gt;"/><marker lat="40.399798282486785" lng="-79.98914686757854" zone="Zone 3" incidentdate="2016-07-27" incidenttime="14:00:00" incidentnumber="16139417" address="600 block Brownsville Rd" type="OFFENSE" age="" gender="" description="*********************************************** &lt;br/&gt;3921, Theft by Unlawful Taking or Disposition.&lt;br/&gt;"/><marker lat="40.470999082785468" lng="-79.89674879734207" zone="Zone 5" incidentdate="2016-07-27" incidenttime="17:10:00" incidentnumber="16139444" address="7100 block Churchland St" type="OFFENSE" age="" gender="" description="*********************************************** &lt;br/&gt;029, Missing Juvenile&lt;br/&gt;"/><marker lat="40.407503197220038" lng="-80.019544839746544" zone="Zone 6" incidentdate="2016-07-27" incidenttime="13:10:00" incidentnumber="16139422" address="1800 block Ringwalt St" type="OFFENSE" age="" gender="" description="*********************************************** &lt;br/&gt;3921, Theft by Unlawful Taking or Disposition.&lt;br/&gt;"/><marker lat="40.467406592877161" lng="-80.010739077147363" zone="Zone 1" incidentdate="2016-07-27" incidenttime="00:05:00" incidentnumber="16138923" address="100 block W Burgess St" type="OFFENSE" age="" gender="" description="*********************************************** &lt;br/&gt;3304, Criminal Mischief.&lt;br/&gt;"/><marker lat="40.450901096519573" lng="-79.930622154707279" zone="Zone 5" incidentdate="2016-07-27" incidenttime="00:19:00" incidentnumber="16138907" address="900 block N Negley (Three Rivers Youth) Ave" type="OFFENSE" age="" gender="" description="*********************************************** &lt;br/&gt;029, Missing Juvenile&lt;br/&gt;"/><marker lat="40.468669701329091" lng="-80.001196187785041" zone="Zone 1" incidentdate="2016-07-27" incidenttime="09:30:00" incidentnumber="16139139" address="2200 block East St" type="OFFENSE" age="" gender="" description="*********************************************** &lt;br/&gt;3304, Criminal Mischief.&lt;br/&gt;3934, Theft from Vehicle&lt;br/&gt;"/><marker lat="40.468669701329091" lng="-80.001196187785041" zone="Zone 1" incidentdate="2016-07-27" incidenttime="09:30:00" incidentnumber="16139119" address="2200 block East St" type="OFFENSE" age="" gender="" description="*********************************************** &lt;br/&gt;3304, Criminal Mischief.&lt;br/&gt;"/><marker lat="40.421821897112089" lng="-80.010299848912638" zone="Zone 3" incidentdate="2016-07-27" incidenttime="13:36:00" incidentnumber="16139511" address="200 block Lelia St" type="OFFENSE" age="" gender="" description="*********************************************** &lt;br/&gt;3921, Theft by Unlawful Taking or Disposition.&lt;br/&gt;"/><marker lat="40.427439209666197" lng="-79.90695753587768" zone="Zone 4" incidentdate="2016-07-27" incidenttime="00:01:00" incidentnumber="16139505" address="7000 block Forward Ave" type="OFFENSE" age="" gender="" description="*********************************************** &lt;br/&gt;4120, Identity Theft&lt;br/&gt;"/><marker lat="40.440697119948119" lng="-80.003946068250272" zone="Zone 2" incidentdate="2016-07-27" incidenttime="16:20:00" incidentnumber="16139396" address="100 block Forbes Ave" type="OFFENSE" age="" gender="" description="*********************************************** &lt;br/&gt;3929, Retail Theft.&lt;br/&gt;"/><marker lat="40.474046177842993" lng="-80.015618426604462" zone="Zone 1" incidentdate="2016-07-27" incidenttime="00:01:00" incidentnumber="16139336" address="300 block Marshall Ave" type="OFFENSE" age="" gender="" description="*********************************************** &lt;br/&gt;3922, Theft by Deception.&lt;br/&gt;"/><marker lat="40.438386586802537" lng="-79.981365455308961" zone="Zone 2" incidentdate="2016-07-27" incidenttime="19:40:00" incidentnumber="16139568" address="5th Ave &amp; Miltenberger St" type="OFFENSE" age="" gender="" description="*********************************************** &lt;br/&gt;5902(a)(2), Prostitution - Loitering for purpose of&lt;br/&gt;5902(a)(1), Prostitution&lt;br/&gt;"/><marker lat="40.428585203983602" lng="-79.981869007680203" zone="Zone 3" incidentdate="2016-07-27" incidenttime="19:10:00" incidentnumber="16139635" address="1700 block E Carson St" type="OFFENSE" age="" gender="" description="*********************************************** &lt;br/&gt;3934, Theft from Vehicle&lt;br/&gt;"/><marker lat="40.418691111931928" lng="-79.95699983682195" zone="Zone 3" incidentdate="2016-07-27" incidenttime="15:43:00" incidentnumber="16139373" address="3400 block E Carson St" type="OFFENSE" age="" gender="" description="*********************************************** &lt;br/&gt;13(a)(32), Paraphernalia - Use or Possession&lt;br/&gt;3736, Reckless Driving&lt;br/&gt;3742, Accidents Involving Death or Personal Injury&lt;br/&gt;3743, Accidents Involving Damage to Attended Veh. or Property&lt;br/&gt;"/><marker lat="40.438386586802537" lng="-79.981365455308961" zone="Zone 2" incidentdate="2016-07-27" incidenttime="22:05:00" incidentnumber="16139670" address="5th Ave &amp; Miltenberger St" type="OFFENSE" age="" gender="" description="*********************************************** &lt;br/&gt;5902(e), Patronizing a Prostitute&lt;br/&gt;902, Criminal Solicitation.&lt;br/&gt;"/><marker lat="40.478684673035879" lng="-79.932069120295225" zone="Zone 5" incidentdate="2016-07-27" incidenttime="09:00:00" incidentnumber="16139447" address="1100 block Duffield St" type="OFFENSE" age="" gender="" description="*********************************************** &lt;br/&gt;3304, Criminal Mischief.&lt;br/&gt;"/><marker lat="40.471750146315337" lng="-79.926891621011762" zone="Zone 5" incidentdate="2016-07-27" incidenttime="19:00:00" incidentnumber="16139625" address="Samantha Way &amp; Stanton Ave" type="OFFENSE" age="" gender="" description="*********************************************** &lt;br/&gt;5902(a)(2), Prostitution - Loitering for purpose of&lt;br/&gt;5902(a)(1), Prostitution&lt;br/&gt;"/><marker lat="40.40418512347285" lng="-79.83429258877608" zone="Zone 3" incidentdate="2016-07-27" incidenttime="17:35:00" incidentnumber="16139455" address="100 block Prospect St" type="OFFENSE" age="" gender="" description="*********************************************** &lt;br/&gt;3304(a)(5), CRIMINAL MISCHIEF - Intentionally Damages Real Or Personal Property Of Another&lt;br/&gt;"/><marker lat="40.4406248" lng="-79.9958864" zone="Zone 2" incidentdate="2016-07-27" incidenttime="17:19:00" incidentnumber="16139426" address="Interstate 579 &amp; 7th Avenue Ramp" type="OFFENSE" age="" gender="" description="*********************************************** &lt;br/&gt;9501, Bench Warrant&lt;br/&gt;602.04(b)(1)(c), Panhandling-Hindrance to traffic: Violates traffice regulations for pedestrians or vehicles&lt;br/&gt;"/><marker lat="40.435268181594665" lng="-79.994397681613918" zone="Zone 2" incidentdate="2016-07-27" incidenttime="17:55:00" incidentnumber="16139490" address="700 block 2nd Ave" type="OFFENSE" age="" gender="" description="*********************************************** &lt;br/&gt;2701, Simple Assault.&lt;br/&gt;"/><marker lat="40.416837008058089" lng="-79.975874611638602" zone="Zone 3" incidentdate="2016-07-27" incidenttime="10:00:00" incidentnumber="16139167" address="2200 block Arlington Ave" type="OFFENSE" age="" gender="" description="*********************************************** &lt;br/&gt;9501, Bench Warrant&lt;br/&gt;"/><marker lat="40.455245760708152" lng="-80.02016366701227" zone="Zone 1" incidentdate="2016-07-27" incidenttime="15:30:00" incidentnumber="16139364" address="1000 block Pennsylvania Ave" type="OFFENSE" age="" gender="" description="*********************************************** &lt;br/&gt;13(a)(16), Possession of Controlled Substance&lt;br/&gt;13(a)(30), Possession w/ Intent to Del. Controlled Substance&lt;br/&gt;13(a)(31), Marijuana: Possession Small Amount&lt;br/&gt;13(a)(32), Paraphernalia - Use or Possession&lt;br/&gt;4910, Tampering with or Fabricating Physical Evidence.&lt;br/&gt;6106, Firearms not to be Carried without a License.&lt;br/&gt;6110.2, Possesion of Firearm with Altered Mfg. Number&lt;br/&gt;6105(a)(1), Persons not to possess, use, manufacture, control, sell or transfer firearms: Former convict enumerated in subsection (b)&lt;br/&gt;"/><marker lat="40.482879021356389" lng="-80.04453300763744" zone="Zone 1" incidentdate="2016-07-27" incidenttime="16:21:00" incidentnumber="16139383" address="2000 block Termon Ave" type="OFFENSE" age="" gender="" description="*********************************************** &lt;br/&gt;9999, 9999 - (Misc. Incident):&lt;br/&gt;"/><marker lat="40.4622839" lng="-79.9818779" zone="Zone 1" incidentdate="2016-07-27" incidenttime="00:17:00" incidentnumber="16138906" address="200 block East Ohio St" type="OFFENSE" age="" gender="" description="*********************************************** &lt;br/&gt;2702, Aggravated Assault.&lt;br/&gt;"/><marker lat="40.4694679" lng="-79.9185387" zone="Zone 6" incidentdate="2016-07-27" incidenttime="17:11:00" incidentnumber="16139437" address="2900 block Sheridan Ave" type="OFFENSE" age="" gender="" description="*********************************************** &lt;br/&gt;9999, 9999 - (Misc. Incident):&lt;br/&gt;"/><marker lat="40.441228428031053" lng="-80.002073791411135" zone="Zone 2" incidentdate="2016-07-27" incidenttime="11:30:00" incidentnumber="16139237" address="200 block 5th Ave" type="OFFENSE" age="" gender="" description="*********************************************** &lt;br/&gt;3921, Theft by Unlawful Taking or Disposition.&lt;br/&gt;"/><marker lat="40.447791383449896" lng="-80.003763673123132" zone="Zone 1" incidentdate="2016-07-27" incidenttime="05:52:00" incidentnumber="16139020" address="100 block Federal St S" type="OFFENSE" age="" gender="" description="*********************************************** &lt;br/&gt;9488, False  Burglar Alarm&lt;br/&gt;"/><marker lat="40.464507343675798" lng="-79.930077501336058" zone="Zone 5" incidentdate="2016-07-27" incidenttime="21:35:00" incidentnumber="16139649" address="N Negley Ave &amp; Broad St" type="OFFENSE" age="" gender="" description="*********************************************** &lt;br/&gt;5902(e), Patronizing a Prostitute&lt;br/&gt;902, Criminal Solicitation.&lt;br/&gt;"/><marker lat="40.470090964271513" lng="-79.923032009827082" zone="Zone 5" incidentdate="2016-07-27" incidenttime="11:00:00" incidentnumber="16139291" address="5800 block Stanton Ave" type="OFFENSE" age="" gender="" description="*********************************************** &lt;br/&gt;3934, Theft from Vehicle&lt;br/&gt;"/><marker lat="40.443296773738375" lng="-80.041675053103745" zone="Zone 6" incidentdate="2016-07-27" incidenttime="01:20:00" incidentnumber="16138932" address="1000 block Crucible St" type="OFFENSE" age="" gender="" description="*********************************************** &lt;br/&gt;2701(a)(1), Simple Assault - Intent., Know., Reckless.Cause Bod. Injury&lt;br/&gt;"/><marker lat="40.42893165877647" lng="-79.923278430005965" zone="Zone 4" incidentdate="2016-07-27" incidenttime="16:00:00" incidentnumber="16139450" address="5800 block Alderson St" type="OFFENSE" age="" gender="" description="*********************************************** &lt;br/&gt;3745, Accidents Involving Damage to Unattended Veh.or Prop.&lt;br/&gt;"/><marker lat="40.449646657025653" lng="-79.892798110797884" zone="Zone 4" incidentdate="2016-07-27" incidenttime="20:20:00" incidentnumber="16139571" address="300 block N Braddock Ave" type="OFFENSE" age="" gender="" description="*********************************************** &lt;br/&gt;9999, 9999 - (Misc. Incident):&lt;br/&gt;"/><marker lat="40.468669701329091" lng="-80.001196187785041" zone="Zone 1" incidentdate="2016-07-27" incidenttime="09:30:00" incidentnumber="16139140" address="2200 block East St" type="OFFENSE" age="" gender="" description="*********************************************** &lt;br/&gt;3304, Criminal Mischief.&lt;br/&gt;3934, Theft from Vehicle&lt;br/&gt;"/><marker lat="40.4238307" lng="-79.9790685" zone="Zone 3" incidentdate="2016-07-27" incidenttime="17:00:00" incidentnumber="16139497" address="1700 block Gregory St" type="OFFENSE" age="" gender="" description="*********************************************** &lt;br/&gt;3503, Criminal Trespass&lt;br/&gt;"/><marker lat="40.459853948076173" lng="-80.076708458318222" zone="Zone 6" incidentdate="2016-07-27" incidenttime="20:00:00" incidentnumber="16139545" address="3900 block Windgap Ave" type="OFFENSE" age="" gender="" description="*********************************************** &lt;br/&gt;9497, Aided Case&lt;br/&gt;"/><marker lat="40.465757913835297" lng="-79.929035730197427" zone="Zone 5" incidentdate="2016-07-27" incidenttime="16:00:00" incidentnumber="16139342" address="300 block N NEGLEY Ave" type="OFFENSE" age="" gender="" description="*********************************************** &lt;br/&gt;9489, Found Property&lt;br/&gt;"/><marker lat="40.458849454783831" lng="-80.014224534606768" zone="Zone 1" incidentdate="2016-07-27" incidenttime="13:40:00" incidentnumber="16139296" address="600 block W Jefferson St" type="OFFENSE" age="" gender="" description="*********************************************** &lt;br/&gt;3921, Theft by Unlawful Taking or Disposition.&lt;br/&gt;"/><marker lat="40.404714802706593" lng="-80.017318850691069" zone="Zone 6" incidentdate="2016-07-27" incidenttime="15:24:00" incidentnumber="16139359" address="1900 block Woodward Ave" type="OFFENSE" age="" gender="" description="*********************************************** &lt;br/&gt;9999, 9999 - (Misc. Incident):&lt;br/&gt;"/><marker lat="40.463959868319009" lng="-80.00651574739716" zone="Zone 1" incidentdate="2016-07-27" incidenttime="08:40:00" incidentnumber="16139097" address="300 block Marsonia St" type="OFFENSE" age="" gender="" description="*********************************************** &lt;br/&gt;3304, Criminal Mischief.&lt;br/&gt;"/><marker lat="40.458239241825638" lng="-80.015111860116093" zone="Zone 1" incidentdate="2016-07-27" incidenttime="15:00:00" incidentnumber="16139340" address="700 block Armandale St" type="OFFENSE" age="" gender="" description="*********************************************** &lt;br/&gt;2701(a)(3), Simple Assault - Attempts by Physical Menace&lt;br/&gt;"/><marker lat="40.482052054887646" lng="-79.949951012224659" zone="Zone 2" incidentdate="2016-07-27" incidenttime="15:56:00" incidentnumber="16139380" address="5400 block Natrona Way" type="OFFENSE" age="" gender="" description="*********************************************** &lt;br/&gt;3502, Burglary.&lt;br/&gt;"/><marker lat="40.455273086676286" lng="-80.008870414965187" zone="Zone 5" incidentdate="2016-07-27" incidenttime="09:32:00" incidentnumber="16139135" address="200 block N Whitfield St" type="OFFENSE" age="" gender="" description="*********************************************** &lt;br/&gt;6110.1, Possesion of Firearm by Minor&lt;br/&gt;6106, Firearms not to be Carried without a License.&lt;br/&gt;"/><marker lat="40.426363826984982" lng="-80.007799480624698" zone="Zone 3" incidentdate="2016-07-27" incidenttime="17:55:00" incidentnumber="16139489" address="200 block Boggs Ave" type="OFFENSE" age="" gender="" description="*********************************************** &lt;br/&gt;3503, Criminal Trespass&lt;br/&gt;3304(a)(5), CRIMINAL MISCHIEF - Intentionally Damages Real Or Personal Property Of Another&lt;br/&gt;"/><marker lat="40.435836075420326" lng="-79.961527211482604" zone="Zone 4" incidentdate="2016-07-27" incidenttime="16:45:00" incidentnumber="16139484" address="Craft Ave &amp; Blvd Of The Allies" type="OFFENSE" age="" gender="" description="*********************************************** &lt;br/&gt;3743, Accidents Involving Damage to Attended Veh. or Property&lt;br/&gt;"/><marker lat="40.450892721440539" lng="-80.000843891836467" zone="Zone 1" incidentdate="2016-07-27" incidenttime="16:00:00" incidentnumber="16139384" address="300 block Cedar Ave" type="OFFENSE" age="" gender="" description="*********************************************** &lt;br/&gt;3929, Retail Theft.&lt;br/&gt;2701(a)(3), Simple Assault - Attempts by Physical Menace&lt;br/&gt;"/><marker lat="40.444495777378592" lng="-79.978538653915834" zone="Zone 2" incidentdate="2016-07-27" incidenttime="12:00:00" incidentnumber="16139202" address="Addison St &amp; Centre Ave" type="OFFENSE" age="" gender="" description="*********************************************** &lt;br/&gt;13(a)(16), Possession of Controlled Substance&lt;br/&gt;"/><marker lat="40.458529628230409" lng="-79.908231736234782" zone="Zone 2" incidentdate="2016-07-27" incidenttime="00:30:00" incidentnumber="16138926" address="5th Ave" type="OFFENSE" age="" gender="" description="*********************************************** &lt;br/&gt;2701, Simple Assault.&lt;br/&gt;"/><marker lat="40.431464673671677" lng="-79.921702079597651" zone="Zone 4" incidentdate="2016-07-27" incidenttime="08:50:00" incidentnumber="16139146" address="2300 block Sherbrook St" type="OFFENSE" age="" gender="" description="*********************************************** &lt;br/&gt;4106, Access Device Fraud&lt;br/&gt;"/><marker lat="40.3959292" lng="-80.0289754" zone="Zone 6" incidentdate="2016-07-27" incidenttime="07:00:00" incidentnumber="16139095" address="3600 block Waddington Ave" type="OFFENSE" age="" gender="" description="*********************************************** &lt;br/&gt;3304, Criminal Mischief.&lt;br/&gt;"/><marker lat="40.461896962922367" lng="-80.006805150161426" zone="Zone 1" incidentdate="2016-07-27" incidenttime="14:30:00" incidentnumber="16139371" address="1800 block Belleau St" type="OFFENSE" age="" gender="" description="*********************************************** &lt;br/&gt;3745, Accidents Involving Damage to Unattended Veh.or Prop.&lt;br/&gt;"/><marker lat="40.440092571650716" lng="-80.003005012857287" zone="Zone 2" incidentdate="2016-07-27" incidenttime="06:46:00" incidentnumber="16139158" address="PPG Pl" type="OFFENSE" age="" gender="" description="*********************************************** &lt;br/&gt;3502, Burglary.&lt;br/&gt;"/><marker lat="40.454127450914179" lng="-79.951931284180716" zone="Zone 4" incidentdate="2016-07-27" incidenttime="16:15:00" incidentnumber="16139446" address="400 block Melwood Ave" type="OFFENSE" age="" gender="" description="*********************************************** &lt;br/&gt;3745, Accidents Involving Damage to Unattended Veh.or Prop.&lt;br/&gt;"/><marker lat="40.453933093422279" lng="-79.925461076422579" zone="Zone 4" incidentdate="2016-07-27" incidenttime="17:10:00" incidentnumber="16139443" address="400 block S Highland Ave" type="OFFENSE" age="" gender="" description="*********************************************** &lt;br/&gt;3502, Burglary.&lt;br/&gt;"/><marker lat="40.463196027025582" lng="-79.993007992620988" zone="Zone 1" incidentdate="2016-07-27" incidenttime="07:30:00" incidentnumber="16139065" address="1200 block Yetta Ave" type="OFFENSE" age="" gender="" description="*********************************************** &lt;br/&gt;3701, Robbery.&lt;br/&gt;"/><marker lat="40.438386586802537" lng="-79.981365455308961" zone="Zone 2" incidentdate="2016-07-27" incidenttime="21:10:00" incidentnumber="16139634" address="5th Ave &amp; Miltenberger St" type="OFFENSE" age="" gender="" description="*********************************************** &lt;br/&gt;5902(e), Patronizing a Prostitute&lt;br/&gt;902, Criminal Solicitation.&lt;br/&gt;"/><marker lat="40.417627041456356" lng="-80.009889438915522" zone="Zone 3" incidentdate="2016-07-27" incidenttime="10:20:00" incidentnumber="16139178" address="Climax St" type="OFFENSE" age="" gender="" description="*********************************************** &lt;br/&gt;3304, Criminal Mischief.&lt;br/&gt;3934, Theft from Vehicle&lt;br/&gt;"/><marker lat="40.439970659938439" lng="-79.99417768159681" zone="Zone 2" incidentdate="2016-07-27" incidenttime="00:30:00" incidentnumber="16138928" address="6th Ave &amp; Centre Ave" type="OFFENSE" age="" gender="" description="*********************************************** &lt;br/&gt;3745, Accidents Involving Damage to Unattended Veh.or Prop.&lt;br/&gt;"/><marker lat="40.41729197102449" lng="-79.97283879087756" zone="Zone 3" incidentdate="2016-07-27" incidenttime="22:56:00" incidentnumber="16139696" address="2400 block Arlington Ave" type="OFFENSE" age="" gender="" description="*********************************************** &lt;br/&gt;13(a)(31), Marijuana: Possession Small Amount&lt;br/&gt;13(a)(32), Paraphernalia - Use or Possession&lt;br/&gt;"/><marker lat="40.45323690046866" lng="-79.922718616362886" zone="Zone 4" incidentdate="2016-07-27" incidenttime="18:18:00" incidentnumber="16139510" address="6200 block Kentucky Ave" type="OFFENSE" age="" gender="" description="*********************************************** &lt;br/&gt;9497, Aided Case&lt;br/&gt;"/><marker lat="40.468669701329091" lng="-80.001196187785041" zone="Zone 1" incidentdate="2016-07-27" incidenttime="09:30:00" incidentnumber="16139138" address="2200 block East St" type="OFFENSE" age="" gender="" description="*********************************************** &lt;br/&gt;3304, Criminal Mischief.&lt;br/&gt;3934, Theft from Vehicle&lt;br/&gt;"/><marker lat="40.438386586802537" lng="-79.981365455308961" zone="Zone 2" incidentdate="2016-07-27" incidenttime="21:43:00" incidentnumber="16139656" address="5th Ave &amp; Miltenberger St" type="OFFENSE" age="" gender="" description="*********************************************** &lt;br/&gt;5902(e), Patronizing a Prostitute&lt;br/&gt;902, Criminal Solicitation.&lt;br/&gt;"/><marker lat="40.4439413" lng="-80.0803367" zone="Zone 6" incidentdate="2016-07-27" incidenttime="10:30:00" incidentnumber="16139412" address="2100 block Roswell Dr" type="OFFENSE" age="" gender="" description="*********************************************** &lt;br/&gt;3745, Accidents Involving Damage to Unattended Veh.or Prop.&lt;br/&gt;"/><marker lat="40.465757913835297" lng="-79.929035730197427" zone="Zone 5" incidentdate="2016-07-27" incidenttime="02:32:00" incidentnumber="16138961" address="300 block N Negley Ave" type="OFFENSE" age="" gender="" description="*********************************************** &lt;br/&gt;029, Missing Juvenile&lt;br/&gt;"/><marker lat="40.404914940128336" lng="-80.040145473413176" zone="Zone 6" incidentdate="2016-07-27" incidenttime="15:37:00" incidentnumber="16139369" address="2800 block Banksville Rd" type="OFFENSE" age="" gender="" description="*********************************************** &lt;br/&gt;3736, Reckless Driving&lt;br/&gt;3743, Accidents Involving Damage to Attended Veh. or Property&lt;br/&gt;"/><marker lat="40.441137684867279" lng="-79.957585934716349" zone="Zone 4" incidentdate="2016-07-27" incidenttime="18:30:00" incidentnumber="16139575" address="200 block Atwood St" type="OFFENSE" age="" gender="" description="*********************************************** &lt;br/&gt;2706, Terroristic Threats.&lt;br/&gt;"/><marker lat="40.463503551479285" lng="-79.938107688193099" zone="Zone 5" incidentdate="2016-07-27" incidenttime="15:00:00" incidentnumber="16139377" address="200 block Amelia Way" type="OFFENSE" age="" gender="" description="*********************************************** &lt;br/&gt;3921, Theft by Unlawful Taking or Disposition.&lt;br/&gt;"/><marker lat="40.4561850280882" lng="-80.022979224322313" zone="Zone 1" incidentdate="2016-07-27" incidenttime="13:17:00" incidentnumber="16139294" address="1200 block Decatur St" type="OFFENSE" age="" gender="" description="*********************************************** &lt;br/&gt;9090, Recovered Firearm&lt;br/&gt;"/><marker lat="40.440697119948119" lng="-80.003946068250272" zone="Zone 2" incidentdate="2016-07-27" incidenttime="13:15:00" incidentnumber="16139243" address="100 block Forbes Ave" type="OFFENSE" age="" gender="" description="*********************************************** &lt;br/&gt;3929, Retail Theft.&lt;br/&gt;"/><marker lat="40.452531506878643" lng="-79.900072434745468" zone="Zone 4" incidentdate="2016-07-27" incidenttime="12:10:00" incidentnumber="16139255" address="400 block Jonathan Ct" type="OFFENSE" age="" gender="" description="*********************************************** &lt;br/&gt;9497, Aided Case&lt;br/&gt;"/><marker lat="40.451365022842182" lng="-80.009452129877758" zone="Zone 1" incidentdate="2016-07-27" incidenttime="00:15:00" incidentnumber="16138911" address="Ridge Ave &amp; Merchant St" type="OFFENSE" age="" gender="" description="*********************************************** &lt;br/&gt;3934, Theft from Vehicle&lt;br/&gt;"/><marker lat="40.445640297979047" lng="-79.981797214737767" zone="Zone 2" incidentdate="2016-07-27" incidenttime="00:40:00" incidentnumber="16138921" address="2000 block Webster Ave" type="OFFENSE" age="" gender="" description="*********************************************** &lt;br/&gt;3502, Burglary.&lt;br/&gt;2701, Simple Assault.&lt;br/&gt;3701, Robbery.&lt;br/&gt;3304(a)(5), CRIMINAL MISCHIEF - Intentionally Damages Real Or Personal Property Of Another&lt;br/&gt;"/><marker lat="40.4196090" lng="-79.9271419" zone="Zone 4" incidentdate="2016-07-27" incidenttime="15:55:00" incidentnumber="16139393" address="4400 block Browns Hill Rd" type="OFFENSE" age="" gender="" description="*********************************************** &lt;br/&gt;4101, Forgery.&lt;br/&gt;"/><marker lat="40.468029099354595" lng="-79.90356662893312" zone="Zone 5" incidentdate="2016-07-27" incidenttime="11:40:00" incidentnumber="16139387" address="200 block Paulson Ave" type="OFFENSE" age="" gender="" description="*********************************************** &lt;br/&gt;3304, Criminal Mischief.&lt;br/&gt;"/><marker lat="40.464507343675798" lng="-79.930077501336058" zone="Zone 5" incidentdate="2016-07-27" incidenttime="20:15:00" incidentnumber="16139581" address="N Negley Ave &amp; Broad St" type="OFFENSE" age="" gender="" description="*********************************************** &lt;br/&gt;5902(e), Patronizing a Prostitute&lt;br/&gt;902, Criminal Solicitation.&lt;br/&gt;"/><marker lat="40.481899498213068" lng="-80.041686567366" zone="Zone 1" incidentdate="2016-07-27" incidenttime="08:00:00" incidentnumber="16139104" address="3700 block California Ave" type="OFFENSE" age="" gender="" description="*********************************************** &lt;br/&gt;3934, Theft from Vehicle&lt;br/&gt;"/><marker lat="40.453285126966584" lng="-80.054579750288909" zone="Zone 6" incidentdate="2016-07-27" incidenttime="02:05:00" incidentnumber="16138948" address="Chartiers Ave &amp; Hillsboro St" type="OFFENSE" age="" gender="" description="*********************************************** &lt;br/&gt;3802(a)(1), DUI - General Impairment&lt;br/&gt;3802(c), DUI - Highest Rate of Alcohol - BAC &gt;= .16%&lt;br/&gt;3714, Careless Driving&lt;br/&gt;3111, Obedience to Traffic-Control Devices.&lt;br/&gt;"/><marker lat="40.444468950960051" lng="-80.050071257231139" zone="Zone 6" incidentdate="2016-07-27" incidenttime="09:30:00" incidentnumber="16139165" address="1000 block Logue St" type="OFFENSE" age="" gender="" description="*********************************************** &lt;br/&gt;3304, Criminal Mischief.&lt;br/&gt;"/><marker lat="40.457508979931845" lng="-79.910572598041981" zone="Zone 5" incidentdate="2016-07-27" incidenttime="11:50:00" incidentnumber="16139224" address="6600 block Hamilton Ave" type="OFFENSE" age="" gender="" description="*********************************************** &lt;br/&gt;2709(a)(1), Harassment by Physical Contact, or Attempts or Threats&lt;br/&gt;"/><marker lat="40.464507343675798" lng="-79.930077501336058" zone="Zone 5" incidentdate="2016-07-27" incidenttime="20:15:00" incidentnumber="16139581" address="N Negley Ave &amp; Broad St" type="ARREST" age="29" gender="M" description="*********************************************** &lt;br/&gt;5902(e), Patronizing a Prostitute&lt;br/&gt;902, Criminal Solicitation.&lt;br/&gt;"/><marker lat="40.438386586802537" lng="-79.981365455308961" zone="Zone 2" incidentdate="2016-07-27" incidenttime="21:43:00" incidentnumber="16139656" address="5th Ave &amp; Miltenberger St" type="ARREST" age="32" gender="M" description="*********************************************** &lt;br/&gt;5902(e), Patronizing a Prostitute&lt;br/&gt;902, Criminal Solicitation.&lt;br/&gt;"/><marker lat="40.464507343675798" lng="-79.930077501336058" zone="Zone 5" incidentdate="2016-07-27" incidenttime="20:45:00" incidentnumber="16139615" address="N Negley Ave &amp; Broad St" type="ARREST" age="46" gender="M" description="*********************************************** &lt;br/&gt;5902(e), Patronizing a Prostitute&lt;br/&gt;902, Criminal Solicitation.&lt;br/&gt;"/><marker lat="40.464507343675798" lng="-79.930077501336058" zone="Zone 5" incidentdate="2016-07-27" incidenttime="21:35:00" incidentnumber="16139649" address="N Negley Ave &amp; Broad St" type="ARREST" age="37" gender="M" description="*********************************************** &lt;br/&gt;5902(e), Patronizing a Prostitute&lt;br/&gt;902, Criminal Solicitation.&lt;br/&gt;"/><marker lat="40.438386586802537" lng="-79.981365455308961" zone="Zone 2" incidentdate="2016-07-27" incidenttime="19:40:00" incidentnumber="16139568" address="5th Ave &amp; Miltenberger St" type="ARREST" age="47" gender="F" description="*********************************************** &lt;br/&gt;5902(a)(2), Prostitution - Loitering for purpose of&lt;br/&gt;5902(a)(1), Prostitution&lt;br/&gt;"/><marker lat="40.438386586802537" lng="-79.981365455308961" zone="Zone 2" incidentdate="2016-07-27" incidenttime="22:05:00" incidentnumber="16139670" address="5th Ave &amp; Miltenberger St" type="ARREST" age="32" gender="M" description="*********************************************** &lt;br/&gt;5902(e), Patronizing a Prostitute&lt;br/&gt;902, Criminal Solicitation.&lt;br/&gt;"/><marker lat="40.416837008058089" lng="-79.975874611638602" zone="Zone 3" incidentdate="2016-07-27" incidenttime="10:00:00" incidentnumber="16139167" address="2200 block Arlington Ave" type="ARREST" age="47" gender="M" description="*********************************************** &lt;br/&gt;9501, Bench Warrant&lt;br/&gt;"/><marker lat="40.455245760708152" lng="-80.02016366701227" zone="Zone 1" incidentdate="2016-07-27" incidenttime="15:30:00" incidentnumber="16139364" address="1000 block Pennsylvania Ave" type="ARREST" age="18" gender="M" description="*********************************************** &lt;br/&gt;13(a)(16), Possession of Controlled Substance&lt;br/&gt;13(a)(30), Possession w/ Intent to Del. Controlled Substance&lt;br/&gt;13(a)(31), Marijuana: Possession Small Amount&lt;br/&gt;13(a)(32), Paraphernalia - Use or Possession&lt;br/&gt;4910, Tampering with or Fabricating Physical Evidence.&lt;br/&gt;6106, Firearms not to be Carried without a License.&lt;br/&gt;6110.2, Possesion of Firearm with Altered Mfg. Number&lt;br/&gt;6105(a)(1), Persons not to possess, use, manufacture, control, sell or transfer firearms: Former convict enumerated in subsection (b)&lt;br/&gt;"/><marker lat="40.438386586802537" lng="-79.981365455308961" zone="Zone 2" incidentdate="2016-07-27" incidenttime="21:10:00" incidentnumber="16139634" address="5th Ave &amp; Miltenberger St" type="ARREST" age="74" gender="M" description="*********************************************** &lt;br/&gt;5902(e), Patronizing a Prostitute&lt;br/&gt;902, Criminal Solicitation.&lt;br/&gt;"/><marker lat="40.399765495251444" lng="-79.991111430667971" zone="Zone 3" incidentdate="2016-07-27" incidenttime="12:05:00" incidentnumber="16139232" address="1600 block Oakhurst St" type="ARREST" age="44" gender="M" description="*********************************************** &lt;br/&gt;13(a)(16), Possession of Controlled Substance&lt;br/&gt;13(a)(30), Possession w/ Intent to Del. Controlled Substance&lt;br/&gt;13(a)(32), Paraphernalia - Use or Possession&lt;br/&gt;6105(a)(1), Persons not to possess, use, manufacture, control, sell or transfer firearms: Former convict enumerated in subsection (b)&lt;br/&gt;6105(a)(2)(i), Persons not to possess, use, manufacture, control, sell or transfer firearms: 60 days to&lt;br/&gt;"/><marker lat="40.41729197102449" lng="-79.97283879087756" zone="Zone 3" incidentdate="2016-07-27" incidenttime="22:56:00" incidentnumber="16139696" address="2400 block Arlington Ave" type="ARREST" age="20" gender="M" description="*********************************************** &lt;br/&gt;13(a)(31), Marijuana: Possession Small Amount&lt;br/&gt;13(a)(32), Paraphernalia - Use or Possession&lt;br/&gt;"/><marker lat="40.418691111931928" lng="-79.95699983682195" zone="Zone 3" incidentdate="2016-07-27" incidenttime="16:27:00" incidentnumber="16139373" address="3400 block E Carson St" type="ARREST" age="40" gender="M" description="*********************************************** &lt;br/&gt;13(a)(32), Paraphernalia - Use or Possession&lt;br/&gt;3736, Reckless Driving&lt;br/&gt;3742, Accidents Involving Death or Personal Injury&lt;br/&gt;3743, Accidents Involving Damage to Attended Veh. or Property&lt;br/&gt;"/><marker lat="40.456691893076865" lng="-80.0526974680471" zone="Zone 6" incidentdate="2016-07-27" incidenttime="12:30:00" incidentnumber="16106165" address="Minton St &amp; Glen Mawr St" type="ARREST" age="14" gender="M" description="*********************************************** &lt;br/&gt;3701, Robbery.&lt;br/&gt;903, Criminal Conspiracy.&lt;br/&gt;"/><marker lat="40.4406248" lng="-79.9958864" zone="Zone 2" incidentdate="2016-07-27" incidenttime="17:19:00" incidentnumber="16139426" address="Interstate 579 &amp; 7th Avenue Ramp" type="ARREST" age="55" gender="M" description="*********************************************** &lt;br/&gt;9501, Bench Warrant&lt;br/&gt;602.04(b)(1)(c), Panhandling-Hindrance to traffic: Violates traffice regulations for pedestrians or vehicles&lt;br/&gt;"/><marker lat="40.455245760708152" lng="-80.02016366701227" zone="Zone 1" incidentdate="2016-07-27" incidenttime="15:30:00" incidentnumber="16139364" address="1000 block Pennsylvania Ave" type="ARREST" age="16" gender="M" description="*********************************************** &lt;br/&gt;13(a)(16), Possession of Controlled Substance&lt;br/&gt;13(a)(30), Possession w/ Intent to Del. Controlled Substance&lt;br/&gt;13(a)(31), Marijuana: Possession Small Amount&lt;br/&gt;13(a)(32), Paraphernalia - Use or Possession&lt;br/&gt;4910, Tampering with or Fabricating Physical Evidence.&lt;br/&gt;6106, Firearms not to be Carried without a License.&lt;br/&gt;6110.2, Possesion of Firearm with Altered Mfg. Number&lt;br/&gt;6105(a)(1), Persons not to possess, use, manufacture, control, sell or transfer firearms: Former convict enumerated in subsection (b)&lt;br/&gt;"/><marker lat="40.453285126966584" lng="-80.054579750288909" zone="Zone 6" incidentdate="2016-07-27" incidenttime="02:11:00" incidentnumber="16138948" address="Chartiers Ave &amp; Hillsboro St" type="ARREST" age="39" gender="F" description="*********************************************** &lt;br/&gt;3802(a)(1), DUI - General Impairment&lt;br/&gt;3802(c), DUI - Highest Rate of Alcohol - BAC &gt;= .16%&lt;br/&gt;3714, Careless Driving&lt;br/&gt;3111, Obedience to Traffic-Control Devices.&lt;br/&gt;"/><marker lat="40.455273086676286" lng="-80.008870414965187" zone="Zone 5" incidentdate="2016-07-27" incidenttime="09:47:00" incidentnumber="16139135" address="200 block N Whitfield St" type="ARREST" age="15" gender="M" description="*********************************************** &lt;br/&gt;6110.1, Possesion of Firearm by Minor&lt;br/&gt;6106, Firearms not to be Carried without a License.&lt;br/&gt;"/><marker lat="40.426363826984982" lng="-80.007799480624698" zone="Zone 3" incidentdate="2016-07-27" incidenttime="18:40:00" incidentnumber="16139489" address="200 block Boggs Ave" type="ARREST" age="33" gender="M" description="*********************************************** &lt;br/&gt;3503, Criminal Trespass&lt;br/&gt;3304(a)(5), CRIMINAL MISCHIEF - Intentionally Damages Real Or Personal Property Of Another&lt;br/&gt;"/><marker lat="40.471750146315337" lng="-79.926891621011762" zone="Zone 5" incidentdate="2016-07-27" incidenttime="19:00:00" incidentnumber="16139625" address="Samantha Way &amp; Stanton Ave" type="ARREST" age="39" gender="F" description="*********************************************** &lt;br/&gt;5902(a)(2), Prostitution - Loitering for purpose of&lt;br/&gt;5902(a)(1), Prostitution&lt;br/&gt;"/><marker lat="40.460594319900963" lng="-79.922716789802806" zone="Zone 5" incidentdate="2016-07-27" incidenttime="21:00:00" incidentnumber="16083678" address="6200 block Penn Ave" type="ARREST" age="23" gender="F" description="*********************************************** &lt;br/&gt;13(a)(32), Paraphernalia - Use or Possession&lt;br/&gt;9015, Failure To Appear/Arrest on Attachment Order&lt;br/&gt;3929, Retail Theft.&lt;br/&gt;"/><marker lat="40.464568368871724" lng="-79.949862016743495" zone="Zone 5" incidentdate="2016-07-27" incidenttime="13:40:00" incidentnumber="15206707" address="4600 block Torley St" type="ARREST" age="" gender="M" description="*********************************************** &lt;br/&gt;9999, 9999 - (Misc. Incident):&lt;br/&gt;3502, Burglary.&lt;br/&gt;"/><marker lat="40.440697119948119" lng="-80.003946068250272" zone="Zone 2" incidentdate="2016-07-27" incidenttime="16:30:00" incidentnumber="16139396" address="100 block Forbes Ave" type="ARREST" age="22" gender="M" description="*********************************************** &lt;br/&gt;3929, Retail Theft.&lt;br/&gt;"/><marker lat="40.437295887843689" lng="-80.000221139810591" zone="Zone 2" incidentdate="2016-07-27" incidenttime="03:55:00" incidentnumber="16138993" address="100 block Smithfield St" type="ARREST" age="21" gender="M" description="*********************************************** &lt;br/&gt;9501, Bench Warrant&lt;br/&gt;"/><marker lat="40.438386586802537" lng="-79.981365455308961" zone="Zone 2" incidentdate="2016-07-27" incidenttime="20:40:00" incidentnumber="16139610" address="5th Ave &amp; Miltenberger St" type="ARREST" age="50" gender="M" description="*********************************************** &lt;br/&gt;5902(e), Patronizing a Prostitute&lt;br/&gt;902, Criminal Solicitation.&lt;br/&gt;"/><marker lat="40.448942190324978" lng="-80.000741036074729" zone="Zone 1" incidentdate="2016-07-27" incidenttime="17:15:00" incidentnumber="16139346" address="Anderson St &amp; General Robinson St E" type="ARREST" age="23" gender="M" description="*********************************************** &lt;br/&gt;13(a)(16), Possession of Controlled Substance&lt;br/&gt;13(a)(32), Paraphernalia - Use or Possession&lt;br/&gt;3802(d)(2), DUI - Drug - Impaired Ability&lt;br/&gt;"/><marker lat="40.448093910740525" lng="-79.898205498059795" zone="Zone 4" incidentdate="2016-07-27" incidenttime="20:09:00" incidentnumber="16086202" address="7400 block Penn Ave" type="ARREST" age="31" gender="M" description="*********************************************** &lt;br/&gt;13(a)(31), Marijuana: Possession Small Amount&lt;br/&gt;9015, Failure To Appear/Arrest on Attachment Order&lt;br/&gt;"/><marker lat="40.444495777378592" lng="-79.978538653915834" zone="Zone 2" incidentdate="2016-07-27" incidenttime="11:45:00" incidentnumber="16139202" address="Addison St &amp; Centre Ave" type="ARREST" age="30" gender="M" description="*********************************************** &lt;br/&gt;13(a)(16), Possession of Controlled Substance&lt;br/&gt;"/><marker lat="40.462402719860648" lng="-79.950882093642306" zone="Zone 5" incidentdate="2016-07-27" incidenttime="01:00:00" incidentnumber="16137037" address="4600 block Liberty Ave" type="ARREST" age="39" gender="M" description="*********************************************** &lt;br/&gt;2701, Simple Assault.&lt;br/&gt;2701(a)(1), Simple Assault - Intent., Know., Reckless.Cause Bod. Injury&lt;br/&gt;"/></markers>
