<?xml version="1.0"?>
<markers><marker lat="40.470459914974732" lng="-79.908540011902716" zone="Zone 5" incidentdate="2015-05-27" incidenttime="17:50:00" incidentnumber="15094484" address="1400 block Washington Blvd" type="OFFENSE" age="" gender="" description="*********************************************** &lt;br/&gt;9124, Drug Investigation&lt;br/&gt;"/><marker lat="40.454307782768687" lng="-79.946518733076431" zone="Zone 5" incidentdate="2015-05-27" incidenttime="15:15:00" incidentnumber="15094390" address="4900 block Baum Blvd" type="OFFENSE" age="" gender="" description="*********************************************** &lt;br/&gt;3304, Criminal Mischief.&lt;br/&gt;2709(a), Harassment.&lt;br/&gt;"/><marker lat="40.438224491241179" lng="-79.97746711026835" zone="Zone 2" incidentdate="2015-05-27" incidenttime="02:10:00" incidentnumber="15094063" address="2000 block Wyandotte St" type="OFFENSE" age="" gender="" description="*********************************************** &lt;br/&gt;13(a)(32), Paraphernalia - Use or Possession&lt;br/&gt;"/><marker lat="40.453941514821814" lng="-80.006140670574254" zone="Zone 1" incidentdate="2015-05-27" incidenttime="07:40:00" incidentnumber="15094170" address="Federal St &amp; North Commons" type="OFFENSE" age="" gender="" description="*********************************************** &lt;br/&gt;3304, Criminal Mischief.&lt;br/&gt;3934, Theft from Vehicle&lt;br/&gt;"/><marker lat="40.443230518813948" lng="-80.000259352054542" zone="Zone 2" incidentdate="2015-05-27" incidenttime="19:20:00" incidentnumber="15094581" address="7th St &amp; Penn Ave" type="OFFENSE" age="" gender="" description="*********************************************** &lt;br/&gt;3701, Robbery.&lt;br/&gt;"/><marker lat="40.457144393433715" lng="-79.929298619025971" zone="Zone 4" incidentdate="2015-05-27" incidenttime="19:48:00" incidentnumber="15094536" address="Ellsworth Ave &amp; College Ave" type="OFFENSE" age="" gender="" description="*********************************************** &lt;br/&gt;5503(a)(4), DISORDERLY CONDUCT - HAZARDOUS/PHYS. OFF&lt;br/&gt;5505, Public Drunkenness&lt;br/&gt;"/><marker lat="40.470239318054197" lng="-80.012634590630185" zone="Zone 1" incidentdate="2015-05-27" incidenttime="00:01:00" incidentnumber="15094019" address="2600 block Norwood Ave" type="OFFENSE" age="" gender="" description="*********************************************** &lt;br/&gt;9488, False  Burglar Alarm&lt;br/&gt;"/><marker lat="40.454453495118237" lng="-80.058564447521761" zone="Zone 6" incidentdate="2015-05-27" incidenttime="19:30:00" incidentnumber="15094537" address="3000 block Chartiers Ave" type="OFFENSE" age="" gender="" description="*********************************************** &lt;br/&gt;9094, Recovered Stolen Vehicle (OUTSIDE CITY)&lt;br/&gt;"/><marker lat="40.430495680973685" lng="-79.981760805598654" zone="Zone 3" incidentdate="2015-05-27" incidenttime="13:00:00" incidentnumber="15094317" address="1700 block Wharton st St" type="OFFENSE" age="" gender="" description="*********************************************** &lt;br/&gt;3934, Theft from Vehicle&lt;br/&gt;"/><marker lat="40.437850264562179" lng="-80.004567110517371" zone="Zone 2" incidentdate="2015-05-27" incidenttime="14:15:00" incidentnumber="15094316" address="Market St" type="OFFENSE" age="" gender="" description="*********************************************** &lt;br/&gt;3929, Retail Theft.&lt;br/&gt;"/><marker lat="40.411405098539788" lng="-79.989902242247041" zone="Zone 3" incidentdate="2015-05-27" incidenttime="15:24:00" incidentnumber="15094405" address="Brownsville Rd &amp; Moore Ave" type="OFFENSE" age="" gender="" description="*********************************************** &lt;br/&gt;9501, Bench Warrant&lt;br/&gt;3308, One-Way Roadways and Rotary Traffic Islands.&lt;br/&gt;13(a)(16), Possession of Controlled Substance&lt;br/&gt;"/><marker lat="40.427221329702853" lng="-79.988525620766936" zone="Zone 3" incidentdate="2015-05-27" incidenttime="15:21:00" incidentnumber="15094372" address="P J Mc Ardle Rdwy &amp; S 10TH St" type="OFFENSE" age="" gender="" description="*********************************************** &lt;br/&gt;13(a)(32), Paraphernalia - Use or Possession&lt;br/&gt;3802(d)(2), DUI - Drug - Impaired Ability&lt;br/&gt;"/><marker lat="40.470002168803134" lng="-80.035880761375424" zone="Zone 1" incidentdate="2015-05-27" incidenttime="16:00:00" incidentnumber="15094397" address="2900 block CALIFORNIA Ave" type="OFFENSE" age="" gender="" description="*********************************************** &lt;br/&gt;3922, Theft by Deception.&lt;br/&gt;"/><marker lat="40.39458317783771" lng="-80.021692304865098" zone="Zone 6" incidentdate="2015-05-27" incidenttime="23:09:00" incidentnumber="15094705" address="700 block Brookline Blvd" type="OFFENSE" age="" gender="" description="*********************************************** &lt;br/&gt;3743, Accidents Involving Damage to Attended Veh. or Property&lt;br/&gt;"/><marker lat="40.449945984416168" lng="-79.950663260585088" zone="Zone 4" incidentdate="2015-05-27" incidenttime="11:00:00" incidentnumber="15094297" address="200 block N Craig St" type="OFFENSE" age="" gender="" description="*********************************************** &lt;br/&gt;9504, Lost Property&lt;br/&gt;"/><marker lat="40.408611737978767" lng="-79.943135078952523" zone="Zone 4" incidentdate="2015-05-27" incidenttime="17:08:00" incidentnumber="15094440" address="100 block Tecumseh St" type="OFFENSE" age="" gender="" description="*********************************************** &lt;br/&gt;9496, Dead on Arrival (DOA)&lt;br/&gt;"/><marker lat="40.460685484398638" lng="-79.969650322312106" zone="Zone 2" incidentdate="2015-05-27" incidenttime="16:00:00" incidentnumber="15094439" address="3200 block Penn Ave" type="OFFENSE" age="" gender="" description="*********************************************** &lt;br/&gt;3921, Theft by Unlawful Taking or Disposition.&lt;br/&gt;7116, Fraudulent Removal of Vehicle from Garage&lt;br/&gt;"/><marker lat="40.454948691850667" lng="-80.009640272832598" zone="Zone 1" incidentdate="2015-05-27" incidenttime="07:50:00" incidentnumber="15094253" address="300 block E North Ave" type="OFFENSE" age="" gender="" description="*********************************************** &lt;br/&gt;3304, Criminal Mischief.&lt;br/&gt;3934, Theft from Vehicle&lt;br/&gt;"/><marker lat="40.4457101" lng="-80.0096857" zone="Zone 1" incidentdate="2015-05-27" incidenttime="17:50:00" incidentnumber="15094470" address="S Ohio River Blvd &amp; Fort Duquesne Brg" type="OFFENSE" age="" gender="" description="*********************************************** &lt;br/&gt;13(a)(16), Possession of Controlled Substance&lt;br/&gt;"/><marker lat="40.470459914974732" lng="-79.908540011902716" zone="Zone 5" incidentdate="2015-05-27" incidenttime="14:45:00" incidentnumber="15094360" address="1400 block Washington Blvd" type="OFFENSE" age="" gender="" description="*********************************************** &lt;br/&gt;9999, 9999 - (Misc. Incident):&lt;br/&gt;"/><marker lat="40.399765495251444" lng="-79.991111430667971" zone="Zone 3" incidentdate="2015-05-27" incidenttime="09:45:00" incidentnumber="15094231" address="1600 block Oakhurst St" type="OFFENSE" age="" gender="" description="*********************************************** &lt;br/&gt;3304, Criminal Mischief.&lt;br/&gt;"/><marker lat="40.396333473457872" lng="-80.00977960038432" zone="Zone 6" incidentdate="2015-05-27" incidenttime="16:00:00" incidentnumber="15094406" address="2300 block Whited St" type="OFFENSE" age="" gender="" description="*********************************************** &lt;br/&gt;3502, Burglary.&lt;br/&gt;"/><marker lat="40.4616531" lng="-79.9907525" zone="Zone 1" incidentdate="2015-05-27" incidenttime="23:40:00" incidentnumber="15094691" address="1000 block Homer St &amp; Diana St" type="OFFENSE" age="" gender="" description="*********************************************** &lt;br/&gt;13(a)(16), Possession of Controlled Substance&lt;br/&gt;13(a)(32), Paraphernalia - Use or Possession&lt;br/&gt;"/><marker lat="40.427589868595867" lng="-79.971523048865237" zone="Zone 3" incidentdate="2015-05-27" incidenttime="06:00:00" incidentnumber="15094145" address="100 block S 24th St" type="OFFENSE" age="" gender="" description="*********************************************** &lt;br/&gt;3304, Criminal Mischief.&lt;br/&gt;"/><marker lat="40.47597732572121" lng="-79.921138032804592" zone="Zone 5" incidentdate="2015-05-27" incidenttime="15:00:00" incidentnumber="15094490" address="5700 block Bryant St" type="OFFENSE" age="" gender="" description="*********************************************** &lt;br/&gt;3502, Burglary.&lt;br/&gt;"/><marker lat="40.428684832699354" lng="-79.983306706238423" zone="Zone 3" incidentdate="2015-05-27" incidenttime="02:00:00" incidentnumber="15094548" address="1500 block E Carson St" type="OFFENSE" age="" gender="" description="*********************************************** &lt;br/&gt;3921, Theft by Unlawful Taking or Disposition.&lt;br/&gt;"/><marker lat="40.452888346792044" lng="-80.022356603693822" zone="Zone 1" incidentdate="2015-05-27" incidenttime="06:30:00" incidentnumber="15094418" address="1200 block W North Ave" type="OFFENSE" age="" gender="" description="*********************************************** &lt;br/&gt;3934, Theft from Vehicle&lt;br/&gt;"/><marker lat="40.474129017026684" lng="-79.888964795074898" zone="Zone 5" incidentdate="2015-05-27" incidenttime="07:30:00" incidentnumber="15094219" address="100 block Broadcrest Dr" type="OFFENSE" age="" gender="" description="*********************************************** &lt;br/&gt;3934, Theft from Vehicle&lt;br/&gt;"/><marker lat="40.463244507649506" lng="-79.912095482430715" zone="Zone 5" incidentdate="2015-05-27" incidenttime="11:37:00" incidentnumber="15094295" address="500 block Paulson Ave" type="OFFENSE" age="" gender="" description="*********************************************** &lt;br/&gt;3921, Theft by Unlawful Taking or Disposition.&lt;br/&gt;"/><marker lat="40.450892721440539" lng="-80.000843891836467" zone="Zone 1" incidentdate="2015-05-27" incidenttime="12:45:00" incidentnumber="15094296" address="300 block Cedar Ave" type="OFFENSE" age="" gender="" description="*********************************************** &lt;br/&gt;3929, Retail Theft.&lt;br/&gt;"/><marker lat="40.465544170932596" lng="-79.998701084779867" zone="Zone 1" incidentdate="2015-05-27" incidenttime="16:37:00" incidentnumber="15094424" address="Brahm St" type="OFFENSE" age="" gender="" description="*********************************************** &lt;br/&gt;3304, Criminal Mischief.&lt;br/&gt;"/><marker lat="40.467088856684526" lng="-79.926169592858798" zone="Zone 5" incidentdate="2015-05-27" incidenttime="17:00:00" incidentnumber="15094458" address="500 block N St Clair St" type="OFFENSE" age="" gender="" description="*********************************************** &lt;br/&gt;3502, Burglary.&lt;br/&gt;"/><marker lat="40.457593568539565" lng="-80.005887947591162" zone="Zone 1" incidentdate="2015-05-27" incidenttime="20:59:00" incidentnumber="15094588" address="100 block Hemlock St" type="OFFENSE" age="" gender="" description="*********************************************** &lt;br/&gt;4303, General Lighting Requirements.&lt;br/&gt;4914, False Identification to Law Enforcement Authorities&lt;br/&gt;13(a)(31), Marijuana: Possession Small Amount&lt;br/&gt;"/><marker lat="40.472282741699601" lng="-79.890911869885912" zone="Zone 5" incidentdate="2015-05-27" incidenttime="06:00:00" incidentnumber="15094195" address="7200 block Campania Ave" type="OFFENSE" age="" gender="" description="*********************************************** &lt;br/&gt;3934, Theft from Vehicle&lt;br/&gt;"/><marker lat="40.48354745800674" lng="-79.952165262262909" zone="Zone 2" incidentdate="2015-05-27" incidenttime="14:41:00" incidentnumber="15094466" address="54th St" type="OFFENSE" age="" gender="" description="*********************************************** &lt;br/&gt;3745, Accidents Involving Damage to Unattended Veh.or Prop.&lt;br/&gt;"/><marker lat="40.471486792108983" lng="-80.031258024531482" zone="Zone 1" incidentdate="2015-05-27" incidenttime="16:10:00" incidentnumber="15094423" address="3000 block Cake Way" type="OFFENSE" age="" gender="" description="*********************************************** &lt;br/&gt;3502, Burglary.&lt;br/&gt;"/><marker lat="40.42309122805122" lng="-79.923733084258188" zone="Zone 4" incidentdate="2015-05-27" incidenttime="15:55:00" incidentnumber="15094506" address="6500 block Lilac St" type="OFFENSE" age="" gender="" description="*********************************************** &lt;br/&gt;9999, 9999 - (Misc. Incident):&lt;br/&gt;"/><marker lat="40.424214179990742" lng="-79.991863321715584" zone="Zone 3" incidentdate="2015-05-27" incidenttime="16:25:00" incidentnumber="15094411" address="900 block Mclain St" type="OFFENSE" age="" gender="" description="*********************************************** &lt;br/&gt;2702, Aggravated Assault.&lt;br/&gt;2706, Terroristic Threats.&lt;br/&gt;3502, Burglary.&lt;br/&gt;"/><marker lat="40.439501769320117" lng="-80.023530865117223" zone="Zone 3" incidentdate="2015-05-27" incidenttime="11:30:00" incidentnumber="15094308" address="200 block Edith St" type="OFFENSE" age="" gender="" description="*********************************************** &lt;br/&gt;3921, Theft by Unlawful Taking or Disposition.&lt;br/&gt;"/><marker lat="40.484550069346753" lng="-80.035692783449747" zone="Zone 1" incidentdate="2015-05-27" incidenttime="22:07:00" incidentnumber="15094630" address="3800 block Brighton Rd" type="OFFENSE" age="" gender="" description="*********************************************** &lt;br/&gt;2702, Aggravated Assault.&lt;br/&gt;2709, Harassment (Non-Specific)&lt;br/&gt;"/><marker lat="40.46210948164034" lng="-80.053880726372" zone="Zone 6" incidentdate="2015-05-27" incidenttime="11:37:00" incidentnumber="15094268" address="300 block Tabor St" type="OFFENSE" age="" gender="" description="*********************************************** &lt;br/&gt;4120, Identity Theft&lt;br/&gt;"/><marker lat="40.452210852851195" lng="-79.998676352919205" zone="Zone 1" incidentdate="2015-05-27" incidenttime="00:43:00" incidentnumber="15094039" address="600 block Pressley St" type="OFFENSE" age="" gender="" description="*********************************************** &lt;br/&gt;9497, Aided Case&lt;br/&gt;"/><marker lat="40.448612850746272" lng="-79.965310331227656" zone="Zone 2" incidentdate="2015-05-27" incidenttime="18:16:00" incidentnumber="15094502" address="Centre Ave &amp; Wandless St" type="OFFENSE" age="" gender="" description="*********************************************** &lt;br/&gt;13(a)(31), Marijuana: Possession Small Amount&lt;br/&gt;"/><marker lat="40.456473594608255" lng="-80.05559691973923" zone="Zone 6" incidentdate="2015-05-27" incidenttime="18:24:00" incidentnumber="15094489" address="3100 block Landis St" type="OFFENSE" age="" gender="" description="*********************************************** &lt;br/&gt;9999, 9999 - (Misc. Incident):&lt;br/&gt;"/><marker lat="40.4000668" lng="-79.9865408" zone="Zone 3" incidentdate="2015-05-27" incidenttime="16:30:00" incidentnumber="15094422" address="1600 block Leolyn St" type="OFFENSE" age="" gender="" description="*********************************************** &lt;br/&gt;2709(a), Harassment.&lt;br/&gt;2701, Simple Assault.&lt;br/&gt;"/><marker lat="40.453360717234645" lng="-80.003927241484959" zone="Zone 1" incidentdate="2015-05-27" incidenttime="18:40:00" incidentnumber="15094504" address="Allegheny Sq W" type="OFFENSE" age="" gender="" description="*********************************************** &lt;br/&gt;2701(a)(1), Simple Assault - Intent., Know., Reckless.Cause Bod. Injury&lt;br/&gt;"/><marker lat="40.453164862899186" lng="-79.891108542969775" zone="Zone 5" incidentdate="2015-05-27" incidenttime="01:54:00" incidentnumber="15094057" address="Hamilton Ave &amp; N Braddock Ave" type="OFFENSE" age="" gender="" description="*********************************************** &lt;br/&gt;9501, Bench Warrant&lt;br/&gt;"/><marker lat="40.378443809335181" lng="-80.003123944842969" zone="Zone 3" incidentdate="2015-05-27" incidenttime="09:56:00" incidentnumber="15094224" address="2700 block Library Rd" type="OFFENSE" age="" gender="" description="*********************************************** &lt;br/&gt;3921, Theft by Unlawful Taking or Disposition.&lt;br/&gt;"/><marker lat="40.4561060211458" lng="-79.87322386742575" zone="Zone 5" incidentdate="2015-05-27" incidenttime="14:30:00" incidentnumber="15094349" address="2500 block Park Hill Dr" type="OFFENSE" age="" gender="" description="*********************************************** &lt;br/&gt;3502, Burglary.&lt;br/&gt;"/><marker lat="40.450892721440539" lng="-80.000843891836467" zone="Zone 1" incidentdate="2015-05-27" incidenttime="00:11:00" incidentnumber="15094245" address="300 block Cedar Ave" type="OFFENSE" age="" gender="" description="*********************************************** &lt;br/&gt;4101, Forgery.&lt;br/&gt;"/><marker lat="40.454629437176571" lng="-79.878965579763133" zone="Zone 5" incidentdate="2015-05-27" incidenttime="16:40:00" incidentnumber="15094427" address="8300 block Bricelyn St" type="OFFENSE" age="" gender="" description="*********************************************** &lt;br/&gt;029, Missing Juvenile&lt;br/&gt;"/><marker lat="40.465135387913563" lng="-79.95790763699263" zone="Zone 2" incidentdate="2015-05-27" incidenttime="01:22:00" incidentnumber="15094047" address="4000 block Penn Ave" type="OFFENSE" age="" gender="" description="*********************************************** &lt;br/&gt;9497, Aided Case&lt;br/&gt;"/><marker lat="40.481723020727152" lng="-80.031149989725932" zone="Zone 1" incidentdate="2015-05-27" incidenttime="08:14:00" incidentnumber="15094176" address="1100 block Davis Ave" type="OFFENSE" age="" gender="" description="*********************************************** &lt;br/&gt;9488, False  Burglar Alarm&lt;br/&gt;"/><marker lat="40.425535639433569" lng="-80.002978818959178" zone="Zone 3" incidentdate="2015-05-27" incidenttime="19:30:00" incidentnumber="15094544" address="Haberman Ave" type="OFFENSE" age="" gender="" description="*********************************************** &lt;br/&gt;2701, Simple Assault.&lt;br/&gt;"/><marker lat="40.436476866534065" lng="-79.913375438747323" zone="Zone 4" incidentdate="2015-05-27" incidenttime="10:00:00" incidentnumber="15094257" address="6700 block Beacon St" type="OFFENSE" age="" gender="" description="*********************************************** &lt;br/&gt;3745, Accidents Involving Damage to Unattended Veh.or Prop.&lt;br/&gt;"/><marker lat="40.46725205961728" lng="-79.91288627597271" zone="Zone 5" incidentdate="2015-05-27" incidenttime="11:22:00" incidentnumber="15094241" address="600 block Lenora St" type="OFFENSE" age="" gender="" description="*********************************************** &lt;br/&gt;2706, Terroristic Threats.&lt;br/&gt;"/><marker lat="40.469168918732578" lng="-80.005500836968579" zone="Zone 1" incidentdate="2015-05-27" incidenttime="21:12:00" incidentnumber="15094624" address="2400 block Lyzell St" type="OFFENSE" age="" gender="" description="*********************************************** &lt;br/&gt;3334, Turning Movements and Required Signals.&lt;br/&gt;1543, Driving While Operating Privilege is Suspended or Revoked.&lt;br/&gt;13(a)(16), Possession of Controlled Substance&lt;br/&gt;13(a)(32), Paraphernalia - Use or Possession&lt;br/&gt;"/><marker lat="40.4695307" lng="-80.0387079" zone="Zone 1" incidentdate="2015-05-27" incidenttime="18:00:00" incidentnumber="15094486" address="Beaver Ave &amp; Doerr St" type="OFFENSE" age="" gender="" description="*********************************************** &lt;br/&gt;9489, Found Property&lt;br/&gt;"/><marker lat="40.4833743" lng="-79.9243258" zone="Zone 3" incidentdate="2015-05-27" incidenttime="17:40:00" incidentnumber="15094443" address="S 18th St &amp; Southside Riverfront Park Access Rd" type="OFFENSE" age="" gender="" description="*********************************************** &lt;br/&gt;9489, Found Property&lt;br/&gt;"/><marker lat="40.411024584334392" lng="-79.955523389357523" zone="Zone 3" incidentdate="2015-05-27" incidenttime="16:05:00" incidentnumber="15094414" address="Becks Run Rd &amp; E Carson St" type="OFFENSE" age="" gender="" description="*********************************************** &lt;br/&gt;3743, Accidents Involving Damage to Attended Veh. or Property&lt;br/&gt;"/><marker lat="40.472160202718989" lng="-79.963279968738931" zone="Zone 2" incidentdate="2015-05-27" incidenttime="06:20:00" incidentnumber="15094150" address="100 block 42nd St" type="OFFENSE" age="" gender="" description="*********************************************** &lt;br/&gt;3934, Theft from Vehicle&lt;br/&gt;"/><marker lat="40.458313629612618" lng="-79.891012641854417" zone="Zone 5" incidentdate="2015-05-27" incidenttime="13:53:00" incidentnumber="15094328" address="7400 block Monticello St" type="OFFENSE" age="" gender="" description="*********************************************** &lt;br/&gt;9496, Dead on Arrival (DOA)&lt;br/&gt;"/><marker lat="40.399788878927772" lng="-80.043325511648376" zone="Zone 6" incidentdate="2015-05-27" incidenttime="20:29:00" incidentnumber="15094583" address="3100 block Banksville Rd" type="OFFENSE" age="" gender="" description="*********************************************** &lt;br/&gt;2701(a)(3), Simple Assault - Attempts by Physical Menace&lt;br/&gt;2706, Terroristic Threats.&lt;br/&gt;13(a)(32), Paraphernalia - Use or Possession&lt;br/&gt;901, Criminal Attempt&lt;br/&gt;"/><marker lat="40.399788878927772" lng="-80.043325511648376" zone="Zone 6" incidentdate="2015-05-27" incidenttime="06:48:00" incidentnumber="15094134" address="3100 block Banksville Rd" type="OFFENSE" age="" gender="" description="*********************************************** &lt;br/&gt;9488, False  Burglar Alarm&lt;br/&gt;"/><marker lat="40.456129468098958" lng="-80.005653454006023" zone="Zone 1" incidentdate="2015-05-27" incidenttime="01:35:00" incidentnumber="15094076" address="1200 block Boyle St" type="OFFENSE" age="" gender="" description="*********************************************** &lt;br/&gt;2701(a)(1), Simple Assault - Intent., Know., Reckless.Cause Bod. Injury&lt;br/&gt;"/><marker lat="40.454837687599735" lng="-79.890318198845179" zone="Zone 5" incidentdate="2015-05-27" incidenttime="08:10:00" incidentnumber="15094407" address="7600 block Bennett St" type="OFFENSE" age="" gender="" description="*********************************************** &lt;br/&gt;13(a)(32), Paraphernalia - Use or Possession&lt;br/&gt;3921(a), Theft by Unlawful Taking or Disposition - Movable item&lt;br/&gt;"/><marker lat="40.419982102910893" lng="-79.93603023000739" zone="Zone 4" incidentdate="2015-05-27" incidenttime="16:16:00" incidentnumber="15094401" address="600 block Montclair St" type="OFFENSE" age="" gender="" description="*********************************************** &lt;br/&gt;9496, Dead on Arrival (DOA)&lt;br/&gt;"/><marker lat="40.456515048695316" lng="-80.016515559088219" zone="Zone 1" incidentdate="2015-05-27" incidenttime="08:11:00" incidentnumber="15094141" address="1500 block Brighton Rd" type="OFFENSE" age="" gender="" description="*********************************************** &lt;br/&gt;9489, Found Property&lt;br/&gt;"/><marker lat="40.46967960794337" lng="-80.03188665644052" zone="Zone 1" incidentdate="2015-05-27" incidenttime="17:30:00" incidentnumber="15094546" address="1400 block Dickson St" type="OFFENSE" age="" gender="" description="*********************************************** &lt;br/&gt;3304, Criminal Mischief.&lt;br/&gt;"/><marker lat="40.438949311117092" lng="-79.998479763213126" zone="Zone 2" incidentdate="2015-05-27" incidenttime="17:45:00" incidentnumber="15094379" address="400 block Cherry Way" type="OFFENSE" age="" gender="" description="*********************************************** &lt;br/&gt;9489, Found Property&lt;br/&gt;"/><marker lat="40.463154353819839" lng="-79.899304943646911" zone="Zone 5" incidentdate="2015-05-27" incidenttime="20:28:00" incidentnumber="15094580" address="N Murtland St &amp; Upland St" type="OFFENSE" age="" gender="" description="*********************************************** &lt;br/&gt;1543, Driving While Operating Privilege is Suspended or Revoked.&lt;br/&gt;3736, Reckless Driving&lt;br/&gt;3733, Fleeing or Attempting to Elude Police Officer&lt;br/&gt;3323, Stop Signs and Yield Signs.&lt;br/&gt;2705, Recklessly Endangering Another Person.&lt;br/&gt;"/><marker lat="40.477665579445592" lng="-79.941865690510141" zone="Zone 5" incidentdate="2015-05-27" incidenttime="11:00:00" incidentnumber="15094266" address="4300 block Coleridge St" type="OFFENSE" age="" gender="" description="*********************************************** &lt;br/&gt;3934, Theft from Vehicle&lt;br/&gt;"/><marker lat="40.452978759474085" lng="-79.909818228068545" zone="Zone 4" incidentdate="2015-05-27" incidenttime="13:15:00" incidentnumber="15094301" address="6800 block Meade St" type="OFFENSE" age="" gender="" description="*********************************************** &lt;br/&gt;3928, Unauthorized Use of Automobile and Other Vehicles.&lt;br/&gt;9490, Missing Persons (18 and Over)&lt;br/&gt;"/><marker lat="40.457155854017508" lng="-79.929226237261304" zone="Zone 4" incidentdate="2015-05-27" incidenttime="19:26:00" incidentnumber="15094538" address="600 block College Ave" type="OFFENSE" age="" gender="" description="*********************************************** &lt;br/&gt;5505, Public Drunkenness&lt;br/&gt;"/><marker lat="40.451641277074351" lng="-80.023920685345786" zone="Zone 3" incidentdate="2015-05-27" incidenttime="08:00:00" incidentnumber="15094463" address="1300 block Page St" type="OFFENSE" age="" gender="" description="*********************************************** &lt;br/&gt;2706, Terroristic Threats.&lt;br/&gt;2701, Simple Assault.&lt;br/&gt;"/><marker lat="40.477665579445592" lng="-79.941865690510141" zone="Zone 5" incidentdate="2015-05-27" incidenttime="08:59:00" incidentnumber="15094197" address="4300 block Coleridge St" type="OFFENSE" age="" gender="" description="*********************************************** &lt;br/&gt;3934, Theft from Vehicle&lt;br/&gt;"/><marker lat="40.416127822623537" lng="-79.974588087598846" zone="Zone 3" incidentdate="2015-05-27" incidenttime="07:20:00" incidentnumber="15094168" address="2300 block Spring St" type="OFFENSE" age="" gender="" description="*********************************************** &lt;br/&gt;3921, Theft by Unlawful Taking or Disposition.&lt;br/&gt;"/><marker lat="40.45616862923675" lng="-80.020455297206254" zone="Zone 1" incidentdate="2015-05-27" incidenttime="08:30:00" incidentnumber="15094188" address="1000 block Liverpool St" type="OFFENSE" age="" gender="" description="*********************************************** &lt;br/&gt;3934, Theft from Vehicle&lt;br/&gt;3304, Criminal Mischief.&lt;br/&gt;"/><marker lat="40.463154353819839" lng="-79.899304943646911" zone="Zone 5" incidentdate="2015-05-27" incidenttime="20:28:00" incidentnumber="15094580" address="N Murtland St &amp; Upland St" type="ARREST" age="32" gender="M" description="*********************************************** &lt;br/&gt;1543, Driving While Operating Privilege is Suspended or Revoked.&lt;br/&gt;3736, Reckless Driving&lt;br/&gt;3733, Fleeing or Attempting to Elude Police Officer&lt;br/&gt;3323, Stop Signs and Yield Signs.&lt;br/&gt;2705, Recklessly Endangering Another Person.&lt;br/&gt;"/><marker lat="40.427221329702853" lng="-79.988525620766936" zone="Zone 3" incidentdate="2015-05-27" incidenttime="15:52:00" incidentnumber="15094372" address="P J Mc Ardle Rdwy &amp; S 10TH St" type="ARREST" age="48" gender="M" description="*********************************************** &lt;br/&gt;13(a)(32), Paraphernalia - Use or Possession&lt;br/&gt;3802(d)(2), DUI - Drug - Impaired Ability&lt;br/&gt;"/><marker lat="40.435095503606554" lng="-79.993077686753679" zone="Zone 2" incidentdate="2015-05-27" incidenttime="13:30:00" incidentnumber="15093281" address="900 block Second Ave" type="ARREST" age="47" gender="M" description="*********************************************** &lt;br/&gt;2701(a)(1), Simple Assault - Intent., Know., Reckless.Cause Bod. Injury&lt;br/&gt;2709(a)(1), Harassment by Physical Contact, or Attempts or Threats&lt;br/&gt;2706, Terroristic Threats.&lt;br/&gt;"/><marker lat="40.454837687599735" lng="-79.890318198845179" zone="Zone 5" incidentdate="2015-05-27" incidenttime="16:54:00" incidentnumber="15094407" address="7600 block Bennett St" type="ARREST" age="58" gender="M" description="*********************************************** &lt;br/&gt;13(a)(32), Paraphernalia - Use or Possession&lt;br/&gt;3921(a), Theft by Unlawful Taking or Disposition - Movable item&lt;br/&gt;"/><marker lat="40.411405098539788" lng="-79.989902242247041" zone="Zone 3" incidentdate="2015-05-27" incidenttime="15:24:00" incidentnumber="15094405" address="Brownsville Rd &amp; Moore Ave" type="ARREST" age="28" gender="M" description="*********************************************** &lt;br/&gt;9501, Bench Warrant&lt;br/&gt;3308, One-Way Roadways and Rotary Traffic Islands.&lt;br/&gt;13(a)(16), Possession of Controlled Substance&lt;br/&gt;"/><marker lat="40.404914940128336" lng="-80.040145473413176" zone="Zone 6" incidentdate="2015-05-27" incidenttime="17:45:00" incidentnumber="15081963" address="2800 block Banksville Rd" type="ARREST" age="30" gender="M" description="*********************************************** &lt;br/&gt;3934, Theft from Vehicle&lt;br/&gt;3304, Criminal Mischief.&lt;br/&gt;"/><marker lat="40.484550069346753" lng="-80.035692783449747" zone="Zone 1" incidentdate="2015-05-27" incidenttime="22:07:00" incidentnumber="15094630" address="3800 block Brighton Rd" type="ARREST" age="13" gender="F" description="*********************************************** &lt;br/&gt;2702, Aggravated Assault.&lt;br/&gt;2709, Harassment (Non-Specific)&lt;br/&gt;"/><marker lat="40.469168918732578" lng="-80.005500836968579" zone="Zone 1" incidentdate="2015-05-27" incidenttime="21:12:00" incidentnumber="15094624" address="2400 block Lyzell St" type="ARREST" age="23" gender="M" description="*********************************************** &lt;br/&gt;3334, Turning Movements and Required Signals.&lt;br/&gt;1543, Driving While Operating Privilege is Suspended or Revoked.&lt;br/&gt;13(a)(16), Possession of Controlled Substance&lt;br/&gt;13(a)(32), Paraphernalia - Use or Possession&lt;br/&gt;"/><marker lat="40.435095503606554" lng="-79.993077686753679" zone="Zone 2" incidentdate="2015-05-27" incidenttime="23:45:00" incidentnumber="14235636" address="900 block 2nd Ave" type="ARREST" age="18" gender="M" description="*********************************************** &lt;br/&gt;3925, Receiving Stolen Property.&lt;br/&gt;903, Criminal Conspiracy.&lt;br/&gt;"/><marker lat="40.457593568539565" lng="-80.005887947591162" zone="Zone 1" incidentdate="2015-05-27" incidenttime="21:10:00" incidentnumber="15094588" address="100 block Hemlock St" type="ARREST" age="" gender="M" description="*********************************************** &lt;br/&gt;4303, General Lighting Requirements.&lt;br/&gt;4914, False Identification to Law Enforcement Authorities&lt;br/&gt;13(a)(31), Marijuana: Possession Small Amount&lt;br/&gt;"/><marker lat="40.450892721440539" lng="-80.000843891836467" zone="Zone 1" incidentdate="2015-05-27" incidenttime="13:05:00" incidentnumber="15094296" address="300 block Cedar Ave" type="ARREST" age="55" gender="F" description="*********************************************** &lt;br/&gt;3929, Retail Theft.&lt;br/&gt;"/><marker lat="40.404914940128336" lng="-80.040145473413176" zone="Zone 6" incidentdate="2015-05-27" incidenttime="17:45:00" incidentnumber="15081930" address="2800 block Banksville Ave" type="ARREST" age="30" gender="M" description="*********************************************** &lt;br/&gt;3934, Theft from Vehicle&lt;br/&gt;"/><marker lat="40.404914940128336" lng="-80.040145473413176" zone="Zone 6" incidentdate="2015-05-27" incidenttime="17:45:00" incidentnumber="15081954" address="2800 block Banksville Rd" type="ARREST" age="30" gender="M" description="*********************************************** &lt;br/&gt;3934, Theft from Vehicle&lt;br/&gt;"/><marker lat="40.408087363631154" lng="-79.992146899928159" zone="Zone 3" incidentdate="2015-05-27" incidenttime="16:59:00" incidentnumber="15088679" address="200 block Reifert St" type="ARREST" age="23" gender="M" description="*********************************************** &lt;br/&gt;3928, Unauthorized Use of Automobile and Other Vehicles.&lt;br/&gt;1543, Driving While Operating Privilege is Suspended or Revoked.&lt;br/&gt;2701, Simple Assault.&lt;br/&gt;"/><marker lat="40.448612850746272" lng="-79.965310331227656" zone="Zone 2" incidentdate="2015-05-27" incidenttime="18:18:00" incidentnumber="15094502" address="Centre Ave &amp; Wandless St" type="ARREST" age="23" gender="M" description="*********************************************** &lt;br/&gt;13(a)(31), Marijuana: Possession Small Amount&lt;br/&gt;"/><marker lat="40.4616531" lng="-79.9907525" zone="Zone 1" incidentdate="2015-05-27" incidenttime="23:40:00" incidentnumber="15094691" address="1000 block Homer St &amp; Diana St" type="ARREST" age="43" gender="M" description="*********************************************** &lt;br/&gt;13(a)(16), Possession of Controlled Substance&lt;br/&gt;13(a)(32), Paraphernalia - Use or Possession&lt;br/&gt;"/><marker lat="40.411405098539788" lng="-79.989902242247041" zone="Zone 3" incidentdate="2015-05-27" incidenttime="15:24:00" incidentnumber="15094405" address="Brownsville Rd &amp; Moore Ave" type="ARREST" age="28" gender="F" description="*********************************************** &lt;br/&gt;9501, Bench Warrant&lt;br/&gt;3308, One-Way Roadways and Rotary Traffic Islands.&lt;br/&gt;13(a)(16), Possession of Controlled Substance&lt;br/&gt;"/><marker lat="40.46249179673049" lng="-80.005474487351108" zone="Zone 1" incidentdate="2015-05-27" incidenttime="20:40:00" incidentnumber="15089224" address="Television Hill St" type="ARREST" age="32" gender="M" description="*********************************************** &lt;br/&gt;3304, Criminal Mischief.&lt;br/&gt;3503(b)(1)(ii), Defiant Trespass Notice Posted by Sign(s)&lt;br/&gt;907, Possessing Instruments of Crime.&lt;br/&gt;"/><marker lat="40.457021969330476" lng="-79.901602106444784" zone="Zone 5" incidentdate="2015-05-27" incidenttime="15:10:00" incidentnumber="15022583" address="7000 block Fleury Way" type="ARREST" age="41" gender="F" description="*********************************************** &lt;br/&gt;3921, Theft by Unlawful Taking or Disposition.&lt;br/&gt;9015, Failure To Appear/Arrest on Attachment Order&lt;br/&gt;"/><marker lat="40.440697119948119" lng="-80.003946068250272" zone="Zone 2" incidentdate="2015-05-27" incidenttime="15:20:00" incidentnumber="15091129" address="100 block Forbes Ave" type="ARREST" age="31" gender="M" description="*********************************************** &lt;br/&gt;3921, Theft by Unlawful Taking or Disposition.&lt;br/&gt;"/><marker lat="40.425535639433569" lng="-80.002978818959178" zone="Zone 3" incidentdate="2015-05-27" incidenttime="20:07:00" incidentnumber="15094544" address="Haberman Ave" type="ARREST" age="70" gender="M" description="*********************************************** &lt;br/&gt;2701, Simple Assault.&lt;br/&gt;"/><marker lat="40.458314179719729" lng="-79.95708065158685" zone="Zone 2" incidentdate="2015-05-27" incidenttime="09:20:00" incidentnumber="14231663" address="Blessing St &amp; Ridgeway St" type="ARREST" age="22" gender="M" description="*********************************************** &lt;br/&gt;9015, Failure To Appear/Arrest on Attachment Order&lt;br/&gt;13(a)(16), Possession of Controlled Substance&lt;br/&gt;1543, Driving While Operating Privilege is Suspended or Revoked.&lt;br/&gt;13(a)(32), Paraphernalia - Use or Possession&lt;br/&gt;3743, Accidents Involving Damage to Attended Veh. or Property&lt;br/&gt;4906, False Reports to Law Enforcement Authorities.&lt;br/&gt;"/><marker lat="40.399788878927772" lng="-80.043325511648376" zone="Zone 6" incidentdate="2015-05-27" incidenttime="20:50:00" incidentnumber="15094583" address="3100 block Banksville Rd" type="ARREST" age="32" gender="M" description="*********************************************** &lt;br/&gt;2701(a)(3), Simple Assault - Attempts by Physical Menace&lt;br/&gt;2706, Terroristic Threats.&lt;br/&gt;13(a)(32), Paraphernalia - Use or Possession&lt;br/&gt;901, Criminal Attempt&lt;br/&gt;"/><marker lat="40.4000668" lng="-79.9865408" zone="Zone 3" incidentdate="2015-05-27" incidenttime="16:55:00" incidentnumber="15094422" address="1600 block Leolyn St" type="ARREST" age="25" gender="F" description="*********************************************** &lt;br/&gt;2709(a), Harassment.&lt;br/&gt;2701, Simple Assault.&lt;br/&gt;"/><marker lat="40.425535639433569" lng="-80.002978818959178" zone="Zone 3" incidentdate="2015-05-27" incidenttime="20:07:00" incidentnumber="15094544" address="Haberman Ave" type="ARREST" age="43" gender="F" description="*********************************************** &lt;br/&gt;2701, Simple Assault.&lt;br/&gt;"/><marker lat="40.453164862899186" lng="-79.891108542969775" zone="Zone 5" incidentdate="2015-05-27" incidenttime="02:00:00" incidentnumber="15094057" address="Hamilton Ave &amp; N Braddock Ave" type="ARREST" age="25" gender="M" description="*********************************************** &lt;br/&gt;9501, Bench Warrant&lt;br/&gt;"/><marker lat="40.4457101" lng="-80.0096857" zone="Zone 1" incidentdate="2015-05-27" incidenttime="18:00:00" incidentnumber="15094470" address="S Ohio River Blvd &amp; Fort Duquesne Brg" type="ARREST" age="36" gender="M" description="*********************************************** &lt;br/&gt;13(a)(16), Possession of Controlled Substance&lt;br/&gt;"/><marker lat="40.456313482740313" lng="-79.887606547758622" zone="Zone 5" incidentdate="2015-05-27" incidenttime="16:35:00" incidentnumber="15000372" address="7700 block Baxter St" type="ARREST" age="43" gender="M" description="*********************************************** &lt;br/&gt;2706, Terroristic Threats.&lt;br/&gt;2701, Simple Assault.&lt;br/&gt;"/><marker lat="40.453360717234645" lng="-80.003927241484959" zone="Zone 1" incidentdate="2015-05-27" incidenttime="19:00:00" incidentnumber="15094504" address="Allegheny Sq W" type="ARREST" age="36" gender="M" description="*********************************************** &lt;br/&gt;2701(a)(1), Simple Assault - Intent., Know., Reckless.Cause Bod. Injury&lt;br/&gt;"/><marker lat="40.431557283791797" lng="-80.008785199434641" zone="Zone 3" incidentdate="2015-05-27" incidenttime="23:45:00" incidentnumber="14238619" address="200 block W Sycamore St" type="ARREST" age="18" gender="M" description="*********************************************** &lt;br/&gt;3502, Burglary.&lt;br/&gt;3921(a), Theft by Unlawful Taking or Disposition - Movable item&lt;br/&gt;"/><marker lat="40.438224491241179" lng="-79.97746711026835" zone="Zone 2" incidentdate="2015-05-27" incidenttime="02:20:00" incidentnumber="15094063" address="2000 block Wyandotte St" type="ARREST" age="53" gender="F" description="*********************************************** &lt;br/&gt;13(a)(32), Paraphernalia - Use or Possession&lt;br/&gt;"/><marker lat="40.434696587775576" lng="-79.996300985228572" zone="Zone 2" incidentdate="2015-05-27" incidenttime="09:10:00" incidentnumber="15081271" address="600 block First Ave" type="ARREST" age="23" gender="F" description="*********************************************** &lt;br/&gt;3929(a)(1), Retail Theft; takes possession of, carries away, or transfers displayed merchandise&lt;br/&gt;3929, Retail Theft.&lt;br/&gt;"/><marker lat="40.437850264562179" lng="-80.004567110517371" zone="Zone 2" incidentdate="2015-05-27" incidenttime="14:30:00" incidentnumber="15094316" address="Market St" type="ARREST" age="57" gender="M" description="*********************************************** &lt;br/&gt;3929, Retail Theft.&lt;br/&gt;"/><marker lat="40.399961534579475" lng="-79.987404124378216" zone="Zone 3" incidentdate="2015-05-27" incidenttime="17:09:00" incidentnumber="15089893" address="100 block E Meyers St" type="ARREST" age="31" gender="F" description="*********************************************** &lt;br/&gt;6301, Corruption of Minors.&lt;br/&gt;"/></markers>
