<?xml version="1.0"?>
<markers><marker lat="40.4033716" lng="-80.0013226" zone="Zone 3" incidentdate="2014-09-03" incidenttime="11:15:00" incidentnumber="14076271" address="900 Saw Mill Run Boulevard, Pittsburgh, PA 15226, USA" type="ARREST" description="*********************************************** &lt;br/&gt;3925, Receiving Stolen Property.&lt;br/&gt;"/><marker lat="40.4359335" lng="-79.9971487" zone="Zone 2" incidentdate="2014-09-03" incidenttime="09:45:00" incidentnumber="14106255" address="600 First Avenue, Pittsburgh, PA 15219, USA" type="ARREST" description="*********************************************** &lt;br/&gt;2702, Aggravated Assault.&lt;br/&gt;2707, Propulsion of Missiles&lt;br/&gt;607.03, Discharging Firearm or Airgun&lt;br/&gt;"/><marker lat="40.3900121" lng="-79.9769369" zone="Zone 3" incidentdate="2014-09-03" incidenttime="11:30:00" incidentnumber="14148000" address="300 Kirk Avenue, Pittsburgh, PA 15227, USA" type="ARREST" description="*********************************************** &lt;br/&gt;2702, Aggravated Assault.&lt;br/&gt;"/><marker lat="40.435467" lng="-79.996404" zone="Zone 2" incidentdate="2014-09-03" incidenttime="15:00:00" incidentnumber="14158653" address="600 1st Avenue, Pittsburgh, PA 15219, USA" type="OFFENSE" description="*********************************************** &lt;br/&gt;9494, Summary Warrants&lt;br/&gt;"/><marker lat="40.435467" lng="-79.996404" zone="Zone 2" incidentdate="2014-09-03" incidenttime="15:00:00" incidentnumber="14158655" address="600 1st Avenue, Pittsburgh, PA 15219, USA" type="OFFENSE" description="*********************************************** &lt;br/&gt;9494, Summary Warrants&lt;br/&gt;"/><marker lat="40.435467" lng="-79.996404" zone="Zone 2" incidentdate="2014-09-03" incidenttime="15:00:00" incidentnumber="14158656" address="600 1st Avenue, Pittsburgh, PA 15219, USA" type="OFFENSE" description="*********************************************** &lt;br/&gt;9494, Summary Warrants&lt;br/&gt;"/><marker lat="40.435467" lng="-79.996404" zone="Zone 2" incidentdate="2014-09-03" incidenttime="15:00:00" incidentnumber="14158657" address="600 1st Avenue, Pittsburgh, PA 15219, USA" type="OFFENSE" description="*********************************************** &lt;br/&gt;9494, Summary Warrants&lt;br/&gt;"/><marker lat="40.435467" lng="-79.996404" zone="Zone 2" incidentdate="2014-09-03" incidenttime="15:00:00" incidentnumber="14158661" address="600 1st Avenue, Pittsburgh, PA 15219, USA" type="OFFENSE" description="*********************************************** &lt;br/&gt;9494, Summary Warrants&lt;br/&gt;"/><marker lat="40.435467" lng="-79.996404" zone="Zone 2" incidentdate="2014-09-03" incidenttime="15:00:00" incidentnumber="14158663" address="600 1st Avenue, Pittsburgh, PA 15219, USA" type="OFFENSE" description="*********************************************** &lt;br/&gt;"/><marker lat="40.435467" lng="-79.996404" zone="Zone 2" incidentdate="2014-09-03" incidenttime="15:00:00" incidentnumber="14158664" address="600 1st Avenue, Pittsburgh, PA 15219, USA" type="OFFENSE" description="*********************************************** &lt;br/&gt;9494, Summary Warrants&lt;br/&gt;"/><marker lat="40.435467" lng="-79.996404" zone="Zone 2" incidentdate="2014-09-03" incidenttime="15:00:00" incidentnumber="14158665" address="600 1st Avenue, Pittsburgh, PA 15219, USA" type="OFFENSE" description="*********************************************** &lt;br/&gt;9494, Summary Warrants&lt;br/&gt;"/><marker lat="40.435467" lng="-79.996404" zone="Zone 2" incidentdate="2014-09-03" incidenttime="15:00:00" incidentnumber="14158668" address="600 1st Avenue, Pittsburgh, PA 15219, USA" type="OFFENSE" description="*********************************************** &lt;br/&gt;9494, Summary Warrants&lt;br/&gt;"/><marker lat="40.435467" lng="-79.996404" zone="Zone 2" incidentdate="2014-09-03" incidenttime="15:00:00" incidentnumber="14158669" address="600 1st Avenue, Pittsburgh, PA 15219, USA" type="OFFENSE" description="*********************************************** &lt;br/&gt;9494, Summary Warrants&lt;br/&gt;"/><marker lat="40.4003913" lng="-79.9859234" zone="Zone 3" incidentdate="2014-09-03" incidenttime="18:00:00" incidentnumber="14158670" address="East Meyers Street, Pittsburgh, PA 15210, USA" type="OFFENSE" description="*********************************************** &lt;br/&gt;9494, Summary Warrants&lt;br/&gt;"/><marker lat="40.4000828" lng="-79.9875825" zone="Zone 3" incidentdate="2014-09-03" incidenttime="18:25:00" incidentnumber="14158671" address="1600 Concordia Street, Pittsburgh, PA 15210, USA" type="OFFENSE" description="*********************************************** &lt;br/&gt;9494, Summary Warrants&lt;br/&gt;"/><marker lat="40.441507" lng="-79.9822126" zone="Zone 3" incidentdate="2014-09-03" incidenttime="19:55:00" incidentnumber="14158672" address="Crawford-Roberts, Pittsburgh, PA, USA" type="OFFENSE" description="*********************************************** &lt;br/&gt;9494, Summary Warrants&lt;br/&gt;"/><marker lat="40.435822" lng="-79.9231662" zone="Zone 4" incidentdate="2014-09-03" incidenttime="18:35:00" incidentnumber="14164855" address="1900 Murray Avenue, Pittsburgh, PA 15217, USA" type="ARREST" description="*********************************************** &lt;br/&gt;3925, Receiving Stolen Property.&lt;br/&gt;3929, Retail Theft.&lt;br/&gt;903, Criminal Conspiracy.&lt;br/&gt;903, Criminal Conspiracy.&lt;br/&gt;3925, Receiving Stolen Property.&lt;br/&gt;3929, Retail Theft.&lt;br/&gt;903, Criminal Conspiracy.&lt;br/&gt;"/><marker lat="40.4241787" lng="-79.9703759" zone="Zone 3" incidentdate="2014-09-03" incidenttime="11:30:00" incidentnumber="14170049" address="Josephine Street, Pittsburgh, PA, USA" type="ARREST" description="*********************************************** &lt;br/&gt;2701(a)(3), Simple Assault - Attempts by Physical Menace&lt;br/&gt;2709.1, Stalking Conduct or Repeatedly Acts Including Follows&lt;br/&gt;"/><marker lat="40.4833209" lng="-80.043029" zone="Zone 1" incidentdate="2014-09-03" incidenttime="18:00:00" incidentnumber="14171232" address="1900 Morrell Street, Pittsburgh, PA 15212, USA" type="ARREST" description="*********************************************** &lt;br/&gt;3502, Burglary.&lt;br/&gt;3502, Burglary.&lt;br/&gt;3921, Theft by Unlawful Taking or Disposition.&lt;br/&gt;3925, Receiving Stolen Property.&lt;br/&gt;"/><marker lat="40.4668715" lng="-80.0188169" zone="Zone 1" incidentdate="2014-09-03" incidenttime="00:15:00" incidentnumber="14175668" address="2500 North Charles Street, Pittsburgh, PA 15214, USA" type="OFFENSE" description="*********************************************** &lt;br/&gt;2702, Aggravated Assault.&lt;br/&gt;2705, Recklessly Endangering Another Person.&lt;br/&gt;"/><marker lat="40.421846" lng="-80.0255303" zone="Zone 6" incidentdate="2014-09-03" incidenttime="00:35:00" incidentnumber="14175674" address="1100 Shadycrest Place, Pittsburgh, PA 15216, USA" type="OFFENSE" description="*********************************************** &lt;br/&gt;9497, Aided Case&lt;br/&gt;"/><marker lat="40.452265" lng="-79.998701" zone="Zone 1" incidentdate="2014-09-03" incidenttime="00:56:00" incidentnumber="14175681" address="600 Pressley Street, Pittsburgh, PA 15212, USA" type="OFFENSE" description="*********************************************** &lt;br/&gt;2709(a)(1), Harassment by Physical Contact, or Attempts or Threats&lt;br/&gt;"/><marker lat="40.4452986" lng="-79.9939316" zone="Zone 2" incidentdate="2014-09-03" incidenttime="00:50:00" incidentnumber="14175682" address="11th Street, Pittsburgh, PA 15222, USA" type="OFFENSE" description="*********************************************** &lt;br/&gt;3701, Robbery.&lt;br/&gt;"/><marker lat="40.4561491" lng="-80.0599483" zone="Zone 6" incidentdate="2014-09-03" incidenttime="01:45:00" incidentnumber="14175690" address="800 Fairdale Street, Pittsburgh, PA 15204, USA" type="ARREST" description="*********************************************** &lt;br/&gt;2701, Simple Assault.&lt;br/&gt;2701, Simple Assault.&lt;br/&gt;"/><marker lat="40.4561491" lng="-80.0599483" zone="Zone 6" incidentdate="2014-09-03" incidenttime="01:15:00" incidentnumber="14175690" address="800 Fairdale Street, Pittsburgh, PA 15204, USA" type="OFFENSE" description="*********************************************** &lt;br/&gt;2701, Simple Assault.&lt;br/&gt;2701, Simple Assault.&lt;br/&gt;"/><marker lat="40.4181322" lng="-79.988211" zone="Zone 3" incidentdate="2014-09-03" incidenttime="01:30:00" incidentnumber="14175695" address="Orchard Place &amp; Amanda Avenue, Pittsburgh, PA 15210, USA" type="ARREST" description="*********************************************** &lt;br/&gt;13(a)(16), Possession of Controlled Substance&lt;br/&gt;13(a)(32), Paraphernalia - Use or Possession&lt;br/&gt;13(a)(16), Possession of Controlled Substance&lt;br/&gt;13(a)(32), Paraphernalia - Use or Possession&lt;br/&gt;"/><marker lat="40.4181322" lng="-79.988211" zone="Zone 3" incidentdate="2014-09-03" incidenttime="01:30:00" incidentnumber="14175695" address="Orchard Place &amp; Amanda Avenue, Pittsburgh, PA 15210, USA" type="OFFENSE" description="*********************************************** &lt;br/&gt;13(a)(16), Possession of Controlled Substance&lt;br/&gt;13(a)(32), Paraphernalia - Use or Possession&lt;br/&gt;13(a)(16), Possession of Controlled Substance&lt;br/&gt;13(a)(32), Paraphernalia - Use or Possession&lt;br/&gt;"/><marker lat="40.46876" lng="-79.985636" zone="Zone 1" incidentdate="2014-09-03" incidenttime="02:41:00" incidentnumber="14175698" address="1900 Spring Garden Avenue, Pittsburgh, PA 15212, USA" type="OFFENSE" description="*********************************************** &lt;br/&gt;9488, False  Burglar Alarm&lt;br/&gt;"/><marker lat="40.4565789" lng="-79.9976205" zone="Zone 1" incidentdate="2014-09-03" incidenttime="01:34:00" incidentnumber="14175708" address="800 Tripoli Street, Pittsburgh, PA 15212, USA" type="OFFENSE" description="*********************************************** &lt;br/&gt;3921, Theft by Unlawful Taking or Disposition.&lt;br/&gt;"/><marker lat="40.4288154" lng="-79.9834085" zone="Zone 3" incidentdate="2014-09-03" incidenttime="02:21:00" incidentnumber="14175716" address="East Carson Street &amp; South 15th Street, Pittsburgh, PA 15203, USA" type="ARREST" description="*********************************************** &lt;br/&gt;2702, Aggravated Assault.&lt;br/&gt;4914, False Identification to Law Enforcement Authorities&lt;br/&gt;5505, Public Drunkenness&lt;br/&gt;6308(a), Underage Purchase, Consume, Possessed or Transport Liquor&lt;br/&gt;6310.3(a), Carrying a False Identification Card; under 21 to obtain liquor&lt;br/&gt;2702, Aggravated Assault.&lt;br/&gt;4914, False Identification to Law Enforcement Authorities&lt;br/&gt;5505, Public Drunkenness&lt;br/&gt;6308(a), Underage Purchase, Consume, Possessed or Transport Liquor&lt;br/&gt;6310.3(a), Carrying a False Identification Card; under 21 to obtain liquor&lt;br/&gt;4914, False Identification to Law Enforcement Authorities&lt;br/&gt;5505, Public Drunkenness&lt;br/&gt;6308(a), Underage Purchase, Consume, Possessed or Transport Liquor&lt;br/&gt;6310.3(a), Carrying a False Identification Card; under 21 to obtain liquor&lt;br/&gt;"/><marker lat="40.4288154" lng="-79.9834085" zone="Zone 3" incidentdate="2014-09-03" incidenttime="02:25:00" incidentnumber="14175716" address="East Carson Street &amp; South 15th Street, Pittsburgh, PA 15203, USA" type="ARREST" description="*********************************************** &lt;br/&gt;2702, Aggravated Assault.&lt;br/&gt;4914, False Identification to Law Enforcement Authorities&lt;br/&gt;5505, Public Drunkenness&lt;br/&gt;6308(a), Underage Purchase, Consume, Possessed or Transport Liquor&lt;br/&gt;6310.3(a), Carrying a False Identification Card; under 21 to obtain liquor&lt;br/&gt;2702, Aggravated Assault.&lt;br/&gt;4914, False Identification to Law Enforcement Authorities&lt;br/&gt;5505, Public Drunkenness&lt;br/&gt;6308(a), Underage Purchase, Consume, Possessed or Transport Liquor&lt;br/&gt;6310.3(a), Carrying a False Identification Card; under 21 to obtain liquor&lt;br/&gt;4914, False Identification to Law Enforcement Authorities&lt;br/&gt;5505, Public Drunkenness&lt;br/&gt;6308(a), Underage Purchase, Consume, Possessed or Transport Liquor&lt;br/&gt;6310.3(a), Carrying a False Identification Card; under 21 to obtain liquor&lt;br/&gt;"/><marker lat="40.4288154" lng="-79.9834085" zone="Zone 3" incidentdate="2014-09-03" incidenttime="02:16:00" incidentnumber="14175716" address="East Carson Street &amp; South 15th Street, Pittsburgh, PA 15203, USA" type="OFFENSE" description="*********************************************** &lt;br/&gt;2702, Aggravated Assault.&lt;br/&gt;4914, False Identification to Law Enforcement Authorities&lt;br/&gt;5505, Public Drunkenness&lt;br/&gt;6308(a), Underage Purchase, Consume, Possessed or Transport Liquor&lt;br/&gt;6310.3(a), Carrying a False Identification Card; under 21 to obtain liquor&lt;br/&gt;2702, Aggravated Assault.&lt;br/&gt;4914, False Identification to Law Enforcement Authorities&lt;br/&gt;5505, Public Drunkenness&lt;br/&gt;6308(a), Underage Purchase, Consume, Possessed or Transport Liquor&lt;br/&gt;6310.3(a), Carrying a False Identification Card; under 21 to obtain liquor&lt;br/&gt;4914, False Identification to Law Enforcement Authorities&lt;br/&gt;5505, Public Drunkenness&lt;br/&gt;6308(a), Underage Purchase, Consume, Possessed or Transport Liquor&lt;br/&gt;6310.3(a), Carrying a False Identification Card; under 21 to obtain liquor&lt;br/&gt;"/><marker lat="40.3913597" lng="-79.9852843" zone="Zone 3" incidentdate="2014-09-03" incidenttime="02:28:00" incidentnumber="14175719" address="100 Eiler Avenue, Pittsburgh, PA 15210, USA" type="OFFENSE" description="*********************************************** &lt;br/&gt;3304, Criminal Mischief.&lt;br/&gt;3503, Criminal Trespass&lt;br/&gt;"/><marker lat="40.4273055" lng="-79.9792524" zone="Zone 3" incidentdate="2014-09-03" incidenttime="02:10:00" incidentnumber="14175726" address="1900 Larkins Way, Pittsburgh, PA 15203, USA" type="OFFENSE" description="*********************************************** &lt;br/&gt;2701(a)(1), Simple Assault - Intent., Know., Reckless.Cause Bod. Injury&lt;br/&gt;"/><marker lat="40.4406248" lng="-79.9958864" zone="Zone OSC" incidentdate="2014-09-03" incidenttime="02:53:00" incidentnumber="14175730" address="Pittsburgh, PA, USA" type="OFFENSE" description="*********************************************** &lt;br/&gt;9094, Recovered Stolen Vehicle (OUTSIDE CITY)&lt;br/&gt;"/><marker lat="40.4770243" lng="-79.9569425" zone="Zone 2" incidentdate="2014-09-03" incidenttime="03:20:00" incidentnumber="14175737" address="Butler Street &amp; 49th Street, Pittsburgh, PA 15201, USA" type="ARREST" description="*********************************************** &lt;br/&gt;2702, Aggravated Assault.&lt;br/&gt;5104, Resisting Arrest or Other Law Enforcement.&lt;br/&gt;5503(a)(2), DISORDERLY CONDUCT - UNREASONABLE NOISE&lt;br/&gt;5505, Public Drunkenness&lt;br/&gt;2702, Aggravated Assault.&lt;br/&gt;5104, Resisting Arrest or Other Law Enforcement.&lt;br/&gt;5503(a)(2), DISORDERLY CONDUCT - UNREASONABLE NOISE&lt;br/&gt;5505, Public Drunkenness&lt;br/&gt;"/><marker lat="40.4770243" lng="-79.9569425" zone="Zone 2" incidentdate="2014-09-03" incidenttime="03:10:00" incidentnumber="14175737" address="Butler Street &amp; 49th Street, Pittsburgh, PA 15201, USA" type="OFFENSE" description="*********************************************** &lt;br/&gt;2702, Aggravated Assault.&lt;br/&gt;5104, Resisting Arrest or Other Law Enforcement.&lt;br/&gt;5503(a)(2), DISORDERLY CONDUCT - UNREASONABLE NOISE&lt;br/&gt;5505, Public Drunkenness&lt;br/&gt;2702, Aggravated Assault.&lt;br/&gt;5104, Resisting Arrest or Other Law Enforcement.&lt;br/&gt;5503(a)(2), DISORDERLY CONDUCT - UNREASONABLE NOISE&lt;br/&gt;5505, Public Drunkenness&lt;br/&gt;"/><marker lat="40.3917987" lng="-80.0167199" zone="Zone 6" incidentdate="2014-09-03" incidenttime="10:00:00" incidentnumber="14175826" address="1000 Brookline Boulevard, Pittsburgh, PA 15226, USA" type="ARREST" description="*********************************************** &lt;br/&gt;2701, Simple Assault.&lt;br/&gt;2701, Simple Assault.&lt;br/&gt;"/><marker lat="40.3917987" lng="-80.0167199" zone="Zone 6" incidentdate="2014-09-03" incidenttime="08:23:00" incidentnumber="14175826" address="1000 Brookline Boulevard, Pittsburgh, PA 15226, USA" type="OFFENSE" description="*********************************************** &lt;br/&gt;2701, Simple Assault.&lt;br/&gt;2701, Simple Assault.&lt;br/&gt;"/><marker lat="40.4476545" lng="-80.0611297" zone="Zone 6" incidentdate="2014-09-03" incidenttime="08:42:00" incidentnumber="14175831" address="2800 Straka Street, Pittsburgh, PA 15204, USA" type="OFFENSE" description="*********************************************** &lt;br/&gt;9488, False  Burglar Alarm&lt;br/&gt;"/><marker lat="40.4549984" lng="-80.0126045" zone="Zone 1" incidentdate="2014-09-03" incidenttime="05:09:00" incidentnumber="14175841" address="1200 Monterey Street, Pittsburgh, PA 15212, USA" type="OFFENSE" description="*********************************************** &lt;br/&gt;3502, Burglary.&lt;br/&gt;"/><marker lat="40.424312" lng="-80.007443" zone="Zone 3" incidentdate="2014-09-03" incidenttime="09:20:00" incidentnumber="14175855" address="300 Kramer Way, Pittsburgh, PA 15211, USA" type="OFFENSE" description="*********************************************** &lt;br/&gt;3304(a)(5), CRIMINAL MISCHIEF - Intentionally Damages Real Or Personal Property Of Another&lt;br/&gt;"/><marker lat="40.4514653" lng="-79.9572436" zone="Zone 2" incidentdate="2014-09-03" incidenttime="07:30:00" incidentnumber="14175868" address="Bryn Mawr Road &amp; Iowa Street, Pittsburgh, PA 15219, USA" type="OFFENSE" description="*********************************************** &lt;br/&gt;3745, Accidents Involving Damage to Unattended Veh.or Prop.&lt;br/&gt;"/><marker lat="40.445265" lng="-79.9487895" zone="Zone 4" incidentdate="2014-09-03" incidenttime="09:00:00" incidentnumber="14175869" address="South Craig Street &amp; Filmore Street, Pittsburgh, PA 15213, USA" type="OFFENSE" description="*********************************************** &lt;br/&gt;3745, Accidents Involving Damage to Unattended Veh.or Prop.&lt;br/&gt;"/><marker lat="40.4524347" lng="-80.0140176" zone="Zone 1" incidentdate="2014-09-03" incidenttime="09:40:00" incidentnumber="14175873" address="800 Western Avenue, Pittsburgh, PA 15233, USA" type="OFFENSE" description="*********************************************** &lt;br/&gt;9488, False  Burglar Alarm&lt;br/&gt;"/><marker lat="40.45922" lng="-79.910882" zone="Zone 5" incidentdate="2014-09-03" incidenttime="09:30:00" incidentnumber="14175879" address="6600 Frankstown Avenue, Pittsburgh, PA 15206, USA" type="OFFENSE" description="*********************************************** &lt;br/&gt;3502, Burglary.&lt;br/&gt;"/><marker lat="40.4642579" lng="-79.962332" zone="Zone 2" incidentdate="2014-09-03" incidenttime="09:00:00" incidentnumber="14175897" address="3700 Penn Avenue, Pittsburgh, PA 15201, USA" type="OFFENSE" description="*********************************************** &lt;br/&gt;4106, Access Device Fraud&lt;br/&gt;"/><marker lat="40.4561125" lng="-80.0498849" zone="Zone 6" incidentdate="2014-09-03" incidenttime="10:15:00" incidentnumber="14175900" address="2900 Stafford Street, Pittsburgh, PA 15204, USA" type="OFFENSE" description="*********************************************** &lt;br/&gt;3745, Accidents Involving Damage to Unattended Veh.or Prop.&lt;br/&gt;"/><marker lat="40.4272802" lng="-79.9714046" zone="Zone 3" incidentdate="2014-09-03" incidenttime="08:00:00" incidentnumber="14175920" address="2400 Sarah Street, Pittsburgh, PA 15203, USA" type="OFFENSE" description="*********************************************** &lt;br/&gt;3921, Theft by Unlawful Taking or Disposition.&lt;br/&gt;"/><marker lat="40.4569879" lng="-80.0012131" zone="Zone 1" incidentdate="2014-09-03" incidenttime="10:30:00" incidentnumber="14175925" address="1200 Ocala Street, Pittsburgh, PA 15212, USA" type="OFFENSE" description="*********************************************** &lt;br/&gt;3745, Accidents Involving Damage to Unattended Veh.or Prop.&lt;br/&gt;"/><marker lat="40.4622468" lng="-79.9696059" zone="Zone 2" incidentdate="2014-09-03" incidenttime="06:00:00" incidentnumber="14175932" address="33rd Street, Pittsburgh, PA 15201, USA" type="OFFENSE" description="*********************************************** &lt;br/&gt;3304(a)(4), CRIMINAL MISCHIEF- Intentionally Damage Property (By Graffiti, Aerosol Spray Paint, Broad&lt;br/&gt;Tip, Marker, or Similar)&lt;br/&gt;"/><marker lat="40.4372346" lng="-79.9793371" zone="Zone 2" incidentdate="2014-09-03" incidenttime="10:30:00" incidentnumber="14175934" address="1900 Forbes Avenue, Pittsburgh, PA 15219, USA" type="OFFENSE" description="*********************************************** &lt;br/&gt;3304, Criminal Mischief.&lt;br/&gt;3934, Theft from Vehicle&lt;br/&gt;"/><marker lat="40.4542967" lng="-79.8768504" zone="Zone 5" incidentdate="2014-09-03" incidenttime="12:00:00" incidentnumber="14175939" address="8300 Rolfe Street, Pittsburgh, PA 15221, USA" type="OFFENSE" description="*********************************************** &lt;br/&gt;3922, Theft by Deception.&lt;br/&gt;"/><marker lat="40.4668715" lng="-80.0188169" zone="Zone 1" incidentdate="2014-09-03" incidenttime="11:00:00" incidentnumber="14175951" address="2500 North Charles Street, Pittsburgh, PA 15214, USA" type="OFFENSE" description="*********************************************** &lt;br/&gt;3921(a), Theft by Unlawful Taking or Disposition - Movable item&lt;br/&gt;"/><marker lat="40.4912999" lng="-80.0264595" zone="Zone 1" incidentdate="2014-09-03" incidenttime="12:10:00" incidentnumber="14175952" address="100 Montview Street, Pittsburgh, PA 15214, USA" type="OFFENSE" description="*********************************************** &lt;br/&gt;9488, False  Burglar Alarm&lt;br/&gt;"/><marker lat="40.4395271" lng="-79.9981821" zone="Zone 2" incidentdate="2014-09-03" incidenttime="12:00:00" incidentnumber="14175961" address="400 Fifth Avenue, Pittsburgh, PA 15219, USA" type="ARREST" description="*********************************************** &lt;br/&gt;3929, Retail Theft.&lt;br/&gt;3929, Retail Theft.&lt;br/&gt;"/><marker lat="40.4395271" lng="-79.9981821" zone="Zone 2" incidentdate="2014-09-03" incidenttime="11:55:00" incidentnumber="14175961" address="400 Fifth Avenue, Pittsburgh, PA 15219, USA" type="OFFENSE" description="*********************************************** &lt;br/&gt;3929, Retail Theft.&lt;br/&gt;3929, Retail Theft.&lt;br/&gt;"/><marker lat="40.4785914" lng="-80.0008597" zone="Zone 1" incidentdate="2014-09-03" incidenttime="10:00:00" incidentnumber="14175963" address="500 Mount Pleasant Road, Pittsburgh, PA 15214, USA" type="OFFENSE" description="*********************************************** &lt;br/&gt;3921, Theft by Unlawful Taking or Disposition.&lt;br/&gt;"/><marker lat="40.401639" lng="-79.9969573" zone="Zone 3" incidentdate="2014-09-03" incidenttime="13:10:00" incidentnumber="14175973" address="400 Nobles Lane, Pittsburgh, PA 15210, USA" type="OFFENSE" description="*********************************************** &lt;br/&gt;2701, Simple Assault.&lt;br/&gt;2706, Terroristic Threats.&lt;br/&gt;"/><marker lat="40.4485839" lng="-80.0398883" zone="Zone 6" incidentdate="2014-09-03" incidenttime="12:47:00" incidentnumber="14175975" address="Bond Street, Pittsburgh, PA 15220, USA" type="OFFENSE" description="*********************************************** &lt;br/&gt;3301, Arson&lt;br/&gt;"/><marker lat="40.4300268" lng="-79.9767713" zone="Zone 3" incidentdate="2014-09-03" incidenttime="12:53:00" incidentnumber="14175977" address="2000 Wharton Street, Pittsburgh, PA 15203, USA" type="OFFENSE" description="*********************************************** &lt;br/&gt;5505, Public Drunkenness&lt;br/&gt;"/><marker lat="40.4431862" lng="-79.9747013" zone="Zone 2" incidentdate="2014-09-03" incidenttime="13:05:00" incidentnumber="14175981" address="Kirkpatrick Street, Pittsburgh, PA, USA" type="ARREST" description="*********************************************** &lt;br/&gt;13(a)(31), Marijuana: Possession Small Amount&lt;br/&gt;13(a)(16), Possession of Controlled Substance&lt;br/&gt;13(a)(30), Possession w/ Intent to Del. Controlled Substance&lt;br/&gt;13(a)(31), Marijuana: Possession Small Amount&lt;br/&gt;"/><marker lat="40.4431862" lng="-79.9747013" zone="Zone 2" incidentdate="2014-09-03" incidenttime="13:20:00" incidentnumber="14175981" address="Kirkpatrick Street, Pittsburgh, PA, USA" type="OFFENSE" description="*********************************************** &lt;br/&gt;13(a)(31), Marijuana: Possession Small Amount&lt;br/&gt;13(a)(16), Possession of Controlled Substance&lt;br/&gt;13(a)(30), Possession w/ Intent to Del. Controlled Substance&lt;br/&gt;13(a)(31), Marijuana: Possession Small Amount&lt;br/&gt;"/><marker lat="40.4639362" lng="-79.9553132" zone="Zone 5" incidentdate="2014-09-03" incidenttime="13:04:00" incidentnumber="14175982" address="Canoe Way, Pittsburgh, PA 15224, USA" type="ARREST" description="*********************************************** &lt;br/&gt;2701(a)(1), Simple Assault - Intent., Know., Reckless.Cause Bod. Injury&lt;br/&gt;2701(a)(1), Simple Assault - Intent., Know., Reckless.Cause Bod. Injury&lt;br/&gt;"/><marker lat="40.4639362" lng="-79.9553132" zone="Zone 5" incidentdate="2014-09-03" incidenttime="13:03:00" incidentnumber="14175982" address="Canoe Way, Pittsburgh, PA 15224, USA" type="OFFENSE" description="*********************************************** &lt;br/&gt;2701(a)(1), Simple Assault - Intent., Know., Reckless.Cause Bod. Injury&lt;br/&gt;2701(a)(1), Simple Assault - Intent., Know., Reckless.Cause Bod. Injury&lt;br/&gt;"/><marker lat="40.4709975" lng="-79.8967458" zone="Zone 5" incidentdate="2014-09-03" incidenttime="13:10:00" incidentnumber="14175984" address="7100 Churchland Street, Pittsburgh, PA 15206, USA" type="OFFENSE" description="*********************************************** &lt;br/&gt;3502, Burglary.&lt;br/&gt;"/><marker lat="40.453654" lng="-80.017561" zone="Zone 1" incidentdate="2014-09-03" incidenttime="13:23:00" incidentnumber="14175991" address="900 West North Avenue, Pittsburgh, PA 15233, USA" type="ARREST" description="*********************************************** &lt;br/&gt;13(a)(16), Possession of Controlled Substance&lt;br/&gt;13(a)(16), Possession of Controlled Substance&lt;br/&gt;"/><marker lat="40.453654" lng="-80.017561" zone="Zone 1" incidentdate="2014-09-03" incidenttime="13:23:00" incidentnumber="14175991" address="900 West North Avenue, Pittsburgh, PA 15233, USA" type="OFFENSE" description="*********************************************** &lt;br/&gt;13(a)(16), Possession of Controlled Substance&lt;br/&gt;13(a)(16), Possession of Controlled Substance&lt;br/&gt;"/><marker lat="40.476591" lng="-79.920256" zone="Zone 5" incidentdate="2014-09-03" incidenttime="10:30:00" incidentnumber="14175998" address="5800 Elgin Street, Pittsburgh, PA 15206, USA" type="OFFENSE" description="*********************************************** &lt;br/&gt;3502, Burglary.&lt;br/&gt;901, Criminal Attempt&lt;br/&gt;"/><marker lat="40.4547141" lng="-80.0294295" zone="Zone 1" incidentdate="2014-09-03" incidenttime="13:40:00" incidentnumber="14176003" address="1500 Beaver Avenue, Pittsburgh, PA 15233, USA" type="OFFENSE" description="*********************************************** &lt;br/&gt;9999, 9999 - (Misc. Incident):&lt;br/&gt;"/><marker lat="40.428479" lng="-79.980266" zone="Zone 3" incidentdate="2014-09-03" incidenttime="14:22:00" incidentnumber="14176033" address="1800 East Carson Street, Pittsburgh, PA 15203, USA" type="OFFENSE" description="*********************************************** &lt;br/&gt;5505, Public Drunkenness&lt;br/&gt;601.08(a), Alcohol or Liquor Consumption on Streets or Sidewalks&lt;br/&gt;"/><marker lat="40.4616446" lng="-79.9911586" zone="Zone 1" incidentdate="2014-09-03" incidenttime="13:30:00" incidentnumber="14176036" address="1300 Diana Street, Pittsburgh, PA 15212, USA" type="OFFENSE" description="*********************************************** &lt;br/&gt;3304, Criminal Mischief.&lt;br/&gt;"/><marker lat="40.3969634" lng="-80.0233553" zone="Zone 6" incidentdate="2014-09-03" incidenttime="14:45:00" incidentnumber="14176054" address="2500 Pioneer Avenue, Pittsburgh, PA 15226, USA" type="OFFENSE" description="*********************************************** &lt;br/&gt;3745, Accidents Involving Damage to Unattended Veh.or Prop.&lt;br/&gt;"/><marker lat="40.4035146" lng="-79.9922857" zone="Zone 3" incidentdate="2014-09-03" incidenttime="15:00:00" incidentnumber="14176057" address="100 Minooka Street, Pittsburgh, PA 15210, USA" type="OFFENSE" description="*********************************************** &lt;br/&gt;3502, Burglary.&lt;br/&gt;"/><marker lat="40.457963" lng="-79.9039446" zone="Zone 5" incidentdate="2014-09-03" incidenttime="15:25:00" incidentnumber="14176067" address="6900 Bennett Street, Pittsburgh, PA 15208, USA" type="OFFENSE" description="*********************************************** &lt;br/&gt;9999, 9999 - (Misc. Incident):&lt;br/&gt;"/><marker lat="40.437847" lng="-79.922806" zone="Zone 4" incidentdate="2014-09-03" incidenttime="11:10:00" incidentnumber="14176074" address="5800 Forbes Avenue, Pittsburgh, PA 15217, USA" type="OFFENSE" description="*********************************************** &lt;br/&gt;3929(a)(1), Retail Theft; takes possession of, carries away, or transfers displayed merchandise&lt;br/&gt;"/><marker lat="40.4297763" lng="-80.0041737" zone="Zone 3" incidentdate="2014-09-03" incidenttime="14:30:00" incidentnumber="14176077" address="100 East Sycamore Street, Pittsburgh, PA 15211, USA" type="OFFENSE" description="*********************************************** &lt;br/&gt;3304, Criminal Mischief.&lt;br/&gt;"/><marker lat="40.4417688" lng="-80.0015897" zone="Zone 2" incidentdate="2014-09-03" incidenttime="15:25:00" incidentnumber="14176080" address="600 Liberty Avenue, Pittsburgh, PA 15222, USA" type="OFFENSE" description="*********************************************** &lt;br/&gt;3929, Retail Theft.&lt;br/&gt;"/><marker lat="40.4521157" lng="-80.0552891" zone="Zone 6" incidentdate="2014-09-03" incidenttime="15:30:00" incidentnumber="14176089" address="900 Berry Street, Pittsburgh, PA 15204, USA" type="OFFENSE" description="*********************************************** &lt;br/&gt;3502, Burglary.&lt;br/&gt;"/><marker lat="40.4435539" lng="-79.9593349" zone="Zone 4" incidentdate="2014-09-03" incidenttime="15:57:00" incidentnumber="14176091" address="3800 OHara Street, University of Pittsburgh, Pittsburgh, PA 15213, USA" type="OFFENSE" description="*********************************************** &lt;br/&gt;9490, Missing Persons (18 and Over)&lt;br/&gt;"/><marker lat="40.457644" lng="-79.935299" zone="Zone 5" incidentdate="2014-09-03" incidenttime="15:18:00" incidentnumber="14176095" address="5600 Baum Boulevard, Pittsburgh, PA 15206, USA" type="OFFENSE" description="*********************************************** &lt;br/&gt;3929(a)(1), Retail Theft; takes possession of, carries away, or transfers displayed merchandise&lt;br/&gt;"/><marker lat="40.4157302" lng="-79.9694913" zone="Zone 3" incidentdate="2014-09-03" incidenttime="16:00:00" incidentnumber="14176099" address="200 Goldbach Street, Pittsburgh, PA 15210, USA" type="OFFENSE" description="*********************************************** &lt;br/&gt;3502, Burglary.&lt;br/&gt;"/><marker lat="40.4484988" lng="-79.9751527" zone="Zone 2" incidentdate="2014-09-03" incidenttime="09:00:00" incidentnumber="14176107" address="Webster Avenue &amp; Somers Street, Pittsburgh, PA 15219, USA" type="OFFENSE" description="*********************************************** &lt;br/&gt;9489, Found Property&lt;br/&gt;"/><marker lat="40.487259" lng="-80.0181739" zone="Zone 1" incidentdate="2014-09-03" incidenttime="16:17:00" incidentnumber="14176116" address="Semicir Street, Pittsburgh, PA 15214, USA" type="OFFENSE" description="*********************************************** &lt;br/&gt;9999, 9999 - (Misc. Incident):&lt;br/&gt;"/><marker lat="40.4606714" lng="-80.0036528" zone="Zone 1" incidentdate="2014-09-03" incidenttime="15:30:00" incidentnumber="14176117" address="1600 Myler Street, Pittsburgh, PA 15212, USA" type="OFFENSE" description="*********************************************** &lt;br/&gt;2701, Simple Assault.&lt;br/&gt;"/><marker lat="40.4720214" lng="-79.9232223" zone="Zone 5" incidentdate="2014-09-03" incidenttime="15:00:00" incidentnumber="14176129" address="Jackson Street &amp; North Saint Clair Street, Pittsburgh, PA 15206, USA" type="OFFENSE" description="*********************************************** &lt;br/&gt;2709(a), Harassment.&lt;br/&gt;"/><marker lat="40.4698103" lng="-79.900837" zone="Zone 5" incidentdate="2014-09-03" incidenttime="16:00:00" incidentnumber="14176130" address="1300 Nelson Street, Pittsburgh, PA 15206, USA" type="OFFENSE" description="*********************************************** &lt;br/&gt;3502, Burglary.&lt;br/&gt;"/><marker lat="40.4717365" lng="-79.9329193" zone="Zone 5" incidentdate="2014-09-03" incidenttime="17:15:00" incidentnumber="14176133" address="5300 North Aiken Court, Pittsburgh, PA 15224, USA" type="OFFENSE" description="*********************************************** &lt;br/&gt;3921(a), Theft by Unlawful Taking or Disposition - Movable item&lt;br/&gt;"/><marker lat="40.455406" lng="-80.0106187" zone="Zone 1" incidentdate="2014-09-03" incidenttime="09:00:00" incidentnumber="14176142" address="1200 Palo Alto Street, Pittsburgh, PA 15212, USA" type="OFFENSE" description="*********************************************** &lt;br/&gt;3502, Burglary.&lt;br/&gt;"/><marker lat="40.4683318" lng="-79.9555067" zone="Zone 2" incidentdate="2014-09-03" incidenttime="17:02:00" incidentnumber="14176158" address="400 44th Street, Pittsburgh, PA 15201, USA" type="ARREST" description="*********************************************** &lt;br/&gt;13(a)(16), Possession of Controlled Substance&lt;br/&gt;13(a)(16), Possession of Controlled Substance&lt;br/&gt;13(a)(30), Possession w/ Intent to Del. Controlled Substance&lt;br/&gt;13(a)(30)*, Delivery of Controlled Substance&lt;br/&gt;903, Criminal Conspiracy.&lt;br/&gt;13(a)(16), Possession of Controlled Substance&lt;br/&gt;13(a)(30), Possession w/ Intent to Del. Controlled Substance&lt;br/&gt;13(a)(32), Paraphernalia - Use or Possession&lt;br/&gt;903, Criminal Conspiracy.&lt;br/&gt;13(a)(16), Possession of Controlled Substance&lt;br/&gt;13(a)(30), Possession w/ Intent to Del. Controlled Substance&lt;br/&gt;13(a)(30)*, Delivery of Controlled Substance&lt;br/&gt;13(a)(32), Paraphernalia - Use or Possession&lt;br/&gt;903, Criminal Conspiracy.&lt;br/&gt;"/><marker lat="40.4683318" lng="-79.9555067" zone="Zone 2" incidentdate="2014-09-03" incidenttime="17:02:00" incidentnumber="14176158" address="400 44th Street, Pittsburgh, PA 15201, USA" type="ARREST" description="*********************************************** &lt;br/&gt;13(a)(16), Possession of Controlled Substance&lt;br/&gt;13(a)(16), Possession of Controlled Substance&lt;br/&gt;13(a)(30), Possession w/ Intent to Del. Controlled Substance&lt;br/&gt;13(a)(30)*, Delivery of Controlled Substance&lt;br/&gt;903, Criminal Conspiracy.&lt;br/&gt;13(a)(16), Possession of Controlled Substance&lt;br/&gt;13(a)(30), Possession w/ Intent to Del. Controlled Substance&lt;br/&gt;13(a)(32), Paraphernalia - Use or Possession&lt;br/&gt;903, Criminal Conspiracy.&lt;br/&gt;13(a)(16), Possession of Controlled Substance&lt;br/&gt;13(a)(30), Possession w/ Intent to Del. Controlled Substance&lt;br/&gt;13(a)(30)*, Delivery of Controlled Substance&lt;br/&gt;13(a)(32), Paraphernalia - Use or Possession&lt;br/&gt;903, Criminal Conspiracy.&lt;br/&gt;"/><marker lat="40.4683318" lng="-79.9555067" zone="Zone 2" incidentdate="2014-09-03" incidenttime="17:02:00" incidentnumber="14176158" address="400 44th Street, Pittsburgh, PA 15201, USA" type="ARREST" description="*********************************************** &lt;br/&gt;13(a)(16), Possession of Controlled Substance&lt;br/&gt;13(a)(16), Possession of Controlled Substance&lt;br/&gt;13(a)(30), Possession w/ Intent to Del. Controlled Substance&lt;br/&gt;13(a)(30)*, Delivery of Controlled Substance&lt;br/&gt;903, Criminal Conspiracy.&lt;br/&gt;13(a)(16), Possession of Controlled Substance&lt;br/&gt;13(a)(30), Possession w/ Intent to Del. Controlled Substance&lt;br/&gt;13(a)(32), Paraphernalia - Use or Possession&lt;br/&gt;903, Criminal Conspiracy.&lt;br/&gt;13(a)(16), Possession of Controlled Substance&lt;br/&gt;13(a)(30), Possession w/ Intent to Del. Controlled Substance&lt;br/&gt;13(a)(30)*, Delivery of Controlled Substance&lt;br/&gt;13(a)(32), Paraphernalia - Use or Possession&lt;br/&gt;903, Criminal Conspiracy.&lt;br/&gt;"/><marker lat="40.4683318" lng="-79.9555067" zone="Zone 2" incidentdate="2014-09-03" incidenttime="17:02:00" incidentnumber="14176158" address="400 44th Street, Pittsburgh, PA 15201, USA" type="OFFENSE" description="*********************************************** &lt;br/&gt;13(a)(16), Possession of Controlled Substance&lt;br/&gt;13(a)(16), Possession of Controlled Substance&lt;br/&gt;13(a)(30), Possession w/ Intent to Del. Controlled Substance&lt;br/&gt;13(a)(30)*, Delivery of Controlled Substance&lt;br/&gt;903, Criminal Conspiracy.&lt;br/&gt;13(a)(16), Possession of Controlled Substance&lt;br/&gt;13(a)(30), Possession w/ Intent to Del. Controlled Substance&lt;br/&gt;13(a)(32), Paraphernalia - Use or Possession&lt;br/&gt;903, Criminal Conspiracy.&lt;br/&gt;13(a)(16), Possession of Controlled Substance&lt;br/&gt;13(a)(30), Possession w/ Intent to Del. Controlled Substance&lt;br/&gt;13(a)(30)*, Delivery of Controlled Substance&lt;br/&gt;13(a)(32), Paraphernalia - Use or Possession&lt;br/&gt;903, Criminal Conspiracy.&lt;br/&gt;"/><marker lat="40.4280854" lng="-79.9649933" zone="Zone 3" incidentdate="2014-09-03" incidenttime="17:15:00" incidentnumber="14176161" address="400 Cinema Drive, Pittsburgh, PA 15203, USA" type="ARREST" description="*********************************************** &lt;br/&gt;4116, Copying; Recording Devices.&lt;br/&gt;4116, Copying; Recording Devices.&lt;br/&gt;"/><marker lat="40.4280854" lng="-79.9649933" zone="Zone 3" incidentdate="2014-09-03" incidenttime="17:00:00" incidentnumber="14176161" address="400 Cinema Drive, Pittsburgh, PA 15203, USA" type="OFFENSE" description="*********************************************** &lt;br/&gt;4116, Copying; Recording Devices.&lt;br/&gt;4116, Copying; Recording Devices.&lt;br/&gt;"/><marker lat="40.435919" lng="-80.052085" zone="Zone 6" incidentdate="2014-09-03" incidenttime="16:49:00" incidentnumber="14176174" address="1900 Noblestown Road, Pittsburgh, PA 15205, USA" type="OFFENSE" description="*********************************************** &lt;br/&gt;9496, Dead on Arrival (DOA)&lt;br/&gt;"/><marker lat="40.4084081" lng="-79.9912786" zone="Zone 3" incidentdate="2014-09-03" incidenttime="18:20:00" incidentnumber="14176211" address="800 Brownsville Road, Pittsburgh, PA 15210, USA" type="ARREST" description="*********************************************** &lt;br/&gt;13(a)(32), Paraphernalia - Use or Possession&lt;br/&gt;3934, Theft from Vehicle&lt;br/&gt;5505, Public Drunkenness&lt;br/&gt;13(a)(32), Paraphernalia - Use or Possession&lt;br/&gt;3934, Theft from Vehicle&lt;br/&gt;5505, Public Drunkenness&lt;br/&gt;"/><marker lat="40.4084081" lng="-79.9912786" zone="Zone 3" incidentdate="2014-09-03" incidenttime="17:51:00" incidentnumber="14176211" address="800 Brownsville Road, Pittsburgh, PA 15210, USA" type="OFFENSE" description="*********************************************** &lt;br/&gt;13(a)(32), Paraphernalia - Use or Possession&lt;br/&gt;3934, Theft from Vehicle&lt;br/&gt;5505, Public Drunkenness&lt;br/&gt;13(a)(32), Paraphernalia - Use or Possession&lt;br/&gt;3934, Theft from Vehicle&lt;br/&gt;5505, Public Drunkenness&lt;br/&gt;"/><marker lat="40.4606634" lng="-79.9227717" zone="Zone 5" incidentdate="2014-09-03" incidenttime="18:50:00" incidentnumber="14176247" address="Penn Avenue &amp; Penn Circle, Pittsburgh, PA 15206, USA" type="ARREST" description="*********************************************** &lt;br/&gt;3112, Traffic-Control Signals.&lt;br/&gt;6106, Firearms not to be Carried without a License.&lt;br/&gt;3112, Traffic-Control Signals.&lt;br/&gt;6106, Firearms not to be Carried without a License.&lt;br/&gt;"/><marker lat="40.4606634" lng="-79.9227717" zone="Zone 5" incidentdate="2014-09-03" incidenttime="18:46:00" incidentnumber="14176247" address="Penn Avenue &amp; Penn Circle, Pittsburgh, PA 15206, USA" type="OFFENSE" description="*********************************************** &lt;br/&gt;3112, Traffic-Control Signals.&lt;br/&gt;6106, Firearms not to be Carried without a License.&lt;br/&gt;3112, Traffic-Control Signals.&lt;br/&gt;6106, Firearms not to be Carried without a License.&lt;br/&gt;"/><marker lat="40.416759" lng="-79.97293" zone="Zone 3" incidentdate="2014-09-03" incidenttime="18:30:00" incidentnumber="14176253" address="2400 Charcot Street, Pittsburgh, PA 15210, USA" type="OFFENSE" description="*********************************************** &lt;br/&gt;3934, Theft from Vehicle&lt;br/&gt;"/><marker lat="40.434859" lng="-79.912782" zone="Zone 4" incidentdate="2014-09-03" incidenttime="19:20:00" incidentnumber="14176267" address="2200 Beechwood Boulevard, Pittsburgh, PA 15217, USA" type="OFFENSE" description="*********************************************** &lt;br/&gt;9497, Aided Case&lt;br/&gt;9498, 302 (Mental)&lt;br/&gt;9498, 302 (Mental)&lt;br/&gt;"/><marker lat="40.4419764" lng="-79.9711983" zone="Zone 4" incidentdate="2014-09-03" incidenttime="18:30:00" incidentnumber="14176285" address="Burrows Street, Pittsburgh, PA, USA" type="OFFENSE" description="*********************************************** &lt;br/&gt;3304, Criminal Mischief.&lt;br/&gt;3934, Theft from Vehicle&lt;br/&gt;"/><marker lat="40.439713" lng="-80.002297" zone="Zone 2" incidentdate="2014-09-03" incidenttime="19:20:00" incidentnumber="14176286" address="Parking Garage, 298 4th Ave, Pittsburgh, PA 15222, USA" type="OFFENSE" description="*********************************************** &lt;br/&gt;2709(a)(1), Harassment by Physical Contact, or Attempts or Threats&lt;br/&gt;2709(a)(1), Harassment by Physical Contact, or Attempts or Threats&lt;br/&gt;"/><marker lat="40.4608126" lng="-79.9157116" zone="Zone 5" incidentdate="2014-09-03" incidenttime="20:05:00" incidentnumber="14176296" address="6400 Frankstown Avenue, Pittsburgh, PA 15206, USA" type="ARREST" description="*********************************************** &lt;br/&gt;6106, Firearms not to be Carried without a License.&lt;br/&gt;6106, Firearms not to be Carried without a License.&lt;br/&gt;"/><marker lat="40.4608126" lng="-79.9157116" zone="Zone 5" incidentdate="2014-09-03" incidenttime="19:56:00" incidentnumber="14176296" address="6400 Frankstown Avenue, Pittsburgh, PA 15206, USA" type="OFFENSE" description="*********************************************** &lt;br/&gt;6106, Firearms not to be Carried without a License.&lt;br/&gt;6106, Firearms not to be Carried without a License.&lt;br/&gt;"/><marker lat="40.4542907" lng="-80.0008586" zone="Zone 1" incidentdate="2014-09-03" incidenttime="20:21:00" incidentnumber="14176312" address="James Street &amp; Foreland Street, Pittsburgh, PA 15212, USA" type="ARREST" description="*********************************************** &lt;br/&gt;5902(a)(2), Prostitution - Loitering for purpose of&lt;br/&gt;5902(a)(2), Prostitution - Loitering for purpose of&lt;br/&gt;"/><marker lat="40.4542907" lng="-80.0008586" zone="Zone 1" incidentdate="2014-09-03" incidenttime="20:21:00" incidentnumber="14176312" address="James Street &amp; Foreland Street, Pittsburgh, PA 15212, USA" type="OFFENSE" description="*********************************************** &lt;br/&gt;5902(a)(2), Prostitution - Loitering for purpose of&lt;br/&gt;5902(a)(2), Prostitution - Loitering for purpose of&lt;br/&gt;"/><marker lat="40.465417" lng="-79.935795" zone="Zone 5" incidentdate="2014-09-03" incidenttime="21:26:00" incidentnumber="14176352" address="5400 Broad Street, Pittsburgh, PA 15206, USA" type="OFFENSE" description="*********************************************** &lt;br/&gt;9999, 9999 - (Misc. Incident):&lt;br/&gt;9999, 9999 - (Misc. Incident):&lt;br/&gt;"/><marker lat="40.4545638" lng="-79.9993789" zone="Zone 1" incidentdate="2014-09-03" incidenttime="21:21:00" incidentnumber="14176353" address="Middle Street &amp; Foreland Street, Pittsburgh, PA 15212, USA" type="ARREST" description="*********************************************** &lt;br/&gt;5902(e), Patronizing a Prostitute&lt;br/&gt;902, Criminal Solicitation.&lt;br/&gt;5902(e), Patronizing a Prostitute&lt;br/&gt;902, Criminal Solicitation.&lt;br/&gt;"/><marker lat="40.4545638" lng="-79.9993789" zone="Zone 1" incidentdate="2014-09-03" incidenttime="21:21:00" incidentnumber="14176353" address="Middle Street &amp; Foreland Street, Pittsburgh, PA 15212, USA" type="OFFENSE" description="*********************************************** &lt;br/&gt;5902(e), Patronizing a Prostitute&lt;br/&gt;902, Criminal Solicitation.&lt;br/&gt;5902(e), Patronizing a Prostitute&lt;br/&gt;902, Criminal Solicitation.&lt;br/&gt;"/><marker lat="40.4757207" lng="-79.9987937" zone="Zone 1" incidentdate="2014-09-03" incidenttime="21:30:00" incidentnumber="14176354" address="800 Mount Pleasant Road, Pittsburgh, PA 15214, USA" type="ARREST" description="*********************************************** &lt;br/&gt;2701, Simple Assault.&lt;br/&gt;3304, Criminal Mischief.&lt;br/&gt;2701, Simple Assault.&lt;br/&gt;3304, Criminal Mischief.&lt;br/&gt;"/><marker lat="40.4757207" lng="-79.9987937" zone="Zone 1" incidentdate="2014-09-03" incidenttime="21:22:00" incidentnumber="14176354" address="800 Mount Pleasant Road, Pittsburgh, PA 15214, USA" type="OFFENSE" description="*********************************************** &lt;br/&gt;2701, Simple Assault.&lt;br/&gt;3304, Criminal Mischief.&lt;br/&gt;2701, Simple Assault.&lt;br/&gt;3304, Criminal Mischief.&lt;br/&gt;"/><marker lat="40.4545638" lng="-79.9993789" zone="Zone 1" incidentdate="2014-09-03" incidenttime="21:43:00" incidentnumber="14176368" address="Middle Street &amp; Foreland Street, Pittsburgh, PA 15212, USA" type="ARREST" description="*********************************************** &lt;br/&gt;5902(e), Patronizing a Prostitute&lt;br/&gt;902, Criminal Solicitation.&lt;br/&gt;5902(e), Patronizing a Prostitute&lt;br/&gt;902, Criminal Solicitation.&lt;br/&gt;902, Criminal Solicitation.&lt;br/&gt;"/><marker lat="40.4545638" lng="-79.9993789" zone="Zone 1" incidentdate="2014-09-03" incidenttime="21:43:00" incidentnumber="14176368" address="Middle Street &amp; Foreland Street, Pittsburgh, PA 15212, USA" type="OFFENSE" description="*********************************************** &lt;br/&gt;5902(e), Patronizing a Prostitute&lt;br/&gt;902, Criminal Solicitation.&lt;br/&gt;5902(e), Patronizing a Prostitute&lt;br/&gt;902, Criminal Solicitation.&lt;br/&gt;902, Criminal Solicitation.&lt;br/&gt;"/><marker lat="40.409868" lng="-80.020347" zone="Zone 6" incidentdate="2014-09-03" incidenttime="22:50:00" incidentnumber="14176371" address="300 Cape May Avenue, Pittsburgh, PA 15216, USA" type="OFFENSE" description="*********************************************** &lt;br/&gt;029, Missing Juvenile&lt;br/&gt;029, Missing Juvenile&lt;br/&gt;"/></markers>
