<?xml version="1.0"?>
<markers><marker lat="40.485278634005368" lng="-80.032992223540802" zone="Zone 1" incidentdate="2016-08-10" incidenttime="08:00:00" incidentnumber="16148871" address="1200 block Goe Ave" type="OFFENSE" age="" gender="" description="*********************************************** &lt;br/&gt;3502, Burglary.&lt;br/&gt;3304, Criminal Mischief.&lt;br/&gt;"/><marker lat="40.452210852851195" lng="-79.998676352919205" zone="Zone 1" incidentdate="2016-08-10" incidenttime="18:30:00" incidentnumber="16149223" address="600 block Pressley St" type="OFFENSE" age="" gender="" description="*********************************************** &lt;br/&gt;2701, Simple Assault.&lt;br/&gt;"/><marker lat="40.439134875179292" lng="-79.980460317668332" zone="Zone 2" incidentdate="2016-08-10" incidenttime="04:00:00" incidentnumber="16148785" address="200 block Dinwiddie St" type="OFFENSE" age="" gender="" description="*********************************************** &lt;br/&gt;3502, Burglary.&lt;br/&gt;"/><marker lat="40.422739215095092" lng="-79.948940610412436" zone="Zone 4" incidentdate="2016-08-10" incidenttime="16:00:00" incidentnumber="16149149" address="200 block Kaercher St" type="OFFENSE" age="" gender="" description="*********************************************** &lt;br/&gt;9999, 9999 - (Misc. Incident):&lt;br/&gt;"/><marker lat="40.452966162510073" lng="-79.891011747036316" zone="Zone 5" incidentdate="2016-08-10" incidenttime="20:17:00" incidentnumber="16149298" address="7600 block Hamilton Ave" type="OFFENSE" age="" gender="" description="*********************************************** &lt;br/&gt;9501, Bench Warrant&lt;br/&gt;"/><marker lat="40.416868962872634" lng="-79.972917545445213" zone="Zone 3" incidentdate="2016-08-10" incidenttime="15:05:00" incidentnumber="16149064" address="2400 block Charcot St" type="OFFENSE" age="" gender="" description="*********************************************** &lt;br/&gt;2702, Aggravated Assault.&lt;br/&gt;"/><marker lat="40.428951321624496" lng="-79.998283928865519" zone="Zone 3" incidentdate="2016-08-10" incidenttime="15:00:00" incidentnumber="16149020" address="300 block Arlington Ave" type="OFFENSE" age="" gender="" description="*********************************************** &lt;br/&gt;3921(a), Theft by Unlawful Taking or Disposition - Movable item&lt;br/&gt;"/><marker lat="40.459781695024162" lng="-79.927298308735843" zone="Zone 5" incidentdate="2016-08-10" incidenttime="16:52:00" incidentnumber="16149141" address="5900 block Baum Blvd" type="OFFENSE" age="" gender="" description="*********************************************** &lt;br/&gt;2709(a)(1), Harassment by Physical Contact, or Attempts or Threats&lt;br/&gt;"/><marker lat="40.467528136259652" lng="-79.942231121958727" zone="Zone 5" incidentdate="2016-08-10" incidenttime="17:00:00" incidentnumber="16149245" address="5100 block Brown Way" type="OFFENSE" age="" gender="" description="*********************************************** &lt;br/&gt;9999, 9999 - (Misc. Incident):&lt;br/&gt;"/><marker lat="40.469137272461332" lng="-79.937934379867485" zone="Zone 5" incidentdate="2016-08-10" incidenttime="14:30:00" incidentnumber="16149054" address="5300 block Columbo St" type="OFFENSE" age="" gender="" description="*********************************************** &lt;br/&gt;3921(a), Theft by Unlawful Taking or Disposition - Movable item&lt;br/&gt;"/><marker lat="40.475991792684219" lng="-79.998237934488159" zone="Zone 1" incidentdate="2016-08-10" incidenttime="21:31:00" incidentnumber="16149342" address="700 block Mt Pleasant Rd" type="OFFENSE" age="" gender="" description="*********************************************** &lt;br/&gt;9497, Aided Case&lt;br/&gt;"/><marker lat="40.450966080336222" lng="-79.93359390037547" zone="Zone 4" incidentdate="2016-08-10" incidenttime="15:10:00" incidentnumber="15149099" address="5500 block Walnut St" type="OFFENSE" age="" gender="" description="*********************************************** &lt;br/&gt;2709(a)(3), Harassment No Legitimate Purpose&lt;br/&gt;"/><marker lat="40.470500898573199" lng="-80.011217822343468" zone="Zone 1" incidentdate="2016-08-10" incidenttime="18:20:00" incidentnumber="16149225" address="N Charles St &amp; Shelton Ave" type="OFFENSE" age="" gender="" description="*********************************************** &lt;br/&gt;9999, 9999 - (Misc. Incident):&lt;br/&gt;"/><marker lat="40.450643107602708" lng="-80.013459947155624" zone="Zone 1" incidentdate="2016-08-10" incidenttime="11:25:00" incidentnumber="16148937" address="800 block Ridge Ave" type="OFFENSE" age="" gender="" description="*********************************************** &lt;br/&gt;3921, Theft by Unlawful Taking or Disposition.&lt;br/&gt;"/><marker lat="40.452952663955934" lng="-79.874021402815671" zone="Zone 5" incidentdate="2016-08-10" incidenttime="11:00:00" incidentnumber="16148959" address="2100 block Park Hill Dr" type="OFFENSE" age="" gender="" description="*********************************************** &lt;br/&gt;9489, Found Property&lt;br/&gt;"/><marker lat="40.455814816183754" lng="-79.997355061023555" zone="Zone 1" incidentdate="2016-08-10" incidenttime="09:17:00" incidentnumber="16148860" address="800 block Suismon St" type="OFFENSE" age="" gender="" description="*********************************************** &lt;br/&gt;3921, Theft by Unlawful Taking or Disposition.&lt;br/&gt;"/><marker lat="40.4405383901005" lng="-79.989290068117285" zone="Zone 2" incidentdate="2016-08-10" incidenttime="17:29:00" incidentnumber="16149172" address="Centre Ave &amp; Mario Lemieux Pl" type="OFFENSE" age="" gender="" description="*********************************************** &lt;br/&gt;13(a)(16), Possession of Controlled Substance&lt;br/&gt;13(a)(30), Possession w/ Intent to Del. Controlled Substance&lt;br/&gt;9501, Bench Warrant&lt;br/&gt;1543, Driving While Operating Privilege is Suspended or Revoked.&lt;br/&gt;3925, Receiving Stolen Property.&lt;br/&gt;"/><marker lat="40.441772984812665" lng="-80.001620450643472" zone="Zone 2" incidentdate="2016-08-10" incidenttime="12:20:00" incidentnumber="16148976" address="600 block Liberty Ave" type="OFFENSE" age="" gender="" description="*********************************************** &lt;br/&gt;3921, Theft by Unlawful Taking or Disposition.&lt;br/&gt;"/><marker lat="40.4582100888612" lng="-79.904907963631274" zone="Zone 5" incidentdate="2016-08-10" incidenttime="20:03:00" incidentnumber="16149288" address="800 block Inwood St" type="OFFENSE" age="" gender="" description="*********************************************** &lt;br/&gt;9093, Indirect Criminal Contempt&lt;br/&gt;"/><marker lat="40.456876237833129" lng="-79.95511097638645" zone="Zone 2" incidentdate="2016-08-10" incidenttime="06:30:00" incidentnumber="16149200" address="3800 block Bigelow Blvd" type="OFFENSE" age="" gender="" description="*********************************************** &lt;br/&gt;3921, Theft by Unlawful Taking or Disposition.&lt;br/&gt;"/><marker lat="40.44466201857626" lng="-80.042150479542755" zone="Zone 6" incidentdate="2016-08-10" incidenttime="11:30:00" incidentnumber="16148958" address="1100 block Fredonia St" type="OFFENSE" age="" gender="" description="*********************************************** &lt;br/&gt;3304, Criminal Mischief.&lt;br/&gt;"/><marker lat="40.4445556" lng="-80.0008546" zone="Zone 2" incidentdate="2016-08-10" incidenttime="17:15:00" incidentnumber="16149175" address="Fort Duquesne Blvd &amp; 7th St" type="OFFENSE" age="" gender="" description="*********************************************** &lt;br/&gt;3304, Criminal Mischief.&lt;br/&gt;"/><marker lat="40.482386011855226" lng="-80.00290703640357" zone="Zone 1" incidentdate="2016-08-10" incidenttime="09:12:00" incidentnumber="16148855" address="300 block Mt Pleasant Rd" type="OFFENSE" age="" gender="" description="*********************************************** &lt;br/&gt;029, Missing Juvenile&lt;br/&gt;"/><marker lat="40.452952663955934" lng="-79.874021402815671" zone="Zone 5" incidentdate="2016-08-10" incidenttime="12:25:00" incidentnumber="16149079" address="2100 block Park Hill Dr" type="OFFENSE" age="" gender="" description="*********************************************** &lt;br/&gt;3921, Theft by Unlawful Taking or Disposition.&lt;br/&gt;"/><marker lat="40.4482924" lng="-80.0042900" zone="Zone 1" incidentdate="2016-08-10" incidenttime="19:50:00" incidentnumber="16149306" address="General Robinson St W &amp; Federal St S" type="OFFENSE" age="" gender="" description="*********************************************** &lt;br/&gt;5503, Disorderly Conduct.&lt;br/&gt;2701, Simple Assault.&lt;br/&gt;"/><marker lat="40.459251681663076" lng="-79.929232806870345" zone="Zone 5" incidentdate="2016-08-10" incidenttime="17:00:00" incidentnumber="16149272" address="S Euclid Ave &amp; Commerce St" type="OFFENSE" age="" gender="" description="*********************************************** &lt;br/&gt;3921(a), Theft by Unlawful Taking or Disposition - Movable item&lt;br/&gt;"/><marker lat="40.444136782158047" lng="-80.000993475333104" zone="Zone 2" incidentdate="2016-08-10" incidenttime="02:53:00" incidentnumber="16148744" address="100 block 7th St Brg" type="OFFENSE" age="" gender="" description="*********************************************** &lt;br/&gt;5503(a)(4), DISORDERLY CONDUCT - HAZARDOUS/PHYS. OFF&lt;br/&gt;"/><marker lat="40.420757899180167" lng="-79.904247207316104" zone="Zone 4" incidentdate="2016-08-10" incidenttime="18:00:00" incidentnumber="16149301" address="1200 block Uptegraf St" type="OFFENSE" age="" gender="" description="*********************************************** &lt;br/&gt;4106, Access Device Fraud&lt;br/&gt;"/><marker lat="40.450771945757239" lng="-79.966538744776344" zone="Zone 2" incidentdate="2016-08-10" incidenttime="12:20:00" incidentnumber="16149116" address="600 block Wandless St" type="OFFENSE" age="" gender="" description="*********************************************** &lt;br/&gt;3304, Criminal Mischief.&lt;br/&gt;"/><marker lat="40.475743982324708" lng="-79.999473074803177" zone="Zone 1" incidentdate="2016-08-10" incidenttime="00:48:00" incidentnumber="16148711" address="800 block Mt Pleasant Rd" type="OFFENSE" age="" gender="" description="*********************************************** &lt;br/&gt;2501, Criminal Homicide.&lt;br/&gt;"/><marker lat="40.456645624737135" lng="-80.016779629911412" zone="Zone 1" incidentdate="2016-08-10" incidenttime="23:12:00" incidentnumber="16149386" address="Jacksonia St" type="OFFENSE" age="" gender="" description="*********************************************** &lt;br/&gt;2701, Simple Assault.&lt;br/&gt;"/><marker lat="40.441024249715781" lng="-79.95736833680553" zone="Zone 4" incidentdate="2016-08-10" incidenttime="19:00:00" incidentnumber="16149243" address="3700 block Forbes Ave" type="OFFENSE" age="" gender="" description="*********************************************** &lt;br/&gt;9497, Aided Case&lt;br/&gt;"/><marker lat="40.4278323331488" lng="-80.054349439759122" zone="Zone 6" incidentdate="2016-08-10" incidenttime="19:00:00" incidentnumber="16149352" address="2300 block Noblestown Rd" type="OFFENSE" age="" gender="" description="*********************************************** &lt;br/&gt;3745, Accidents Involving Damage to Unattended Veh.or Prop.&lt;br/&gt;"/><marker lat="40.412205285726408" lng="-80.029370677783916" zone="Zone 6" incidentdate="2016-08-10" incidenttime="22:30:00" incidentnumber="16149366" address="1500 block Napolean St" type="OFFENSE" age="" gender="" description="*********************************************** &lt;br/&gt;9999, 9999 - (Misc. Incident):&lt;br/&gt;"/><marker lat="40.407838606131946" lng="-79.947054612811897" zone="Zone 4" incidentdate="2016-08-10" incidenttime="01:45:00" incidentnumber="16148729" address="5000 block Blair St" type="OFFENSE" age="" gender="" description="*********************************************** &lt;br/&gt;2701(a)(1), Simple Assault - Intent., Know., Reckless.Cause Bod. Injury&lt;br/&gt;3928, Unauthorized Use of Automobile and Other Vehicles.&lt;br/&gt;"/><marker lat="40.450643107602708" lng="-80.013459947155624" zone="Zone 1" incidentdate="2016-08-10" incidenttime="21:30:00" incidentnumber="16149356" address="800 block Ridge Ave" type="OFFENSE" age="" gender="" description="*********************************************** &lt;br/&gt;3304, Criminal Mischief.&lt;br/&gt;3934, Theft from Vehicle&lt;br/&gt;"/><marker lat="40.41659309478456" lng="-79.988157841615688" zone="Zone 3" incidentdate="2016-08-10" incidenttime="17:23:00" incidentnumber="16149163" address="100 block Charles St" type="OFFENSE" age="" gender="" description="*********************************************** &lt;br/&gt;9498, 302 (Mental)&lt;br/&gt;"/><marker lat="40.458402626938835" lng="-79.960790345216125" zone="Zone 2" incidentdate="2016-08-10" incidenttime="13:10:00" incidentnumber="16149055" address="3500 block Bethoven St" type="OFFENSE" age="" gender="" description="*********************************************** &lt;br/&gt;9999, 9999 - (Misc. Incident):&lt;br/&gt;"/><marker lat="40.42171778851246" lng="-80.001555475380627" zone="Zone 3" incidentdate="2016-08-10" incidenttime="19:55:00" incidentnumber="16149284" address="300 block Kingsboro St" type="OFFENSE" age="" gender="" description="*********************************************** &lt;br/&gt;2701, Simple Assault.&lt;br/&gt;"/><marker lat="40.437601931911651" lng="-79.985117224467643" zone="Zone 2" incidentdate="2016-08-10" incidenttime="22:48:00" incidentnumber="16149378" address="1500 block Forbes Ave" type="OFFENSE" age="" gender="" description="*********************************************** &lt;br/&gt;9999, 9999 - (Misc. Incident):&lt;br/&gt;"/><marker lat="40.472607820161087" lng="-79.935817480313915" zone="Zone 5" incidentdate="2016-08-10" incidenttime="00:15:00" incidentnumber="16148695" address="5300 block Mossfield St" type="OFFENSE" age="" gender="" description="*********************************************** &lt;br/&gt;029, Missing Juvenile&lt;br/&gt;3921, Theft by Unlawful Taking or Disposition.&lt;br/&gt;"/><marker lat="40.438091155451616" lng="-80.001853342344887" zone="Zone 2" incidentdate="2016-08-10" incidenttime="02:20:00" incidentnumber="16148733" address="300 block Blvd Of The Allies" type="OFFENSE" age="" gender="" description="*********************************************** &lt;br/&gt;9501, Bench Warrant&lt;br/&gt;9093, Indirect Criminal Contempt&lt;br/&gt;"/><marker lat="40.410441886301861" lng="-80.024947612351937" zone="Zone 6" incidentdate="2016-08-10" incidenttime="14:30:00" incidentnumber="16149314" address="1600 block Broadway Ave" type="OFFENSE" age="" gender="" description="*********************************************** &lt;br/&gt;3304, Criminal Mischief.&lt;br/&gt;"/><marker lat="40.453969822993002" lng="-79.998974758094874" zone="Zone 1" incidentdate="2016-08-10" incidenttime="15:12:00" incidentnumber="16149066" address="600 block East Ohio St" type="OFFENSE" age="" gender="" description="*********************************************** &lt;br/&gt;3929, Retail Theft.&lt;br/&gt;"/><marker lat="40.4476682" lng="-80.0076534" zone="Zone 1" incidentdate="2016-08-10" incidenttime="16:34:00" incidentnumber="16149121" address="General Robinson St W &amp; Mazeroski Way" type="OFFENSE" age="" gender="" description="*********************************************** &lt;br/&gt;2709, Harassment (Non-Specific)&lt;br/&gt;"/><marker lat="40.4582100888612" lng="-79.904907963631274" zone="Zone 5" incidentdate="2016-08-10" incidenttime="12:00:00" incidentnumber="16149067" address="800 block Inwood St" type="OFFENSE" age="" gender="" description="*********************************************** &lt;br/&gt;4912, Impersonating a Public Servant.&lt;br/&gt;"/><marker lat="40.466616756829907" lng="-79.993676874083434" zone="Zone 1" incidentdate="2016-08-10" incidenttime="09:00:00" incidentnumber="16148995" address="2100 block Rhine Pl" type="OFFENSE" age="" gender="" description="*********************************************** &lt;br/&gt;2709, Harassment (Non-Specific)&lt;br/&gt;"/><marker lat="40.400955437287628" lng="-79.938225610314049" zone="Zone 4" incidentdate="2016-08-10" incidenttime="03:45:00" incidentnumber="16148761" address="200 block Renova St" type="OFFENSE" age="" gender="" description="*********************************************** &lt;br/&gt;3745, Accidents Involving Damage to Unattended Veh.or Prop.&lt;br/&gt;9094, Recovered Stolen Vehicle (OUTSIDE CITY)&lt;br/&gt;"/><marker lat="40.469013374663945" lng="-80.027240700484498" zone="Zone 1" incidentdate="2016-08-10" incidenttime="17:18:00" incidentnumber="16149165" address="1200 block Thelma St" type="OFFENSE" age="" gender="" description="*********************************************** &lt;br/&gt;9999, 9999 - (Misc. Incident):&lt;br/&gt;"/><marker lat="40.419421352718459" lng="-79.987700562273858" zone="Zone 3" incidentdate="2016-08-10" incidenttime="14:00:00" incidentnumber="16149109" address="S 18th St" type="OFFENSE" age="" gender="" description="*********************************************** &lt;br/&gt;3921, Theft by Unlawful Taking or Disposition.&lt;br/&gt;"/><marker lat="40.455601122118971" lng="-79.979266868193093" zone="Zone 2" incidentdate="2016-08-10" incidenttime="19:30:00" incidentnumber="16149308" address="26th St &amp; Smallman St" type="OFFENSE" age="" gender="" description="*********************************************** &lt;br/&gt;3304, Criminal Mischief.&lt;br/&gt;"/><marker lat="40.466723863901535" lng="-79.992290512215874" zone="Zone 1" incidentdate="2016-08-10" incidenttime="16:00:00" incidentnumber="16149094" address="2100 block Varley St" type="OFFENSE" age="" gender="" description="*********************************************** &lt;br/&gt;9999, 9999 - (Misc. Incident):&lt;br/&gt;"/><marker lat="40.466144113560951" lng="-79.916742755961408" zone="Zone 5" incidentdate="2016-08-10" incidenttime="11:15:00" incidentnumber="16148970" address="6200 block Carver St" type="OFFENSE" age="" gender="" description="*********************************************** &lt;br/&gt;9999, 9999 - (Misc. Incident):&lt;br/&gt;"/><marker lat="40.459152009899789" lng="-79.909827258959282" zone="Zone 5" incidentdate="2016-08-10" incidenttime="10:00:00" incidentnumber="16148851" address="100 block Finley St" type="OFFENSE" age="" gender="" description="*********************************************** &lt;br/&gt;9999, 9999 - (Misc. Incident):&lt;br/&gt;"/><marker lat="40.437467610944189" lng="-80.023097552711945" zone="Zone 3" incidentdate="2016-08-10" incidenttime="07:15:00" incidentnumber="16148867" address="300 block Augusta St" type="OFFENSE" age="" gender="" description="*********************************************** &lt;br/&gt;3934, Theft from Vehicle&lt;br/&gt;"/><marker lat="40.408601221997245" lng="-80.011995423791774" zone="Zone 6" incidentdate="2016-08-10" incidenttime="16:45:00" incidentnumber="16149178" address="700 block Linda Dr" type="OFFENSE" age="" gender="" description="*********************************************** &lt;br/&gt;2709(a)(1), Harassment by Physical Contact, or Attempts or Threats&lt;br/&gt;4912, Impersonating a Public Servant.&lt;br/&gt;"/><marker lat="40.451819528786032" lng="-79.893609842291738" zone="Zone 5" incidentdate="2016-08-10" incidenttime="00:54:00" incidentnumber="16148721" address="7500 block Susquehanna St" type="OFFENSE" age="" gender="" description="*********************************************** &lt;br/&gt;3701, Robbery.&lt;br/&gt;"/><marker lat="40.4835452" lng="-80.0326979" zone="Zone 1" incidentdate="2016-08-10" incidenttime="17:43:00" incidentnumber="16149182" address="3700 block Wapello St" type="OFFENSE" age="" gender="" description="*********************************************** &lt;br/&gt;2709, Harassment (Non-Specific)&lt;br/&gt;"/><marker lat="40.443580942147605" lng="-79.979979097296493" zone="Zone 2" incidentdate="2016-08-10" incidenttime="00:12:00" incidentnumber="16148693" address="2000 block Centre Ave" type="OFFENSE" age="" gender="" description="*********************************************** &lt;br/&gt;9497, Aided Case&lt;br/&gt;"/><marker lat="40.441730122618281" lng="-79.961093442895944" zone="Zone 4" incidentdate="2016-08-10" incidenttime="13:20:00" incidentnumber="16148986" address="200 block Lothrop St" type="OFFENSE" age="" gender="" description="*********************************************** &lt;br/&gt;9501, Bench Warrant&lt;br/&gt;"/><marker lat="40.442489458207469" lng="-80.00309632496888" zone="Zone 2" incidentdate="2016-08-10" incidenttime="15:00:00" incidentnumber="16149097" address="Cecil Pl &amp; Penn Ave" type="OFFENSE" age="" gender="" description="*********************************************** &lt;br/&gt;3743, Accidents Involving Damage to Attended Veh. or Property&lt;br/&gt;"/><marker lat="40.423206672339532" lng="-79.965014274909791" zone="Zone 3" incidentdate="2016-08-10" incidenttime="09:10:00" incidentnumber="16149206" address="3000 block Jane St" type="OFFENSE" age="" gender="" description="*********************************************** &lt;br/&gt;3745, Accidents Involving Damage to Unattended Veh.or Prop.&lt;br/&gt;"/><marker lat="40.472022052387963" lng="-80.028728365855599" zone="Zone 1" incidentdate="2016-08-10" incidenttime="08:20:00" incidentnumber="16148828" address="3000 block Vensel Way" type="OFFENSE" age="" gender="" description="*********************************************** &lt;br/&gt;9496, Dead on Arrival (DOA)&lt;br/&gt;"/><marker lat="40.482879021356389" lng="-80.04453300763744" zone="Zone 1" incidentdate="2016-08-10" incidenttime="09:30:00" incidentnumber="16148856" address="2000 block Termon Ave" type="OFFENSE" age="" gender="" description="*********************************************** &lt;br/&gt;029, Missing Juvenile&lt;br/&gt;"/><marker lat="40.4317569" lng="-79.9973878" zone="Zone 2" incidentdate="2016-08-10" incidenttime="09:48:00" incidentnumber="16148861" address="Liberty Brg Ramp &amp; Liberty Brg" type="OFFENSE" age="" gender="" description="*********************************************** &lt;br/&gt;5507, Obstructing Highways and Passages.&lt;br/&gt;602.04(b)(2), Aggressive Panhandling&lt;br/&gt;"/><marker lat="40.468637705178288" lng="-79.90386889041487" zone="Zone 5" incidentdate="2016-08-10" incidenttime="01:52:00" incidentnumber="16148743" address="1200 block Album St" type="OFFENSE" age="" gender="" description="*********************************************** &lt;br/&gt;3926(a)(1), Theft of Services; Cable, Gas, Taxi, Bill, Tab, etc.&lt;br/&gt;"/><marker lat="40.453711737203285" lng="-79.898092583777213" zone="Zone 5" incidentdate="2016-08-10" incidenttime="03:36:00" incidentnumber="16148757" address="7200 block Susquehanna St" type="OFFENSE" age="" gender="" description="*********************************************** &lt;br/&gt;3921, Theft by Unlawful Taking or Disposition.&lt;br/&gt;"/><marker lat="40.453421528804526" lng="-79.892481935834624" zone="Zone 5" incidentdate="2016-08-10" incidenttime="13:43:00" incidentnumber="16149023" address="7500 block Hamilton Ave" type="OFFENSE" age="" gender="" description="*********************************************** &lt;br/&gt;1543, Driving While Operating Privilege is Suspended or Revoked.&lt;br/&gt;3802(a)(1), DUI - General Impairment&lt;br/&gt;"/><marker lat="40.453905386972409" lng="-79.930224679015907" zone="Zone 4" incidentdate="2016-08-10" incidenttime="15:45:00" incidentnumber="16149088" address="Rosary Way &amp; Elmer St" type="OFFENSE" age="" gender="" description="*********************************************** &lt;br/&gt;9489, Found Property&lt;br/&gt;"/><marker lat="40.393167838197392" lng="-79.986585064520185" zone="Zone 3" incidentdate="2016-08-10" incidenttime="16:23:00" incidentnumber="16149101" address="2100 block Brownsville Rd" type="OFFENSE" age="" gender="" description="*********************************************** &lt;br/&gt;9017, Found Drugs&lt;br/&gt;"/><marker lat="40.428684832699354" lng="-79.983306706238423" zone="Zone 3" incidentdate="2016-08-10" incidenttime="23:50:00" incidentnumber="16149391" address="1500 block E Carson St" type="OFFENSE" age="" gender="" description="*********************************************** &lt;br/&gt;5505, Public Drunkenness&lt;br/&gt;5503(a)(1), DISORDERLY CONDUCT - ENGAGE IN FIGHTING&lt;br/&gt;"/><marker lat="40.468800253040854" lng="-80.009693540627453" zone="Zone 1" incidentdate="2016-08-10" incidenttime="10:35:00" incidentnumber="16148908" address="W Mc Intyre Ave" type="OFFENSE" age="" gender="" description="*********************************************** &lt;br/&gt;9489, Found Property&lt;br/&gt;"/><marker lat="40.443610698976059" lng="-79.998043561602501" zone="Zone 2" incidentdate="2016-08-10" incidenttime="00:05:00" incidentnumber="16148700" address="900 block Penn Ave" type="OFFENSE" age="" gender="" description="*********************************************** &lt;br/&gt;3921(a), Theft by Unlawful Taking or Disposition - Movable item&lt;br/&gt;"/><marker lat="40.418344252980098" lng="-79.998826819825084" zone="Zone 3" incidentdate="2016-08-10" incidenttime="14:49:00" incidentnumber="16149052" address="Cedarhurst St &amp; Curtin Ave" type="OFFENSE" age="" gender="" description="*********************************************** &lt;br/&gt;2702, Aggravated Assault.&lt;br/&gt;"/><marker lat="40.468075461767604" lng="-80.029885144871827" zone="Zone 1" incidentdate="2016-08-10" incidenttime="14:30:00" incidentnumber="16149069" address="1300 block Superior Ave" type="OFFENSE" age="" gender="" description="*********************************************** &lt;br/&gt;2709(a), Harassment.&lt;br/&gt;4912, Impersonating a Public Servant.&lt;br/&gt;"/><marker lat="40.454602183576405" lng="-79.873730437870108" zone="Zone 5" incidentdate="2016-08-10" incidenttime="18:15:00" incidentnumber="16149235" address="100 block White Pine Pl" type="OFFENSE" age="" gender="" description="*********************************************** &lt;br/&gt;9999, 9999 - (Misc. Incident):&lt;br/&gt;"/><marker lat="40.469731647057117" lng="-80.027507012884371" zone="Zone 1" incidentdate="2016-08-10" incidenttime="04:00:00" incidentnumber="16148806" address="1200 block Woodland Ave" type="OFFENSE" age="" gender="" description="*********************************************** &lt;br/&gt;3934, Theft from Vehicle&lt;br/&gt;"/><marker lat="40.461179787190211" lng="-79.870410823576421" zone="Zone 5" incidentdate="2016-08-10" incidenttime="21:20:00" incidentnumber="16149328" address="Frankstown Ave &amp; East Hills Dr" type="OFFENSE" age="" gender="" description="*********************************************** &lt;br/&gt;13(a)(16), Possession of Controlled Substance&lt;br/&gt;13(a)(32), Paraphernalia - Use or Possession&lt;br/&gt;"/><marker lat="40.463859369983389" lng="-79.916769477144555" zone="Zone 5" incidentdate="2016-08-10" incidenttime="07:20:00" incidentnumber="16148805" address="Auburn St &amp; Larimer Ave" type="OFFENSE" age="" gender="" description="*********************************************** &lt;br/&gt;3304, Criminal Mischief.&lt;br/&gt;"/><marker lat="40.458972156177147" lng="-80.00553337384008" zone="Zone 1" incidentdate="2016-08-10" incidenttime="20:50:00" incidentnumber="16149315" address="Fountain St &amp; Sandusky St N" type="OFFENSE" age="" gender="" description="*********************************************** &lt;br/&gt;13(a)(16), Possession of Controlled Substance&lt;br/&gt;5505, Public Drunkenness&lt;br/&gt;"/><marker lat="40.438146947078387" lng="-79.975887005149687" zone="Zone 2" incidentdate="2016-08-10" incidenttime="05:00:00" incidentnumber="16148773" address="Seneca St &amp; 5th Ave" type="OFFENSE" age="" gender="" description="*********************************************** &lt;br/&gt;9501, Bench Warrant&lt;br/&gt;"/><marker lat="40.4471653" lng="-80.0523328" zone="Zone 6" incidentdate="2016-08-10" incidenttime="12:55:00" incidentnumber="16148998" address="1500 block Crucible St" type="OFFENSE" age="" gender="" description="*********************************************** &lt;br/&gt;029, Missing Juvenile&lt;br/&gt;"/><marker lat="40.452838326310243" lng="-80.031520884378224" zone="Zone 1" incidentdate="2016-08-10" incidenttime="17:15:00" incidentnumber="16149227" address="1400 block Preble Ave" type="OFFENSE" age="" gender="" description="*********************************************** &lt;br/&gt;9999, 9999 - (Misc. Incident):&lt;br/&gt;"/><marker lat="40.423823513698323" lng="-79.899343086800698" zone="Zone 4" incidentdate="2016-08-10" incidenttime="16:00:00" incidentnumber="16149130" address="300 block Raymond St" type="OFFENSE" age="" gender="" description="*********************************************** &lt;br/&gt;2709(a)(1), Harassment by Physical Contact, or Attempts or Threats&lt;br/&gt;4912, Impersonating a Public Servant.&lt;br/&gt;"/><marker lat="40.476199022901341" lng="-79.935211842123977" zone="Zone 5" incidentdate="2016-08-10" incidenttime="11:00:00" incidentnumber="16148947" address="5100 block Rosecrest Pl" type="OFFENSE" age="" gender="" description="*********************************************** &lt;br/&gt;9999, 9999 - (Misc. Incident):&lt;br/&gt;"/><marker lat="40.4309065" lng="-80.0014696" zone="Zone 3" incidentdate="2016-08-10" incidenttime="00:59:00" incidentnumber="16148717" address="100 block Arlington Ave" type="OFFENSE" age="" gender="" description="*********************************************** &lt;br/&gt;3802(a)(1), DUI - General Impairment&lt;br/&gt;3714, Careless Driving&lt;br/&gt;3802(b), DUI - High Rate of Alchol - BAC &gt;=.10% &lt;.16%&lt;br/&gt;"/><marker lat="40.440479716215464" lng="-79.965333815773448" zone="Zone 4" incidentdate="2016-08-10" incidenttime="08:45:00" incidentnumber="16148925" address="200 block Robinson St" type="OFFENSE" age="" gender="" description="*********************************************** &lt;br/&gt;2706, Terroristic Threats.&lt;br/&gt;"/><marker lat="40.482386011855226" lng="-80.00290703640357" zone="Zone 1" incidentdate="2016-08-10" incidenttime="09:12:00" incidentnumber="16148869" address="300 block Mt Pleasant Rd" type="OFFENSE" age="" gender="" description="*********************************************** &lt;br/&gt;029, Missing Juvenile&lt;br/&gt;"/><marker lat="40.437846371119946" lng="-79.922805918036218" zone="Zone 4" incidentdate="2016-08-10" incidenttime="00:33:00" incidentnumber="16148706" address="5800 block Forbes Ave" type="OFFENSE" age="" gender="" description="*********************************************** &lt;br/&gt;9488, False  Burglar Alarm&lt;br/&gt;"/><marker lat="40.459227130464114" lng="-80.005623690982688" zone="Zone 1" incidentdate="2016-08-10" incidenttime="23:27:00" incidentnumber="16149396" address="Henderson St &amp; Sandusky Ct" type="OFFENSE" age="" gender="" description="*********************************************** &lt;br/&gt;13(a)(16), Possession of Controlled Substance&lt;br/&gt;1543, Driving While Operating Privilege is Suspended or Revoked.&lt;br/&gt;3334, Turning Movements and Required Signals.&lt;br/&gt;4302, Periods for Requiring Lighted Lamps.&lt;br/&gt;"/><marker lat="40.424799080843286" lng="-79.96723263707986" zone="Zone 3" incidentdate="2016-08-10" incidenttime="07:30:00" incidentnumber="16148823" address="2800 block Jane St" type="OFFENSE" age="" gender="" description="*********************************************** &lt;br/&gt;3934, Theft from Vehicle&lt;br/&gt;"/><marker lat="40.424117114749457" lng="-80.006023781812004" zone="Zone 3" incidentdate="2016-08-10" incidenttime="09:30:00" incidentnumber="16148816" address="Westwood St" type="OFFENSE" age="" gender="" description="*********************************************** &lt;br/&gt;3304, Criminal Mischief.&lt;br/&gt;3934, Theft from Vehicle&lt;br/&gt;"/><marker lat="40.452263678882652" lng="-79.982281937374182" zone="Zone 2" incidentdate="2016-08-10" incidenttime="16:00:00" incidentnumber="16149129" address="Penn Ave &amp; 22nd St" type="OFFENSE" age="" gender="" description="*********************************************** &lt;br/&gt;3745, Accidents Involving Damage to Unattended Veh.or Prop.&lt;br/&gt;"/><marker lat="40.478038107418683" lng="-80.001803139555449" zone="Zone 1" incidentdate="2016-08-10" incidenttime="09:30:00" incidentnumber="16148900" address="1300 block Chicago St" type="OFFENSE" age="" gender="" description="*********************************************** &lt;br/&gt;3304, Criminal Mischief.&lt;br/&gt;3934, Theft from Vehicle&lt;br/&gt;"/><marker lat="40.447552059581611" lng="-79.896605580896065" zone="Zone 5" incidentdate="2016-08-10" incidenttime="16:30:00" incidentnumber="16149218" address="5000 block Penn Ave" type="OFFENSE" age="" gender="" description="*********************************************** &lt;br/&gt;9126, Investigation&lt;br/&gt;"/><marker lat="40.440085617217491" lng="-79.998645938306552" zone="Zone 2" incidentdate="2016-08-10" incidenttime="07:00:00" incidentnumber="16148801" address="5th Ave &amp; Smithfield St" type="OFFENSE" age="" gender="" description="*********************************************** &lt;br/&gt;9492, Dog Bite&lt;br/&gt;"/><marker lat="40.440332076098812" lng="-79.99811615543635" zone="Zone 2" incidentdate="2016-08-10" incidenttime="22:45:00" incidentnumber="16149377" address="500 block Smithfield St" type="OFFENSE" age="" gender="" description="*********************************************** &lt;br/&gt;3701, Robbery.&lt;br/&gt;"/><marker lat="40.488503027231012" lng="-80.010236941106868" zone="Zone 1" incidentdate="2016-08-10" incidenttime="19:00:00" incidentnumber="16149280" address="3800 block Evergreen Rd" type="OFFENSE" age="" gender="" description="*********************************************** &lt;br/&gt;3921, Theft by Unlawful Taking or Disposition.&lt;br/&gt;"/><marker lat="40.45420414873405" lng="-79.980104504549217" zone="Zone 2" incidentdate="2016-08-10" incidenttime="06:30:00" incidentnumber="16148808" address="2500 block Mulberry Way" type="OFFENSE" age="" gender="" description="*********************************************** &lt;br/&gt;3502, Burglary.&lt;br/&gt;"/><marker lat="40.457514121540108" lng="-79.90897388422448" zone="Zone 5" incidentdate="2016-08-10" incidenttime="19:16:00" incidentnumber="16149244" address="6900 block 5th Ave" type="OFFENSE" age="" gender="" description="*********************************************** &lt;br/&gt;3924, Theft of Property Lost, Mislaid or Delivered by Mistake.&lt;br/&gt;"/><marker lat="40.47255775872658" lng="-80.036468546929001" zone="Zone 1" incidentdate="2016-08-10" incidenttime="10:15:00" incidentnumber="16148892" address="3100 block McClure Ave" type="OFFENSE" age="" gender="" description="*********************************************** &lt;br/&gt;3304, Criminal Mischief.&lt;br/&gt;"/><marker lat="40.398364081814798" lng="-79.996178535833138" zone="Zone 3" incidentdate="2016-08-10" incidenttime="08:30:00" incidentnumber="16148842" address="1500 block Celtic St" type="OFFENSE" age="" gender="" description="*********************************************** &lt;br/&gt;9999, 9999 - (Misc. Incident):&lt;br/&gt;"/><marker lat="40.447441374626123" lng="-79.915032583206255" zone="Zone 4" incidentdate="2016-08-10" incidenttime="14:09:00" incidentnumber="16149181" address="6800 block Linden Ln" type="OFFENSE" age="" gender="" description="*********************************************** &lt;br/&gt;9999, 9999 - (Misc. Incident):&lt;br/&gt;"/><marker lat="40.391217320465692" lng="-79.987364477659511" zone="Zone 3" incidentdate="2016-08-10" incidenttime="15:00:00" incidentnumber="16149084" address="2200 block Dellrose St" type="OFFENSE" age="" gender="" description="*********************************************** &lt;br/&gt;9999, 9999 - (Misc. Incident):&lt;br/&gt;"/><marker lat="40.441499813570829" lng="-79.985030112259707" zone="Zone 2" incidentdate="2016-08-10" incidenttime="01:15:00" incidentnumber="16148725" address="1600 block Centre Ave" type="OFFENSE" age="" gender="" description="*********************************************** &lt;br/&gt;3502, Burglary.&lt;br/&gt;"/><marker lat="40.498779416841536" lng="-80.017102664754916" zone="Zone 1" incidentdate="2016-08-10" incidenttime="00:01:00" incidentnumber="16149203" address="100 block Montville St" type="OFFENSE" age="" gender="" description="*********************************************** &lt;br/&gt;9999, 9999 - (Misc. Incident):&lt;br/&gt;"/><marker lat="40.449988004093029" lng="-79.874166059210836" zone="Zone 5" incidentdate="2016-08-10" incidenttime="16:56:00" incidentnumber="16149143" address="2000 block Swissvale Ave" type="OFFENSE" age="" gender="" description="*********************************************** &lt;br/&gt;9018, Accidental Fire&lt;br/&gt;"/><marker lat="40.460290373261202" lng="-79.931717325432231" zone="Zone 5" incidentdate="2016-08-10" incidenttime="11:00:00" incidentnumber="16148940" address="300 block Amber St" type="OFFENSE" age="" gender="" description="*********************************************** &lt;br/&gt;4912, Impersonating a Public Servant.&lt;br/&gt;"/><marker lat="40.452966162510073" lng="-79.891011747036316" zone="Zone 5" incidentdate="2016-08-10" incidenttime="20:17:00" incidentnumber="16149298" address="7600 block Hamilton Ave" type="ARREST" age="59" gender="M" description="*********************************************** &lt;br/&gt;9501, Bench Warrant&lt;br/&gt;"/><marker lat="40.4317569" lng="-79.9973878" zone="Zone 2" incidentdate="2016-08-10" incidenttime="09:48:00" incidentnumber="16148861" address="Liberty Brg Ramp &amp; Liberty Brg" type="ARREST" age="35" gender="M" description="*********************************************** &lt;br/&gt;5507, Obstructing Highways and Passages.&lt;br/&gt;602.04(b)(2), Aggressive Panhandling&lt;br/&gt;"/><marker lat="40.441400507457708" lng="-80.041234654652811" zone="Zone 6" incidentdate="2016-08-10" incidenttime="15:50:00" incidentnumber="16144398" address="1000 block Elbon St" type="ARREST" age="46" gender="M" description="*********************************************** &lt;br/&gt;2701(a)(1), Simple Assault - Intent., Know., Reckless.Cause Bod. Injury&lt;br/&gt;"/><marker lat="40.4800074" lng="-79.7195627" zone="Zone 4" incidentdate="2016-08-10" incidenttime="17:50:00" incidentnumber="16111134" address="2000 block De Ruad St" type="ARREST" age="48" gender="M" description="*********************************************** &lt;br/&gt;2701, Simple Assault.&lt;br/&gt;903, Criminal Conspiracy.&lt;br/&gt;2706, Terroristic Threats.&lt;br/&gt;4952, Intimidation of Witnesses or Victims&lt;br/&gt;"/><marker lat="40.453421528804526" lng="-79.892481935834624" zone="Zone 5" incidentdate="2016-08-10" incidenttime="14:06:00" incidentnumber="16149023" address="7500 block Hamilton Ave" type="ARREST" age="58" gender="M" description="*********************************************** &lt;br/&gt;1543, Driving While Operating Privilege is Suspended or Revoked.&lt;br/&gt;3802(a)(1), DUI - General Impairment&lt;br/&gt;"/><marker lat="40.4309065" lng="-80.0014696" zone="Zone 3" incidentdate="2016-08-10" incidenttime="01:08:00" incidentnumber="16148717" address="100 block Arlington Ave" type="ARREST" age="36" gender="M" description="*********************************************** &lt;br/&gt;3802(a)(1), DUI - General Impairment&lt;br/&gt;3714, Careless Driving&lt;br/&gt;3802(b), DUI - High Rate of Alchol - BAC &gt;=.10% &lt;.16%&lt;br/&gt;"/><marker lat="40.4405383901005" lng="-79.989290068117285" zone="Zone 2" incidentdate="2016-08-10" incidenttime="17:29:00" incidentnumber="16149172" address="Centre Ave &amp; Mario Lemieux Pl" type="ARREST" age="29" gender="M" description="*********************************************** &lt;br/&gt;13(a)(16), Possession of Controlled Substance&lt;br/&gt;13(a)(30), Possession w/ Intent to Del. Controlled Substance&lt;br/&gt;9501, Bench Warrant&lt;br/&gt;1543, Driving While Operating Privilege is Suspended or Revoked.&lt;br/&gt;3925, Receiving Stolen Property.&lt;br/&gt;"/><marker lat="40.438091155451616" lng="-80.001853342344887" zone="Zone 2" incidentdate="2016-08-10" incidenttime="02:20:00" incidentnumber="16148733" address="300 block Blvd Of The Allies" type="ARREST" age="41" gender="M" description="*********************************************** &lt;br/&gt;9501, Bench Warrant&lt;br/&gt;9093, Indirect Criminal Contempt&lt;br/&gt;"/><marker lat="40.461179787190211" lng="-79.870410823576421" zone="Zone 5" incidentdate="2016-08-10" incidenttime="21:20:00" incidentnumber="16149328" address="Frankstown Ave &amp; East Hills Dr" type="ARREST" age="30" gender="M" description="*********************************************** &lt;br/&gt;13(a)(16), Possession of Controlled Substance&lt;br/&gt;13(a)(32), Paraphernalia - Use or Possession&lt;br/&gt;"/><marker lat="40.438146947078387" lng="-79.975887005149687" zone="Zone 2" incidentdate="2016-08-10" incidenttime="05:08:00" incidentnumber="16148773" address="Seneca St &amp; 5th Ave" type="ARREST" age="23" gender="F" description="*********************************************** &lt;br/&gt;9501, Bench Warrant&lt;br/&gt;"/><marker lat="40.458972156177147" lng="-80.00553337384008" zone="Zone 1" incidentdate="2016-08-10" incidenttime="20:50:00" incidentnumber="16149315" address="Fountain St &amp; Sandusky St N" type="ARREST" age="51" gender="F" description="*********************************************** &lt;br/&gt;13(a)(16), Possession of Controlled Substance&lt;br/&gt;5505, Public Drunkenness&lt;br/&gt;"/><marker lat="40.4800074" lng="-79.7195627" zone="Zone 4" incidentdate="2016-08-10" incidenttime="17:45:00" incidentnumber="16111134" address="2000 block De Ruad St" type="ARREST" age="25" gender="M" description="*********************************************** &lt;br/&gt;2701, Simple Assault.&lt;br/&gt;903, Criminal Conspiracy.&lt;br/&gt;2706, Terroristic Threats.&lt;br/&gt;4952, Intimidation of Witnesses or Victims&lt;br/&gt;"/><marker lat="40.455427910198594" lng="-80.025252177631543" zone="Zone 1" incidentdate="2016-08-10" incidenttime="16:00:00" incidentnumber="16120207" address="1300 block Liverpool St" type="ARREST" age="10" gender="M" description="*********************************************** &lt;br/&gt;3304(a)(5), CRIMINAL MISCHIEF - Intentionally Damages Real Or Personal Property Of Another&lt;br/&gt;901, Criminal Attempt&lt;br/&gt;"/><marker lat="40.455273086676286" lng="-80.008870414965187" zone="Zone 1" incidentdate="2016-08-10" incidenttime="00:47:00" incidentnumber="16141778" address="200 block North Shore Dr" type="ARREST" age="28" gender="M" description="*********************************************** &lt;br/&gt;2701(a)(1), Simple Assault - Intent., Know., Reckless.Cause Bod. Injury&lt;br/&gt;5503(a)(3), DISORDERLY CONDUCT - OBSCENE LANG/GEST&lt;br/&gt;"/><marker lat="40.428684832699354" lng="-79.983306706238423" zone="Zone 3" incidentdate="2016-08-10" incidenttime="23:50:00" incidentnumber="16149391" address="1500 block E Carson St" type="ARREST" age="24" gender="F" description="*********************************************** &lt;br/&gt;5505, Public Drunkenness&lt;br/&gt;5503(a)(1), DISORDERLY CONDUCT - ENGAGE IN FIGHTING&lt;br/&gt;"/><marker lat="40.427737273464565" lng="-79.979156885866971" zone="Zone 3" incidentdate="2016-08-10" incidenttime="11:30:00" incidentnumber="16148108" address="S 19th St" type="ARREST" age="17" gender="M" description="*********************************************** &lt;br/&gt;3921, Theft by Unlawful Taking or Disposition.&lt;br/&gt;1501, Drivers Required to be Licensed.&lt;br/&gt;3925, Receiving Stolen Property.&lt;br/&gt;"/><marker lat="40.459227130464114" lng="-80.005623690982688" zone="Zone 1" incidentdate="2016-08-10" incidenttime="23:28:00" incidentnumber="16149396" address="Henderson St &amp; Sandusky Ct" type="ARREST" age="26" gender="M" description="*********************************************** &lt;br/&gt;13(a)(16), Possession of Controlled Substance&lt;br/&gt;1543, Driving While Operating Privilege is Suspended or Revoked.&lt;br/&gt;3334, Turning Movements and Required Signals.&lt;br/&gt;4302, Periods for Requiring Lighted Lamps.&lt;br/&gt;"/><marker lat="40.474259937428243" lng="-80.010532705998429" zone="Zone 1" incidentdate="2016-08-10" incidenttime="17:29:00" incidentnumber="16147697" address="200 block Kennedy Ave" type="ARREST" age="29" gender="M" description="*********************************************** &lt;br/&gt;3745, Accidents Involving Damage to Unattended Veh.or Prop.&lt;br/&gt;2709, Harassment (Non-Specific)&lt;br/&gt;4952, Intimidation of Witnesses or Victims&lt;br/&gt;"/><marker lat="40.444555509808218" lng="-80.000853441112824" zone="Zone 2" incidentdate="2016-08-10" incidenttime="20:10:00" incidentnumber="16140731" address="7th St &amp; Fort Duquesne Blvd" type="ARREST" age="43" gender="F" description="*********************************************** &lt;br/&gt;9501, Bench Warrant&lt;br/&gt;3701, Robbery.&lt;br/&gt;"/><marker lat="40.452210852851195" lng="-79.998676352919205" zone="Zone 1" incidentdate="2016-08-10" incidenttime="18:30:00" incidentnumber="16149223" address="600 block Pressley St" type="ARREST" age="79" gender="M" description="*********************************************** &lt;br/&gt;2701, Simple Assault.&lt;br/&gt;"/><marker lat="40.454365192078292" lng="-80.061718435263586" zone="Zone 6" incidentdate="2016-08-10" incidenttime="13:40:00" incidentnumber="16144714" address="1100 block Sutherland St" type="ARREST" age="38" gender="M" description="*********************************************** &lt;br/&gt;2705, Recklessly Endangering Another Person.&lt;br/&gt;2701(a)(1), Simple Assault - Intent., Know., Reckless.Cause Bod. Injury&lt;br/&gt;2701(b)(2), Simple Assault -  Child Under 12 / Adult 21 Or Older&lt;br/&gt;"/><marker lat="40.393421615971256" lng="-80.00203785789374" zone="Zone 6" incidentdate="2016-08-10" incidenttime="08:00:00" incidentnumber="16138000" address="1600 block Bellaire Pl" type="ARREST" age="28" gender="F" description="*********************************************** &lt;br/&gt;2701, Simple Assault.&lt;br/&gt;"/><marker lat="40.42171778851246" lng="-80.001555475380627" zone="Zone 3" incidentdate="2016-08-10" incidenttime="20:25:00" incidentnumber="16149284" address="300 block Kingsboro St" type="ARREST" age="26" gender="F" description="*********************************************** &lt;br/&gt;2701, Simple Assault.&lt;br/&gt;"/><marker lat="40.4482924" lng="-80.0042900" zone="Zone 1" incidentdate="2016-08-10" incidenttime="19:50:00" incidentnumber="16149306" address="General Robinson St W &amp; Federal St S" type="ARREST" age="27" gender="F" description="*********************************************** &lt;br/&gt;5503, Disorderly Conduct.&lt;br/&gt;2701, Simple Assault.&lt;br/&gt;"/><marker lat="40.4405383901005" lng="-79.989290068117285" zone="Zone 2" incidentdate="2016-08-10" incidenttime="17:50:00" incidentnumber="16149172" address="Centre Ave &amp; Mario Lemieux Pl" type="ARREST" age="48" gender="M" description="*********************************************** &lt;br/&gt;13(a)(16), Possession of Controlled Substance&lt;br/&gt;13(a)(30), Possession w/ Intent to Del. Controlled Substance&lt;br/&gt;9501, Bench Warrant&lt;br/&gt;1543, Driving While Operating Privilege is Suspended or Revoked.&lt;br/&gt;3925, Receiving Stolen Property.&lt;br/&gt;"/><marker lat="40.435095503606554" lng="-79.993077686753679" zone="Zone 2" incidentdate="2016-08-10" incidenttime="14:02:00" incidentnumber="16142428" address="900 block 2nd Ave" type="ARREST" age="25" gender="F" description="*********************************************** &lt;br/&gt;2701, Simple Assault.&lt;br/&gt;"/><marker lat="40.456645624737135" lng="-80.016779629911412" zone="Zone 1" incidentdate="2016-08-10" incidenttime="23:20:00" incidentnumber="16149386" address="Jacksonia St" type="ARREST" age="51" gender="F" description="*********************************************** &lt;br/&gt;2701, Simple Assault.&lt;br/&gt;"/><marker lat="40.4582100888612" lng="-79.904907963631274" zone="Zone 5" incidentdate="2016-08-10" incidenttime="20:33:00" incidentnumber="16149288" address="800 block Inwood St" type="ARREST" age="53" gender="F" description="*********************************************** &lt;br/&gt;9093, Indirect Criminal Contempt&lt;br/&gt;"/><marker lat="40.396893978871162" lng="-79.916529047707911" zone="Zone 4" incidentdate="2016-08-10" incidenttime="21:23:00" incidentnumber="16134663" address="4400 block Sweetbay St" type="ARREST" age="20" gender="M" description="*********************************************** &lt;br/&gt;2705, Recklessly Endangering Another Person.&lt;br/&gt;2701(a)(1), Simple Assault - Intent., Know., Reckless.Cause Bod. Injury&lt;br/&gt;2706, Terroristic Threats.&lt;br/&gt;"/><marker lat="40.441730122618281" lng="-79.961093442895944" zone="Zone 4" incidentdate="2016-08-10" incidenttime="13:28:00" incidentnumber="16148986" address="200 block Lothrop St" type="ARREST" age="28" gender="M" description="*********************************************** &lt;br/&gt;9501, Bench Warrant&lt;br/&gt;"/><marker lat="40.416868962872634" lng="-79.972917545445213" zone="Zone 3" incidentdate="2016-08-10" incidenttime="16:53:00" incidentnumber="16149064" address="2400 block Charcot St" type="ARREST" age="16" gender="M" description="*********************************************** &lt;br/&gt;2702, Aggravated Assault.&lt;br/&gt;"/></markers>
