<?xml version="1.0"?>
<markers><marker lat="40.4304878" lng="-79.9989132" zone="Zone 2" incidentdate="2014-09-24" incidenttime="04:40:00" incidentnumber="14049307" address="South 2nd Street, Pittsburgh, PA 15219, USA" type="ARREST" description="*********************************************** &lt;br/&gt;2702, Aggravated Assault.&lt;br/&gt;2701, Simple Assault.&lt;br/&gt;4304(a)(1), Endangering Welfare of Children.&lt;br/&gt;607.03, Discharging Firearm or Airgun&lt;br/&gt;903, Criminal Conspiracy.&lt;br/&gt;2705, Recklessly Endangering Another Person.&lt;br/&gt;"/><marker lat="40.4286713" lng="-79.9791177" zone="Zone 3" incidentdate="2014-09-24" incidenttime="02:20:00" incidentnumber="14165995" address="South 19th Street, Pittsburgh, PA 15203, USA" type="ARREST" description="*********************************************** &lt;br/&gt;3925, Receiving Stolen Property.&lt;br/&gt;3934, Theft from Vehicle&lt;br/&gt;"/><marker lat="40.4606459" lng="-79.9227644" zone="Zone 5" incidentdate="2014-09-24" incidenttime="10:05:00" incidentnumber="14174128" address="6200 Penn Avenue, Pittsburgh, PA 15206, USA" type="ARREST" description="*********************************************** &lt;br/&gt;3921(a), Theft by Unlawful Taking or Disposition - Movable item&lt;br/&gt;903, Criminal Conspiracy.&lt;br/&gt;"/><marker lat="40.4464484" lng="-79.9683711" zone="Zone 2" incidentdate="2014-09-24" incidenttime="03:30:00" incidentnumber="14175062" address="2600 Centre Avenue, Pittsburgh, PA 15219, USA" type="ARREST" description="*********************************************** &lt;br/&gt;3304, Criminal Mischief.&lt;br/&gt;2701, Simple Assault.&lt;br/&gt;"/><marker lat="40.4578262" lng="-79.9742021" zone="Zone 2" incidentdate="2014-09-24" incidenttime="09:30:00" incidentnumber="14185097" address="Penn Avenue &amp; 29th Street, Pittsburgh, PA 15222, USA" type="ARREST" description="*********************************************** &lt;br/&gt;2701(a)(1), Simple Assault - Intent., Know., Reckless.Cause Bod. Injury&lt;br/&gt;"/><marker lat="40.4578262" lng="-79.9742021" zone="Zone 2" incidentdate="2014-09-24" incidenttime="09:30:00" incidentnumber="14185097" address="Penn Avenue &amp; 29th Street, Pittsburgh, PA 15222, USA" type="ARREST" description="*********************************************** &lt;br/&gt;2701(a)(1), Simple Assault - Intent., Know., Reckless.Cause Bod. Injury&lt;br/&gt;"/><marker lat="40.4578262" lng="-79.9742021" zone="Zone 2" incidentdate="2014-09-24" incidenttime="09:30:00" incidentnumber="14185097" address="Penn Avenue &amp; 29th Street, Pittsburgh, PA 15222, USA" type="ARREST" description="*********************************************** &lt;br/&gt;2701(a)(1), Simple Assault - Intent., Know., Reckless.Cause Bod. Injury&lt;br/&gt;"/><marker lat="40.4476599" lng="-79.8881619" zone="Zone 5" incidentdate="2014-09-24" incidenttime="14:45:00" incidentnumber="14185532" address="400 Rosedale Street, Pittsburgh, PA 15221, USA" type="ARREST" description="*********************************************** &lt;br/&gt;2701, Simple Assault.&lt;br/&gt;3502, Burglary.&lt;br/&gt;"/><marker lat="40.4437938" lng="-80.0384" zone="Zone 6" incidentdate="2014-09-24" incidenttime="21:15:00" incidentnumber="14185753" address="200 Marlow Street, Pittsburgh, PA 15220, USA" type="ARREST" description="*********************************************** &lt;br/&gt;2701(a)(3), Simple Assault - Attempts by Physical Menace&lt;br/&gt;5503(a)(3), DISORDERLY CONDUCT - OBSCENE LANG/GEST&lt;br/&gt;"/><marker lat="40.4430753" lng="-79.9811291" zone="Zone 2" incidentdate="2014-09-24" incidenttime="09:25:00" incidentnumber="14186114" address="1900 Centre Avenue, Pittsburgh, PA 15219, USA" type="ARREST" description="*********************************************** &lt;br/&gt;3921(a), Theft by Unlawful Taking or Disposition - Movable item&lt;br/&gt;3927, Theft by Failure to Make Required Disp. of Funds&lt;br/&gt;"/><marker lat="40.4651691" lng="-79.9579286" zone="Zone 5" incidentdate="2014-09-24" incidenttime="09:25:00" incidentnumber="14189208" address="4000 Penn Avenue, Pittsburgh, PA 15224, USA" type="ARREST" description="*********************************************** &lt;br/&gt;3921, Theft by Unlawful Taking or Disposition.&lt;br/&gt;"/><marker lat="40.4566006" lng="-79.9018195" zone="Zone 5" incidentdate="2014-09-24" incidenttime="19:50:00" incidentnumber="14189875" address="7000 Kelly Street, Pittsburgh, PA 15208, USA" type="ARREST" description="*********************************************** &lt;br/&gt;2709(a)(4), Harassment Communicates Prohibited Acts&lt;br/&gt;2709(b), Stalking&lt;br/&gt;"/><marker lat="40.449638" lng="-79.892864" zone="Zone 4" incidentdate="2014-09-24" incidenttime="09:00:00" incidentnumber="14190050" address="300 North Braddock Avenue, Pittsburgh, PA 15208, USA" type="OFFENSE" description="*********************************************** &lt;br/&gt;9999, 9999 - (Misc. Incident):&lt;br/&gt;"/><marker lat="40.4327427" lng="-79.9736392" zone="Zone 3" incidentdate="2014-09-24" incidenttime="10:00:00" incidentnumber="14190549" address="Birmingham Bridge, Pittsburgh, PA, USA" type="OFFENSE" description="*********************************************** &lt;br/&gt;3304(a)(4), CRIMINAL MISCHIEF- Intentionally Damage Property (By Graffiti, Aerosol Spray Paint, Broad Tip Marker, or Similar)&lt;br/&gt;"/><marker lat="40.4155379" lng="-79.9676627" zone="Zone 3" incidentdate="2014-09-24" incidenttime="00:18:00" incidentnumber="14190858" address="200 Dengler Street, Pittsburgh, PA 15210, USA" type="OFFENSE" description="*********************************************** &lt;br/&gt;2701, Simple Assault.&lt;br/&gt;"/><marker lat="40.4155379" lng="-79.9676627" zone="Zone 3" incidentdate="2014-09-24" incidenttime="00:51:00" incidentnumber="14190858" address="200 Dengler Street, Pittsburgh, PA 15210, USA" type="ARREST" description="*********************************************** &lt;br/&gt;2701, Simple Assault.&lt;br/&gt;"/><marker lat="40.3854556" lng="-79.977255" zone="Zone 3" incidentdate="2014-09-24" incidenttime="00:05:00" incidentnumber="14190859" address="100 Spencer Avenue, Pittsburgh, PA 15227, USA" type="ARREST" description="*********************************************** &lt;br/&gt;13(a)(31), Marijuana: Possession Small Amount&lt;br/&gt;13(a)(32), Paraphernalia - Use or Possession&lt;br/&gt;"/><marker lat="40.3854556" lng="-79.977255" zone="Zone 3" incidentdate="2014-09-24" incidenttime="00:05:00" incidentnumber="14190859" address="100 Spencer Avenue, Pittsburgh, PA 15227, USA" type="OFFENSE" description="*********************************************** &lt;br/&gt;13(a)(31), Marijuana: Possession Small Amount&lt;br/&gt;13(a)(32), Paraphernalia - Use or Possession&lt;br/&gt;"/><marker lat="40.4233388" lng="-79.946833" zone="Zone 4" incidentdate="2014-09-24" incidenttime="00:55:00" incidentnumber="14190879" address="4100 Bristol Street, Pittsburgh, PA 15207, USA" type="OFFENSE" description="*********************************************** &lt;br/&gt;2701(a)(1), Simple Assault - Intent., Know., Reckless.Cause Bod. Injury&lt;br/&gt;"/><marker lat="40.4785914" lng="-80.0008597" zone="Zone 1" incidentdate="2014-09-24" incidenttime="01:52:00" incidentnumber="14190915" address="500 Mount Pleasant Road, Pittsburgh, PA 15214, USA" type="OFFENSE" description="*********************************************** &lt;br/&gt;9496, Dead on Arrival (DOA)&lt;br/&gt;"/><marker lat="40.4248616" lng="-79.9798982" zone="Zone 3" incidentdate="2014-09-24" incidenttime="02:16:00" incidentnumber="14190927" address="South 18th Street &amp; Josephine Street, Pittsburgh, PA 15203, USA" type="OFFENSE" description="*********************************************** &lt;br/&gt;9501, Bench Warrant&lt;br/&gt;"/><marker lat="40.4248616" lng="-79.9798982" zone="Zone 3" incidentdate="2014-09-24" incidenttime="02:30:00" incidentnumber="14190927" address="South 18th Street &amp; Josephine Street, Pittsburgh, PA 15203, USA" type="ARREST" description="*********************************************** &lt;br/&gt;9501, Bench Warrant&lt;br/&gt;"/><marker lat="40.4575575" lng="-79.9014805" zone="Zone 5" incidentdate="2014-09-24" incidenttime="02:28:00" incidentnumber="14190938" address="Bennett Street &amp; North Murtland Street, Pittsburgh, PA 15208, USA" type="OFFENSE" description="*********************************************** &lt;br/&gt;1543, Driving While Operating Privilege is Suspended or Revoked.&lt;br/&gt;3112, Traffic-Control Signals.&lt;br/&gt;3743, Accidents Involving Damage to Attended Veh. or Property&lt;br/&gt;3802(a)(1), DUI - General Impairment&lt;br/&gt;3802(b), DUI - High Rate of Alchol - BAC &gt;=.10% &lt;.16%&lt;br/&gt;"/><marker lat="40.4575575" lng="-79.9014805" zone="Zone 5" incidentdate="2014-09-24" incidenttime="02:30:00" incidentnumber="14190938" address="Bennett Street &amp; North Murtland Street, Pittsburgh, PA 15208, USA" type="ARREST" description="*********************************************** &lt;br/&gt;1543, Driving While Operating Privilege is Suspended or Revoked.&lt;br/&gt;3112, Traffic-Control Signals.&lt;br/&gt;3743, Accidents Involving Damage to Attended Veh. or Property&lt;br/&gt;3802(a)(1), DUI - General Impairment&lt;br/&gt;3802(b), DUI - High Rate of Alchol - BAC &gt;=.10% &lt;.16%&lt;br/&gt;"/><marker lat="40.4785914" lng="-80.0008597" zone="Zone 1" incidentdate="2014-09-24" incidenttime="00:10:00" incidentnumber="14190939" address="500 Mount Pleasant Road, Pittsburgh, PA 15214, USA" type="OFFENSE" description="*********************************************** &lt;br/&gt;3921, Theft by Unlawful Taking or Disposition.&lt;br/&gt;"/><marker lat="40.4861238" lng="-80.0333716" zone="Zone 1" incidentdate="2014-09-24" incidenttime="02:40:00" incidentnumber="14190940" address="1200 Benton Avenue, Pittsburgh, PA 15212, USA" type="OFFENSE" description="*********************************************** &lt;br/&gt;029, Missing Juvenile&lt;br/&gt;"/><marker lat="40.4604001" lng="-80.0549642" zone="Zone 6" incidentdate="2014-09-24" incidenttime="02:37:00" incidentnumber="14190942" address="400 Parson Street, Pittsburgh, PA 15204, USA" type="ARREST" description="*********************************************** &lt;br/&gt;2709.1, Stalking Conduct or Repeatedly Acts Including Follows&lt;br/&gt;2706, Terroristic Threats.&lt;br/&gt;"/><marker lat="40.4604001" lng="-80.0549642" zone="Zone 6" incidentdate="2014-09-24" incidenttime="02:37:00" incidentnumber="14190942" address="400 Parson Street, Pittsburgh, PA 15204, USA" type="OFFENSE" description="*********************************************** &lt;br/&gt;2709.1, Stalking Conduct or Repeatedly Acts Including Follows&lt;br/&gt;2706, Terroristic Threats.&lt;br/&gt;"/><marker lat="40.4559511" lng="-79.9419643" zone="Zone 4" incidentdate="2014-09-24" incidenttime="02:58:00" incidentnumber="14190949" address="Baum Boulevard &amp; Cypress Street, Pittsburgh, PA 15224, USA" type="OFFENSE" description="*********************************************** &lt;br/&gt;13(a)(31), Marijuana: Possession Small Amount&lt;br/&gt;1543, Driving While Operating Privilege is Suspended or Revoked.&lt;br/&gt;"/><marker lat="40.4559511" lng="-79.9419643" zone="Zone 4" incidentdate="2014-09-24" incidenttime="03:02:00" incidentnumber="14190949" address="Baum Boulevard &amp; Cypress Street, Pittsburgh, PA 15224, USA" type="ARREST" description="*********************************************** &lt;br/&gt;13(a)(31), Marijuana: Possession Small Amount&lt;br/&gt;1543, Driving While Operating Privilege is Suspended or Revoked.&lt;br/&gt;"/><marker lat="40.4224491" lng="-80.0100815" zone="Zone 3" incidentdate="2014-09-24" incidenttime="04:30:00" incidentnumber="14190980" address="200 Paul Street, Pittsburgh, PA 15211, USA" type="OFFENSE" description="*********************************************** &lt;br/&gt;3925, Receiving Stolen Property.&lt;br/&gt;"/><marker lat="40.4701757" lng="-80.0320363" zone="Zone 1" incidentdate="2014-09-24" incidenttime="06:25:00" incidentnumber="14190997" address="1400 Evandale Road, Pittsburgh, PA 15212, USA" type="OFFENSE" description="*********************************************** &lt;br/&gt;2702, Aggravated Assault.&lt;br/&gt;2706, Terroristic Threats.&lt;br/&gt;"/><marker lat="40.4419416" lng="-79.9278219" zone="Zone 4" incidentdate="2014-09-24" incidenttime="06:30:00" incidentnumber="14191005" address="5600 Woodmont Street, Pittsburgh, PA 15217, USA" type="OFFENSE" description="*********************************************** &lt;br/&gt;3304, Criminal Mischief.&lt;br/&gt;3934, Theft from Vehicle&lt;br/&gt;"/><marker lat="40.4257028" lng="-79.9748989" zone="Zone 3" incidentdate="2014-09-24" incidenttime="07:20:00" incidentnumber="14191018" address="2200 Mary Street, Pittsburgh, PA 15203, USA" type="OFFENSE" description="*********************************************** &lt;br/&gt;3304, Criminal Mischief.&lt;br/&gt;3934, Theft from Vehicle&lt;br/&gt;"/><marker lat="40.4257028" lng="-79.9748989" zone="Zone 3" incidentdate="2014-09-24" incidenttime="07:40:00" incidentnumber="14191025" address="2200 Mary Street, Pittsburgh, PA 15203, USA" type="OFFENSE" description="*********************************************** &lt;br/&gt;3304, Criminal Mischief.&lt;br/&gt;3934, Theft from Vehicle&lt;br/&gt;"/><marker lat="40.4514" lng="-79.937626" zone="Zone 4" incidentdate="2014-09-24" incidenttime="07:30:00" incidentnumber="14191033" address="700 Saint James Street, Pittsburgh, PA 15232, USA" type="OFFENSE" description="*********************************************** &lt;br/&gt;3304, Criminal Mischief.&lt;br/&gt;3934, Theft from Vehicle&lt;br/&gt;"/><marker lat="40.482715" lng="-79.929387" zone="Zone 5" incidentdate="2014-09-24" incidenttime="08:00:00" incidentnumber="14191034" address="1600 Morningside Avenue, Pittsburgh, PA 15206, USA" type="OFFENSE" description="*********************************************** &lt;br/&gt;3934, Theft from Vehicle&lt;br/&gt;"/><marker lat="40.4135898" lng="-79.992928" zone="Zone 3" incidentdate="2014-09-24" incidenttime="08:00:00" incidentnumber="14191047" address="200 Grimes Avenue, Pittsburgh, PA 15210, USA" type="OFFENSE" description="*********************************************** &lt;br/&gt;9489, Found Property&lt;br/&gt;"/><marker lat="40.430022" lng="-79.975402" zone="Zone 3" incidentdate="2014-09-24" incidenttime="08:00:00" incidentnumber="14191049" address="2100 Wharton Street, Pittsburgh, PA 15203, USA" type="OFFENSE" description="*********************************************** &lt;br/&gt;3304, Criminal Mischief.&lt;br/&gt;3934, Theft from Vehicle&lt;br/&gt;"/><marker lat="40.482526" lng="-79.9284459" zone="Zone 5" incidentdate="2014-09-24" incidenttime="08:45:00" incidentnumber="14191066" address="1600 Jancey Street, Pittsburgh, PA 15206, USA" type="OFFENSE" description="*********************************************** &lt;br/&gt;3934, Theft from Vehicle&lt;br/&gt;"/><marker lat="40.416165" lng="-80.025317" zone="Zone 6" incidentdate="2014-09-24" incidenttime="08:30:00" incidentnumber="14191067" address="1300 Beechview Avenue, Pittsburgh, PA 15216, USA" type="OFFENSE" description="*********************************************** &lt;br/&gt;3304, Criminal Mischief.&lt;br/&gt;"/><marker lat="40.4668992" lng="-79.8962247" zone="Zone 5" incidentdate="2014-09-24" incidenttime="08:05:00" incidentnumber="14191075" address="1300 Grotto Street, Pittsburgh, PA 15206, USA" type="OFFENSE" description="*********************************************** &lt;br/&gt;3304, Criminal Mischief.&lt;br/&gt;"/><marker lat="40.4756252" lng="-79.940044" zone="Zone 5" incidentdate="2014-09-24" incidenttime="07:30:00" incidentnumber="14191081" address="4200 Coleridge Street, Pittsburgh, PA 15201, USA" type="OFFENSE" description="*********************************************** &lt;br/&gt;3922, Theft by Deception.&lt;br/&gt;"/><marker lat="40.4120026" lng="-79.9951591" zone="Zone 3" incidentdate="2014-09-24" incidenttime="09:40:00" incidentnumber="14191084" address="400 Moore Avenue, Pittsburgh, PA 15210, USA" type="OFFENSE" description="*********************************************** &lt;br/&gt;3928, Unauthorized Use of Automobile and Other Vehicles.&lt;br/&gt;"/><marker lat="40.4587468" lng="-79.9207853" zone="Zone 4" incidentdate="2014-09-24" incidenttime="09:55:00" incidentnumber="14191087" address="Shakespeare Street, Pittsburgh, PA 15206, USA" type="ARREST" description="*********************************************** &lt;br/&gt;3929(a)(1), Retail Theft; takes possession of, carries away, or transfers displayed merchandise&lt;br/&gt;5503(a)(4), DISORDERLY CONDUCT - HAZARDOUS/PHYS. OFF&lt;br/&gt;13(a)(32), Paraphernalia - Use or Possession&lt;br/&gt;9501, Bench Warrant&lt;br/&gt;5126, Flight to Avoid Apprehension, Trial or Punishment.&lt;br/&gt;5104, Resisting Arrest or Other Law Enforcement.&lt;br/&gt;5121, Escape.&lt;br/&gt;"/><marker lat="40.4587468" lng="-79.9207853" zone="Zone 4" incidentdate="2014-09-24" incidenttime="09:48:00" incidentnumber="14191087" address="Shakespeare Street, Pittsburgh, PA 15206, USA" type="OFFENSE" description="*********************************************** &lt;br/&gt;3929(a)(1), Retail Theft; takes possession of, carries away, or transfers displayed merchandise&lt;br/&gt;5503(a)(4), DISORDERLY CONDUCT - HAZARDOUS/PHYS. OFF&lt;br/&gt;13(a)(32), Paraphernalia - Use or Possession&lt;br/&gt;9501, Bench Warrant&lt;br/&gt;5126, Flight to Avoid Apprehension, Trial or Punishment.&lt;br/&gt;5104, Resisting Arrest or Other Law Enforcement.&lt;br/&gt;5121, Escape.&lt;br/&gt;"/><marker lat="40.4600208" lng="-80.0154099" zone="Zone 1" incidentdate="2014-09-24" incidenttime="10:05:00" incidentnumber="14191090" address="1800 Buena Vista Street, Pittsburgh, PA 15214, USA" type="OFFENSE" description="*********************************************** &lt;br/&gt;9498, 302 (Mental)&lt;br/&gt;"/><marker lat="40.432809" lng="-79.930376" zone="Zone 4" incidentdate="2014-09-24" incidenttime="09:55:00" incidentnumber="14191093" address="5500 Kamin Street, Pittsburgh, PA 15217, USA" type="OFFENSE" description="*********************************************** &lt;br/&gt;3304, Criminal Mischief.&lt;br/&gt;3934, Theft from Vehicle&lt;br/&gt;"/><marker lat="40.4779099" lng="-80.0093635" zone="Zone 1" incidentdate="2014-09-24" incidenttime="09:50:00" incidentnumber="14191094" address="Tretow Street, Pittsburgh, PA 15214, USA" type="OFFENSE" description="*********************************************** &lt;br/&gt;3304, Criminal Mischief.&lt;br/&gt;"/><marker lat="40.472784" lng="-79.911989" zone="Zone 5" incidentdate="2014-09-24" incidenttime="10:00:00" incidentnumber="14191130" address="6500 Jackson Street, Pittsburgh, PA 15206, USA" type="OFFENSE" description="*********************************************** &lt;br/&gt;3502, Burglary.&lt;br/&gt;"/><marker lat="40.4563604" lng="-79.8918005" zone="Zone 5" incidentdate="2014-09-24" incidenttime="11:08:00" incidentnumber="14191139" address="7400 Frankstown Avenue, Pittsburgh, PA 15208, USA" type="OFFENSE" description="*********************************************** &lt;br/&gt;3928, Unauthorized Use of Automobile and Other Vehicles.&lt;br/&gt;"/><marker lat="40.3963002" lng="-79.9982663" zone="Zone 3" incidentdate="2014-09-24" incidenttime="11:07:00" incidentnumber="14191140" address="Saw Mill Run Boulevard &amp; Whited Street, Pittsburgh, PA 15210, USA" type="OFFENSE" description="*********************************************** &lt;br/&gt;3743, Accidents Involving Damage to Attended Veh. or Property&lt;br/&gt;"/><marker lat="40.4845242" lng="-80.0356829" zone="Zone 1" incidentdate="2014-09-24" incidenttime="11:20:00" incidentnumber="14191142" address="3800 Brighton Road, Pittsburgh, PA 15212, USA" type="OFFENSE" description="*********************************************** &lt;br/&gt;029, Missing Juvenile&lt;br/&gt;"/><marker lat="40.4423382" lng="-79.9960509" zone="Zone 2" incidentdate="2014-09-24" incidenttime="10:50:00" incidentnumber="14191147" address="7th Avenue, Pittsburgh, PA, USA" type="OFFENSE" description="*********************************************** &lt;br/&gt;2706, Terroristic Threats.&lt;br/&gt;"/><marker lat="40.416165" lng="-80.025317" zone="Zone 6" incidentdate="2014-09-24" incidenttime="09:30:00" incidentnumber="14191151" address="1300 Beechview Avenue, Pittsburgh, PA 15216, USA" type="OFFENSE" description="*********************************************** &lt;br/&gt;3304, Criminal Mischief.&lt;br/&gt;"/><marker lat="40.4262514" lng="-80.0025934" zone="Zone 3" incidentdate="2014-09-24" incidenttime="06:30:00" incidentnumber="14191162" address="300 Kambach Street, Pittsburgh, PA 15211, USA" type="OFFENSE" description="*********************************************** &lt;br/&gt;3745, Accidents Involving Damage to Unattended Veh.or Prop.&lt;br/&gt;"/><marker lat="40.4169549" lng="-79.9906454" zone="Zone 3" incidentdate="2014-09-24" incidenttime="12:30:00" incidentnumber="14191176" address="Knox Avenue &amp; Rentz Way, Pittsburgh, PA 15210, USA" type="ARREST" description="*********************************************** &lt;br/&gt;13(a)(16), Possession of Controlled Substance&lt;br/&gt;"/><marker lat="40.4169549" lng="-79.9906454" zone="Zone 3" incidentdate="2014-09-24" incidenttime="12:30:00" incidentnumber="14191176" address="Knox Avenue &amp; Rentz Way, Pittsburgh, PA 15210, USA" type="OFFENSE" description="*********************************************** &lt;br/&gt;13(a)(16), Possession of Controlled Substance&lt;br/&gt;"/><marker lat="40.4712992" lng="-79.9417146" zone="Zone 5" incidentdate="2014-09-24" incidenttime="12:00:00" incidentnumber="14191178" address="5100 Schenley Avenue, Pittsburgh, PA 15224, USA" type="OFFENSE" description="*********************************************** &lt;br/&gt;4106, Access Device Fraud&lt;br/&gt;"/><marker lat="40.463323" lng="-79.937616" zone="Zone 5" incidentdate="2014-09-24" incidenttime="11:00:00" incidentnumber="14191181" address="200 South Aiken Avenue, Pittsburgh, PA 15206, USA" type="OFFENSE" description="*********************************************** &lt;br/&gt;2709(a)(5), Harassment Communicates Repeatedly in Anonymous Manner&lt;br/&gt;"/><marker lat="40.498195" lng="-79.853756" zone="Zone 5" incidentdate="2014-09-24" incidenttime="13:01:00" incidentnumber="14191183" address="800 Freeport Road, Pittsburgh, PA 15238, USA" type="ARREST" description="*********************************************** &lt;br/&gt;3929, Retail Theft.&lt;br/&gt;903, Criminal Conspiracy.&lt;br/&gt;"/><marker lat="40.498195" lng="-79.853756" zone="Zone 5" incidentdate="2014-09-24" incidenttime="13:01:00" incidentnumber="14191183" address="800 Freeport Road, Pittsburgh, PA 15238, USA" type="ARREST" description="*********************************************** &lt;br/&gt;3929, Retail Theft.&lt;br/&gt;903, Criminal Conspiracy.&lt;br/&gt;"/><marker lat="40.498195" lng="-79.853756" zone="Zone 5" incidentdate="2014-09-24" incidenttime="12:40:00" incidentnumber="14191183" address="800 Freeport Road, Pittsburgh, PA 15238, USA" type="OFFENSE" description="*********************************************** &lt;br/&gt;3929, Retail Theft.&lt;br/&gt;903, Criminal Conspiracy.&lt;br/&gt;"/><marker lat="40.4474218" lng="-80.0209439" zone="Zone 1" incidentdate="2014-09-24" incidenttime="12:37:00" incidentnumber="14191184" address="700 Casino Drive, Pittsburgh, PA 15212, USA" type="OFFENSE" description="*********************************************** &lt;br/&gt;9134, Pedestrian Hit by Vehicle/Non-Reportable Accident&lt;br/&gt;"/><marker lat="40.4827308" lng="-80.0213538" zone="Zone 1" incidentdate="2014-09-24" incidenttime="12:30:00" incidentnumber="14191200" address="Riverview Park, Pittsburgh, PA 15214, USA" type="OFFENSE" description="*********************************************** &lt;br/&gt;3934, Theft from Vehicle&lt;br/&gt;"/><marker lat="40.4691851" lng="-79.9379033" zone="Zone 5" incidentdate="2014-09-24" incidenttime="13:05:00" incidentnumber="14191202" address="5300 Columbo Street, Pittsburgh, PA 15224, USA" type="OFFENSE" description="*********************************************** &lt;br/&gt;3502, Burglary.&lt;br/&gt;901, Criminal Attempt&lt;br/&gt;"/><marker lat="40.4827308" lng="-80.0213538" zone="Zone 1" incidentdate="2014-09-24" incidenttime="12:35:00" incidentnumber="14191218" address="Riverview Park, Pittsburgh, PA 15214, USA" type="OFFENSE" description="*********************************************** &lt;br/&gt;3304, Criminal Mischief.&lt;br/&gt;"/><marker lat="40.4770231" lng="-79.9995119" zone="Zone 1" incidentdate="2014-09-24" incidenttime="13:37:00" incidentnumber="14191223" address="Mount Pleasant Road &amp; Penfort Street, Pittsburgh, PA 15214, USA" type="OFFENSE" description="*********************************************** &lt;br/&gt;9501, Bench Warrant&lt;br/&gt;"/><marker lat="40.4770231" lng="-79.9995119" zone="Zone 1" incidentdate="2014-09-24" incidenttime="13:55:00" incidentnumber="14191223" address="Mount Pleasant Road &amp; Penfort Street, Pittsburgh, PA 15214, USA" type="ARREST" description="*********************************************** &lt;br/&gt;9501, Bench Warrant&lt;br/&gt;"/><marker lat="40.470393" lng="-79.932811" zone="Zone 5" incidentdate="2014-09-24" incidenttime="13:00:00" incidentnumber="14191230" address="5400 Black Street, Pittsburgh, PA 15206, USA" type="OFFENSE" description="*********************************************** &lt;br/&gt;3304, Criminal Mischief.&lt;br/&gt;2701, Simple Assault.&lt;br/&gt;"/><marker lat="40.470393" lng="-79.932811" zone="Zone 5" incidentdate="2014-09-24" incidenttime="13:56:00" incidentnumber="14191230" address="5400 Black Street, Pittsburgh, PA 15206, USA" type="ARREST" description="*********************************************** &lt;br/&gt;3304, Criminal Mischief.&lt;br/&gt;2701, Simple Assault.&lt;br/&gt;"/><marker lat="40.4467697" lng="-80.0528301" zone="Zone 6" incidentdate="2014-09-24" incidenttime="14:37:00" incidentnumber="14191254" address="1500 Crucible Street, Pittsburgh, PA 15205, USA" type="OFFENSE" description="*********************************************** &lt;br/&gt;9501, Bench Warrant&lt;br/&gt;"/><marker lat="40.4467697" lng="-80.0528301" zone="Zone 6" incidentdate="2014-09-24" incidenttime="14:45:00" incidentnumber="14191254" address="1500 Crucible Street, Pittsburgh, PA 15205, USA" type="ARREST" description="*********************************************** &lt;br/&gt;9501, Bench Warrant&lt;br/&gt;"/><marker lat="40.413981" lng="-80.0130042" zone="Zone 6" incidentdate="2014-09-24" incidenttime="14:50:00" incidentnumber="14191261" address="300 Dawn Avenue, Pittsburgh, PA 15226, USA" type="OFFENSE" description="*********************************************** &lt;br/&gt;13(a)(16), Possession of Controlled Substance&lt;br/&gt;1543, Driving While Operating Privilege is Suspended or Revoked.&lt;br/&gt;13(a)(30), Possession w/ Intent to Del. Controlled Substance&lt;br/&gt;7512, Criminal Use of Communication&lt;br/&gt;13(a)(32), Paraphernalia - Use or Possession&lt;br/&gt;9501, Bench Warrant&lt;br/&gt;"/><marker lat="40.413981" lng="-80.0130042" zone="Zone 6" incidentdate="2014-09-24" incidenttime="14:50:00" incidentnumber="14191261" address="300 Dawn Avenue, Pittsburgh, PA 15226, USA" type="ARREST" description="*********************************************** &lt;br/&gt;13(a)(16), Possession of Controlled Substance&lt;br/&gt;1543, Driving While Operating Privilege is Suspended or Revoked.&lt;br/&gt;13(a)(30), Possession w/ Intent to Del. Controlled Substance&lt;br/&gt;7512, Criminal Use of Communication&lt;br/&gt;13(a)(32), Paraphernalia - Use or Possession&lt;br/&gt;9501, Bench Warrant&lt;br/&gt;"/><marker lat="40.413981" lng="-80.0130042" zone="Zone 6" incidentdate="2014-09-24" incidenttime="14:50:00" incidentnumber="14191261" address="300 Dawn Avenue, Pittsburgh, PA 15226, USA" type="ARREST" description="*********************************************** &lt;br/&gt;13(a)(16), Possession of Controlled Substance&lt;br/&gt;1543, Driving While Operating Privilege is Suspended or Revoked.&lt;br/&gt;13(a)(30), Possession w/ Intent to Del. Controlled Substance&lt;br/&gt;7512, Criminal Use of Communication&lt;br/&gt;13(a)(32), Paraphernalia - Use or Possession&lt;br/&gt;9501, Bench Warrant&lt;br/&gt;"/><marker lat="40.4509827" lng="-80.0217039" zone="Zone 1" incidentdate="2014-09-24" incidenttime="15:05:00" incidentnumber="14191262" address="1200 Western Avenue, Pittsburgh, PA 15233, USA" type="OFFENSE" description="*********************************************** &lt;br/&gt;9999, 9999 - (Misc. Incident):&lt;br/&gt;"/><marker lat="40.4227854" lng="-79.9189001" zone="Zone 4" incidentdate="2014-09-24" incidenttime="00:01:00" incidentnumber="14191265" address="2900 Beechwood Boulevard, Pittsburgh, PA 15217, USA" type="OFFENSE" description="*********************************************** &lt;br/&gt;3921, Theft by Unlawful Taking or Disposition.&lt;br/&gt;"/><marker lat="40.486877" lng="-79.894016" zone="Zone 5" incidentdate="2014-09-24" incidenttime="14:30:00" incidentnumber="14191266" address="900 Freeport Road, Pittsburgh, PA 15238, USA" type="OFFENSE" description="*********************************************** &lt;br/&gt;3745, Accidents Involving Damage to Unattended Veh.or Prop.&lt;br/&gt;"/><marker lat="40.3903497" lng="-79.9816167" zone="Zone 3" incidentdate="2014-09-24" incidenttime="13:30:00" incidentnumber="14191276" address="Carrick Avenue, Pittsburgh, PA 15210, USA" type="OFFENSE" description="*********************************************** &lt;br/&gt;029, Missing Juvenile&lt;br/&gt;"/><marker lat="40.4709975" lng="-79.8967458" zone="Zone 5" incidentdate="2014-09-24" incidenttime="15:28:00" incidentnumber="14191277" address="7100 Churchland Street, Pittsburgh, PA 15206, USA" type="OFFENSE" description="*********************************************** &lt;br/&gt;9497, Aided Case&lt;br/&gt;"/><marker lat="40.4478344" lng="-79.9574758" zone="Zone 4" incidentdate="2014-09-24" incidenttime="15:30:00" incidentnumber="14191280" address="Parkman Avenue &amp; Lytton Avenue, Pittsburgh, PA 15213, USA" type="OFFENSE" description="*********************************************** &lt;br/&gt;3304, Criminal Mischief.&lt;br/&gt;3934, Theft from Vehicle&lt;br/&gt;"/><marker lat="40.4471117" lng="-79.8951121" zone="Zone 4" incidentdate="2014-09-24" incidenttime="16:00:00" incidentnumber="14191286" address="7600 Penn Avenue, Pittsburgh, PA 15221, USA" type="OFFENSE" description="*********************************************** &lt;br/&gt;9501, Bench Warrant&lt;br/&gt;2709(a)(1), Harassment by Physical Contact, or Attempts or Threats&lt;br/&gt;3503(b)(1)(i), Actual Communication&lt;br/&gt;"/><marker lat="40.4471117" lng="-79.8951121" zone="Zone 4" incidentdate="2014-09-24" incidenttime="16:00:00" incidentnumber="14191286" address="7600 Penn Avenue, Pittsburgh, PA 15221, USA" type="ARREST" description="*********************************************** &lt;br/&gt;9501, Bench Warrant&lt;br/&gt;2709(a)(1), Harassment by Physical Contact, or Attempts or Threats&lt;br/&gt;3503(b)(1)(i), Actual Communication&lt;br/&gt;"/><marker lat="40.4244004" lng="-79.8998838" zone="Zone 4" incidentdate="2014-09-24" incidenttime="15:54:00" incidentnumber="14191291" address="300 Lucille Street, Pittsburgh, PA 15218, USA" type="OFFENSE" description="*********************************************** &lt;br/&gt;9496, Dead on Arrival (DOA)&lt;br/&gt;"/><marker lat="40.415724" lng="-80.004157" zone="Zone 3" incidentdate="2014-09-24" incidenttime="15:10:00" incidentnumber="14191294" address="800 Delmont Avenue, Pittsburgh, PA 15210, USA" type="OFFENSE" description="*********************************************** &lt;br/&gt;3304(a)(5), CRIMINAL MISCHIEF - Intentionally Damages Real Or Personal Property Of Another&lt;br/&gt;"/><marker lat="40.4046611" lng="-80.0390652" zone="Zone 6" incidentdate="2014-09-24" incidenttime="16:24:00" incidentnumber="14191301" address="2800 Banksville Road, Pittsburgh, PA 15216, USA" type="OFFENSE" description="*********************************************** &lt;br/&gt;9501, Bench Warrant&lt;br/&gt;"/><marker lat="40.4046611" lng="-80.0390652" zone="Zone 6" incidentdate="2014-09-24" incidenttime="17:00:00" incidentnumber="14191301" address="2800 Banksville Road, Pittsburgh, PA 15216, USA" type="ARREST" description="*********************************************** &lt;br/&gt;9501, Bench Warrant&lt;br/&gt;"/><marker lat="40.4409263" lng="-80.0024186" zone="Zone 2" incidentdate="2014-09-24" incidenttime="16:15:00" incidentnumber="14191304" address="Market Street &amp; Market Square, Pittsburgh, PA 15222, USA" type="OFFENSE" description="*********************************************** &lt;br/&gt;3924, Theft of Property Lost, Mislaid or Delivered by Mistake.&lt;br/&gt;"/><marker lat="40.423176" lng="-79.942091" zone="Zone 4" incidentdate="2014-09-24" incidenttime="16:15:00" incidentnumber="14191313" address="4200 Lydia Street, Pittsburgh, PA 15207, USA" type="OFFENSE" description="*********************************************** &lt;br/&gt;029, Missing Juvenile&lt;br/&gt;"/><marker lat="40.475632" lng="-79.96137" zone="Zone 2" incidentdate="2014-09-24" incidenttime="16:51:00" incidentnumber="14191316" address="4700 Hatfield Street, Pittsburgh, PA 15201, USA" type="OFFENSE" description="*********************************************** &lt;br/&gt;2709, Harassment (Non-Specific)&lt;br/&gt;"/><marker lat="40.4652644" lng="-79.9145315" zone="Zone 5" incidentdate="2014-09-24" incidenttime="16:20:00" incidentnumber="14191319" address="500 Larimer Avenue, Pittsburgh, PA 15206, USA" type="OFFENSE" description="*********************************************** &lt;br/&gt;2709(a)(1), Harassment by Physical Contact, or Attempts or Threats&lt;br/&gt;"/><marker lat="40.3957692" lng="-79.9915743" zone="Zone 3" incidentdate="2014-09-24" incidenttime="12:00:00" incidentnumber="14191327" address="300 Riota Way, Pittsburgh, PA 15210, USA" type="OFFENSE" description="*********************************************** &lt;br/&gt;3304, Criminal Mischief.&lt;br/&gt;3934, Theft from Vehicle&lt;br/&gt;"/><marker lat="40.4238377" lng="-80.0018441" zone="Zone 3" incidentdate="2014-09-24" incidenttime="16:45:00" incidentnumber="14191334" address="Pasadena Street, Pittsburgh, PA 15211, USA" type="OFFENSE" description="*********************************************** &lt;br/&gt;5503, Disorderly Conduct.&lt;br/&gt;"/><marker lat="40.430725" lng="-79.99039" zone="Zone 3" incidentdate="2014-09-24" incidenttime="15:45:00" incidentnumber="14191346" address="300 South 9th Street, Pittsburgh, PA 15203, USA" type="OFFENSE" description="*********************************************** &lt;br/&gt;3745, Accidents Involving Damage to Unattended Veh.or Prop.&lt;br/&gt;"/><marker lat="40.4424694" lng="-79.9609899" zone="Zone 4" incidentdate="2014-09-24" incidenttime="15:41:00" incidentnumber="14191353" address="200 Lothrop Street, University of Pittsburgh, Pittsburgh, PA 15213, USA" type="OFFENSE" description="*********************************************** &lt;br/&gt;9999, 9999 - (Misc. Incident):&lt;br/&gt;"/><marker lat="40.4787041" lng="-79.9133758" zone="Zone 5" incidentdate="2014-09-24" incidenttime="17:48:00" incidentnumber="14191360" address="Reservoir Drive &amp; Farmhouse Drive, Pittsburgh, PA 15206, USA" type="OFFENSE" description="*********************************************** &lt;br/&gt;3304, Criminal Mischief.&lt;br/&gt;5104, Resisting Arrest or Other Law Enforcement.&lt;br/&gt;907, Possessing Instruments of Crime.&lt;br/&gt;"/><marker lat="40.4787041" lng="-79.9133758" zone="Zone 5" incidentdate="2014-09-24" incidenttime="17:35:00" incidentnumber="14191360" address="Reservoir Drive &amp; Farmhouse Drive, Pittsburgh, PA 15206, USA" type="ARREST" description="*********************************************** &lt;br/&gt;3304, Criminal Mischief.&lt;br/&gt;5104, Resisting Arrest or Other Law Enforcement.&lt;br/&gt;907, Possessing Instruments of Crime.&lt;br/&gt;"/><marker lat="40.458423" lng="-79.97465" zone="Zone 2" incidentdate="2014-09-24" incidenttime="17:30:00" incidentnumber="14191373" address="2900 Smallman Street, Pittsburgh, PA 15201, USA" type="OFFENSE" description="*********************************************** &lt;br/&gt;3745, Accidents Involving Damage to Unattended Veh.or Prop.&lt;br/&gt;"/><marker lat="40.4639438" lng="-79.9199686" zone="Zone 5" incidentdate="2014-09-24" incidenttime="18:01:00" incidentnumber="14191389" address="Kalida Drive, Pittsburgh, PA 15206, USA" type="OFFENSE" description="*********************************************** &lt;br/&gt;2709(a), Harassment.&lt;br/&gt;"/><marker lat="40.4274367" lng="-79.9365519" zone="Zone 4" incidentdate="2014-09-24" incidenttime="18:30:00" incidentnumber="14191406" address="4000 Beechwood Boulevard, Pittsburgh, PA 15217, USA" type="ARREST" description="*********************************************** &lt;br/&gt;3304, Criminal Mischief.&lt;br/&gt;3502, Burglary.&lt;br/&gt;901, Criminal Attempt&lt;br/&gt;"/><marker lat="40.4274367" lng="-79.9365519" zone="Zone 4" incidentdate="2014-09-24" incidenttime="18:25:00" incidentnumber="14191406" address="4000 Beechwood Boulevard, Pittsburgh, PA 15217, USA" type="OFFENSE" description="*********************************************** &lt;br/&gt;3304, Criminal Mischief.&lt;br/&gt;3502, Burglary.&lt;br/&gt;901, Criminal Attempt&lt;br/&gt;"/><marker lat="40.4575146" lng="-79.9013562" zone="Zone 5" incidentdate="2014-09-24" incidenttime="18:00:00" incidentnumber="14191417" address="7000 Bennett Street, Pittsburgh, PA 15208, USA" type="OFFENSE" description="*********************************************** &lt;br/&gt;2709, Harassment (Non-Specific)&lt;br/&gt;"/><marker lat="40.4478344" lng="-79.9574758" zone="Zone 4" incidentdate="2014-09-24" incidenttime="15:20:00" incidentnumber="14191420" address="Parkman Avenue &amp; Lytton Avenue, Pittsburgh, PA 15213, USA" type="OFFENSE" description="*********************************************** &lt;br/&gt;3304, Criminal Mischief.&lt;br/&gt;3934, Theft from Vehicle&lt;br/&gt;"/><marker lat="40.468284" lng="-79.980966" zone="Zone 1" incidentdate="2014-09-24" incidenttime="18:50:00" incidentnumber="14191423" address="2000 Straubs Lane, Pittsburgh, PA 15212, USA" type="OFFENSE" description="*********************************************** &lt;br/&gt;3304, Criminal Mischief.&lt;br/&gt;3921(a), Theft by Unlawful Taking or Disposition - Movable item&lt;br/&gt;"/><marker lat="40.421536" lng="-79.9935859" zone="Zone 3" incidentdate="2014-09-24" incidenttime="16:30:00" incidentnumber="14191431" address="800 East Warrington Avenue, Pittsburgh, PA 15210, USA" type="OFFENSE" description="*********************************************** &lt;br/&gt;3921(a), Theft by Unlawful Taking or Disposition - Movable item&lt;br/&gt;"/><marker lat="40.456821" lng="-79.9992038" zone="Zone 1" incidentdate="2014-09-24" incidenttime="19:10:00" incidentnumber="14191433" address="East North Avenue &amp; Howard Street, Pittsburgh, PA 15212, USA" type="ARREST" description="*********************************************** &lt;br/&gt;13(a)(16), Possession of Controlled Substance&lt;br/&gt;3334, Turning Movements and Required Signals.&lt;br/&gt;903, Criminal Conspiracy.&lt;br/&gt;"/><marker lat="40.456821" lng="-79.9992038" zone="Zone 1" incidentdate="2014-09-24" incidenttime="19:10:00" incidentnumber="14191433" address="East North Avenue &amp; Howard Street, Pittsburgh, PA 15212, USA" type="ARREST" description="*********************************************** &lt;br/&gt;13(a)(16), Possession of Controlled Substance&lt;br/&gt;3334, Turning Movements and Required Signals.&lt;br/&gt;903, Criminal Conspiracy.&lt;br/&gt;"/><marker lat="40.456821" lng="-79.9992038" zone="Zone 1" incidentdate="2014-09-24" incidenttime="19:10:00" incidentnumber="14191433" address="East North Avenue &amp; Howard Street, Pittsburgh, PA 15212, USA" type="OFFENSE" description="*********************************************** &lt;br/&gt;13(a)(16), Possession of Controlled Substance&lt;br/&gt;3334, Turning Movements and Required Signals.&lt;br/&gt;903, Criminal Conspiracy.&lt;br/&gt;"/><marker lat="40.4626148" lng="-80.008287" zone="Zone 1" incidentdate="2014-09-24" incidenttime="18:30:00" incidentnumber="14191448" address="1700 Letsche Street, Pittsburgh, PA 15214, USA" type="OFFENSE" description="*********************************************** &lt;br/&gt;3502, Burglary.&lt;br/&gt;"/><marker lat="40.396759" lng="-80.021204" zone="Zone 6" incidentdate="2014-09-24" incidenttime="00:01:00" incidentnumber="14191450" address="2500 Wedgemere Street, Pittsburgh, PA 15226, USA" type="OFFENSE" description="*********************************************** &lt;br/&gt;3921, Theft by Unlawful Taking or Disposition.&lt;br/&gt;"/><marker lat="40.4666231" lng="-79.9253479" zone="Zone 5" incidentdate="2014-09-24" incidenttime="21:00:00" incidentnumber="14191455" address="500 North Euclid Avenue, Pittsburgh, PA 15206, USA" type="OFFENSE" description="*********************************************** &lt;br/&gt;2701, Simple Assault.&lt;br/&gt;2902, Unlawful Restraint.&lt;br/&gt;"/><marker lat="40.4915768" lng="-80.0166445" zone="Zone 1" incidentdate="2014-09-24" incidenttime="20:03:00" incidentnumber="14191458" address="100 Radium Street, Pittsburgh, PA 15214, USA" type="OFFENSE" description="*********************************************** &lt;br/&gt;9488, False  Burglar Alarm&lt;br/&gt;"/><marker lat="40.4582319" lng="-79.994831" zone="Zone 1" incidentdate="2014-09-24" incidenttime="19:46:00" incidentnumber="14191461" address="1000 Salter Way, Pittsburgh, PA 15212, USA" type="OFFENSE" description="*********************************************** &lt;br/&gt;3304, Criminal Mischief.&lt;br/&gt;2701, Simple Assault.&lt;br/&gt;3502, Burglary.&lt;br/&gt;"/><marker lat="40.4501041" lng="-80.0159072" zone="Zone 1" incidentdate="2014-09-24" incidenttime="20:00:00" incidentnumber="14191467" address="Ridge Avenue &amp; Galveston Avenue, Pittsburgh, PA 15212, USA" type="OFFENSE" description="*********************************************** &lt;br/&gt;3304, Criminal Mischief.&lt;br/&gt;"/><marker lat="40.4555501" lng="-79.9358781" zone="Zone 4" incidentdate="2014-09-24" incidenttime="18:00:00" incidentnumber="14191468" address="5500 Claybourne Street, Pittsburgh, PA 15232, USA" type="OFFENSE" description="*********************************************** &lt;br/&gt;3745, Accidents Involving Damage to Unattended Veh.or Prop.&lt;br/&gt;"/><marker lat="40.4131383" lng="-79.9890519" zone="Zone 3" incidentdate="2014-09-24" incidenttime="20:20:00" incidentnumber="14191476" address="400 Brownsville Road, Pittsburgh, PA 15210, USA" type="OFFENSE" description="*********************************************** &lt;br/&gt;3304, Criminal Mischief.&lt;br/&gt;"/><marker lat="40.4266719" lng="-79.9397729" zone="Zone 4" incidentdate="2014-09-24" incidenttime="20:20:00" incidentnumber="14191479" address="Winterburn Avenue &amp; Donegal Way, Pittsburgh, PA 15207, USA" type="OFFENSE" description="*********************************************** &lt;br/&gt;3304, Criminal Mischief.&lt;br/&gt;2707, Propulsion of Missiles&lt;br/&gt;"/><marker lat="40.4242567" lng="-79.9683894" zone="Zone 3" incidentdate="2014-09-24" incidenttime="19:30:00" incidentnumber="14191482" address="2800 Mary Street, Pittsburgh, PA 15203, USA" type="OFFENSE" description="*********************************************** &lt;br/&gt;2709, Harassment (Non-Specific)&lt;br/&gt;"/><marker lat="40.447279" lng="-79.973078" zone="Zone 2" incidentdate="2014-09-24" incidenttime="20:49:00" incidentnumber="14191495" address="2400 Wylie Avenue, Pittsburgh, PA 15219, USA" type="OFFENSE" description="*********************************************** &lt;br/&gt;3701, Robbery.&lt;br/&gt;"/><marker lat="40.4645865" lng="-79.9339045" zone="Zone 5" incidentdate="2014-09-24" incidenttime="21:00:00" incidentnumber="14191505" address="Penn Avenue &amp; Roup Avenue, Pittsburgh, PA 15206, USA" type="OFFENSE" description="*********************************************** &lt;br/&gt;5902(a)(2), Prostitution - Loitering for purpose of&lt;br/&gt;5902(a)(1), Prostitution&lt;br/&gt;"/><marker lat="40.4645865" lng="-79.9339045" zone="Zone 5" incidentdate="2014-09-24" incidenttime="21:00:00" incidentnumber="14191505" address="Penn Avenue &amp; Roup Avenue, Pittsburgh, PA 15206, USA" type="ARREST" description="*********************************************** &lt;br/&gt;5902(a)(2), Prostitution - Loitering for purpose of&lt;br/&gt;5902(a)(1), Prostitution&lt;br/&gt;"/><marker lat="40.4804928" lng="-80.0393006" zone="Zone 1" incidentdate="2014-09-24" incidenttime="21:30:00" incidentnumber="14191524" address="3600 Fleming Avenue, Pittsburgh, PA 15212, USA" type="OFFENSE" description="*********************************************** &lt;br/&gt;3304, Criminal Mischief.&lt;br/&gt;"/><marker lat="40.4751297" lng="-79.9606603" zone="Zone 2" incidentdate="2014-09-24" incidenttime="20:00:00" incidentnumber="14191528" address="100 Home Street, Pittsburgh, PA 15201, USA" type="OFFENSE" description="*********************************************** &lt;br/&gt;3921(a), Theft by Unlawful Taking or Disposition - Movable item&lt;br/&gt;"/><marker lat="40.4550817" lng="-80.0011005" zone="Zone 1" incidentdate="2014-09-24" incidenttime="22:38:00" incidentnumber="14191555" address="900 James Street, Pittsburgh, PA 15212, USA" type="ARREST" description="*********************************************** &lt;br/&gt;5505, Public Drunkenness&lt;br/&gt;5503(a)(4), DISORDERLY CONDUCT - HAZARDOUS/PHYS. OFF&lt;br/&gt;"/><marker lat="40.4550817" lng="-80.0011005" zone="Zone 1" incidentdate="2014-09-24" incidenttime="22:38:00" incidentnumber="14191555" address="900 James Street, Pittsburgh, PA 15212, USA" type="OFFENSE" description="*********************************************** &lt;br/&gt;5505, Public Drunkenness&lt;br/&gt;5503(a)(4), DISORDERLY CONDUCT - HAZARDOUS/PHYS. OFF&lt;br/&gt;"/></markers>
