<?xml version="1.0"?>
<markers><marker lat="40.428585203983602" lng="-79.981869007680203" zone="Zone 3" incidentdate="2016-07-13" incidenttime="15:38:00" incidentnumber="16130136" address="1700 block E Carson St" type="OFFENSE" age="" gender="" description="*********************************************** &lt;br/&gt;3745, Accidents Involving Damage to Unattended Veh.or Prop.&lt;br/&gt;"/><marker lat="40.471012276973703" lng="-80.016772844247583" zone="Zone 1" incidentdate="2016-07-13" incidenttime="15:13:00" incidentnumber="16130093" address="500 block Marshall Ave" type="OFFENSE" age="" gender="" description="*********************************************** &lt;br/&gt;9491, Industrial Accident&lt;br/&gt;"/><marker lat="40.436092280710454" lng="-80.023902189641433" zone="Zone 3" incidentdate="2016-07-13" incidenttime="02:26:00" incidentnumber="16129780" address="400 block Augusta St" type="OFFENSE" age="" gender="" description="*********************************************** &lt;br/&gt;3304, Criminal Mischief.&lt;br/&gt;"/><marker lat="40.429417158451685" lng="-79.953711546107328" zone="Zone 4" incidentdate="2016-07-13" incidenttime="17:23:00" incidentnumber="16130176" address="3200 block Parkview Ave" type="OFFENSE" age="" gender="" description="*********************************************** &lt;br/&gt;9497, Aided Case&lt;br/&gt;"/><marker lat="40.462837885257748" lng="-79.917665049836586" zone="Zone OSC" incidentdate="2016-07-13" incidenttime="00:56:00" incidentnumber="16129737" address="6300 block East Liberty Blvd" type="OFFENSE" age="" gender="" description="*********************************************** &lt;br/&gt;9094, Recovered Stolen Vehicle (OUTSIDE CITY)&lt;br/&gt;"/><marker lat="40.435827502390985" lng="-79.966059319208114" zone="Zone 4" incidentdate="2016-07-13" incidenttime="05:31:00" incidentnumber="16129830" address="Forbes Ave &amp; Ophelia St" type="OFFENSE" age="" gender="" description="*********************************************** &lt;br/&gt;9018, Accidental Fire&lt;br/&gt;"/><marker lat="40.487551319845878" lng="-80.016020890107271" zone="Zone 1" incidentdate="2016-07-13" incidenttime="05:02:00" incidentnumber="16129820" address="3800 block Perrysville Ave" type="OFFENSE" age="" gender="" description="*********************************************** &lt;br/&gt;9488, False  Burglar Alarm&lt;br/&gt;"/><marker lat="40.404939361855945" lng="-79.990899233620965" zone="Zone 3" incidentdate="2016-07-13" incidenttime="09:30:00" incidentnumber="16129943" address="1100 block Brownsville Rd" type="OFFENSE" age="" gender="" description="*********************************************** &lt;br/&gt;3304, Criminal Mischief.&lt;br/&gt;3503, Criminal Trespass&lt;br/&gt;"/><marker lat="40.443315554772433" lng="-79.959560343748407" zone="Zone 4" incidentdate="2016-07-13" incidenttime="14:15:00" incidentnumber="16130069" address="3800 block O hara St" type="OFFENSE" age="" gender="" description="*********************************************** &lt;br/&gt;029, Missing Juvenile&lt;br/&gt;"/><marker lat="40.456946782110407" lng="-80.021251406677706" zone="Zone 1" incidentdate="2016-07-13" incidenttime="01:13:00" incidentnumber="16129744" address="Allegheny Ave" type="OFFENSE" age="" gender="" description="*********************************************** &lt;br/&gt;3743, Accidents Involving Damage to Attended Veh. or Property&lt;br/&gt;"/><marker lat="40.434696587775576" lng="-79.996300985228572" zone="Zone 2" incidentdate="2016-07-13" incidenttime="15:00:00" incidentnumber="16130084" address="600 block First   &quot; Upper Motor Pool Parking Lot&quot; Ave" type="OFFENSE" age="" gender="" description="*********************************************** &lt;br/&gt;3304, Criminal Mischief.&lt;br/&gt;"/><marker lat="40.462740043669676" lng="-79.905733593421971" zone="Zone 2" incidentdate="2016-07-13" incidenttime="18:00:00" incidentnumber="16130325" address="100 block Washington Pl" type="OFFENSE" age="" gender="" description="*********************************************** &lt;br/&gt;3745, Accidents Involving Damage to Unattended Veh.or Prop.&lt;br/&gt;"/><marker lat="40.456327343696188" lng="-79.999783815433531" zone="Zone 1" incidentdate="2016-07-13" incidenttime="21:02:00" incidentnumber="16130342" address="1000 block Middle St" type="OFFENSE" age="" gender="" description="*********************************************** &lt;br/&gt;13(a)(16), Possession of Controlled Substance&lt;br/&gt;5505, Public Drunkenness&lt;br/&gt;"/><marker lat="40.427437109046565" lng="-79.986500313235538" zone="Zone 3" incidentdate="2016-07-13" incidenttime="13:35:00" incidentnumber="16130165" address="100 block S 12th St" type="OFFENSE" age="" gender="" description="*********************************************** &lt;br/&gt;3745, Accidents Involving Damage to Unattended Veh.or Prop.&lt;br/&gt;"/><marker lat="40.45803936285224" lng="-79.904251416277006" zone="Zone 5" incidentdate="2016-07-13" incidenttime="13:00:00" incidentnumber="16130100" address="6900 block Frankstown Ave" type="OFFENSE" age="" gender="" description="*********************************************** &lt;br/&gt;2709(a)(1), Harassment by Physical Contact, or Attempts or Threats&lt;br/&gt;"/><marker lat="40.4142302" lng="-79.9352923" zone="Zone 6" incidentdate="2016-07-13" incidenttime="21:02:00" incidentnumber="16130350" address="1300 block Prescott St" type="OFFENSE" age="" gender="" description="*********************************************** &lt;br/&gt;9497, Aided Case&lt;br/&gt;"/><marker lat="40.456249975527761" lng="-80.00093692366552" zone="Zone 1" incidentdate="2016-07-13" incidenttime="01:29:00" incidentnumber="16129749" address="500 block Tripoli St" type="OFFENSE" age="" gender="" description="*********************************************** &lt;br/&gt;3502, Burglary.&lt;br/&gt;13(a)(31), Marijuana: Possession Small Amount&lt;br/&gt;13(a)(32), Paraphernalia - Use or Possession&lt;br/&gt;9501, Bench Warrant&lt;br/&gt;903, Criminal Conspiracy.&lt;br/&gt;907, Possessing Instruments of Crime.&lt;br/&gt;5506, Loitering and Prowling at Night&lt;br/&gt;5126, Flight to Avoid Apprehension, Trial or Punishment.&lt;br/&gt;627.02(b), Possession or Smoking of a Small Amount of Marijuana&lt;br/&gt;"/><marker lat="40.483910706625586" lng="-79.950452829395473" zone="Zone 2" incidentdate="2016-07-13" incidenttime="09:00:00" incidentnumber="16129940" address="100 block 55th St" type="OFFENSE" age="" gender="" description="*********************************************** &lt;br/&gt;3921(a), Theft by Unlawful Taking or Disposition - Movable item&lt;br/&gt;"/><marker lat="40.437778047215012" lng="-80.000179900212117" zone="Zone 2" incidentdate="2016-07-13" incidenttime="00:15:00" incidentnumber="16129717" address="Smithfield St &amp; Blvd Of The Allies" type="OFFENSE" age="" gender="" description="*********************************************** &lt;br/&gt;3743, Accidents Involving Damage to Attended Veh. or Property&lt;br/&gt;"/><marker lat="40.449316372194595" lng="-79.914970461641502" zone="Zone 4" incidentdate="2016-07-13" incidenttime="08:45:00" incidentnumber="16130098" address="500 block Hastings St" type="OFFENSE" age="" gender="" description="*********************************************** &lt;br/&gt;3502, Burglary.&lt;br/&gt;"/><marker lat="40.456731447697983" lng="-80.006873141930313" zone="Zone 1" incidentdate="2016-07-13" incidenttime="17:02:00" incidentnumber="16130154" address="1300 block Federal St N" type="OFFENSE" age="" gender="" description="*********************************************** &lt;br/&gt;9497, Aided Case&lt;br/&gt;13(a)(31), Marijuana: Possession Small Amount&lt;br/&gt;"/><marker lat="40.418123090081004" lng="-79.988724988322659" zone="Zone 3" incidentdate="2016-07-13" incidenttime="07:40:00" incidentnumber="16129880" address="Orchard Pl &amp; Ibis Way" type="OFFENSE" age="" gender="" description="*********************************************** &lt;br/&gt;2701, Simple Assault.&lt;br/&gt;"/><marker lat="40.42155201085292" lng="-79.99720376810096" zone="Zone 3" incidentdate="2016-07-13" incidenttime="10:55:00" incidentnumber="16129958" address="600 block E Warrington Ave" type="OFFENSE" age="" gender="" description="*********************************************** &lt;br/&gt;2709(a)(1), Harassment by Physical Contact, or Attempts or Threats&lt;br/&gt;"/><marker lat="40.471070786139038" lng="-80.010615244644669" zone="Zone 1" incidentdate="2016-07-13" incidenttime="19:22:00" incidentnumber="16130280" address="2600 block Ellis St" type="OFFENSE" age="" gender="" description="*********************************************** &lt;br/&gt;9999, 9999 - (Misc. Incident):&lt;br/&gt;"/><marker lat="40.466301368364185" lng="-80.011090311070006" zone="Zone 1" incidentdate="2016-07-13" incidenttime="09:00:00" incidentnumber="16130128" address="2300 block Perrysville Ave" type="OFFENSE" age="" gender="" description="*********************************************** &lt;br/&gt;3304, Criminal Mischief.&lt;br/&gt;3934, Theft from Vehicle&lt;br/&gt;"/><marker lat="40.480771020965371" lng="-79.950567930160787" zone="Zone 2" incidentdate="2016-07-13" incidenttime="04:00:00" incidentnumber="16129822" address="5300 block Kent Way" type="OFFENSE" age="" gender="" description="*********************************************** &lt;br/&gt;3502, Burglary.&lt;br/&gt;"/><marker lat="40.403184288221588" lng="-79.994048977261443" zone="Zone 3" incidentdate="2016-07-13" incidenttime="05:35:00" incidentnumber="16129828" address="Minooka St" type="OFFENSE" age="" gender="" description="*********************************************** &lt;br/&gt;9489, Found Property&lt;br/&gt;"/><marker lat="40.452022648610722" lng="-79.935513005350259" zone="Zone 4" incidentdate="2016-07-13" incidenttime="20:30:00" incidentnumber="16130377" address="700 block Copeland St" type="OFFENSE" age="" gender="" description="*********************************************** &lt;br/&gt;3921, Theft by Unlawful Taking or Disposition.&lt;br/&gt;3503, Criminal Trespass&lt;br/&gt;"/><marker lat="40.466616756829907" lng="-79.993676874083434" zone="Zone 1" incidentdate="2016-07-13" incidenttime="15:00:00" incidentnumber="16130334" address="2100 block Rhine St" type="OFFENSE" age="" gender="" description="*********************************************** &lt;br/&gt;3921, Theft by Unlawful Taking or Disposition.&lt;br/&gt;"/><marker lat="40.445781163800902" lng="-79.985166000868688" zone="Zone 2" incidentdate="2016-07-13" incidenttime="05:05:00" incidentnumber="16129841" address="800 block Cassatt St" type="OFFENSE" age="" gender="" description="*********************************************** &lt;br/&gt;2709(a)(1), Harassment by Physical Contact, or Attempts or Threats&lt;br/&gt;"/><marker lat="40.465913053577324" lng="-79.953250701447303" zone="Zone 2" incidentdate="2016-07-13" incidenttime="14:30:00" incidentnumber="16130079" address="4400 block Penn Ave" type="OFFENSE" age="" gender="" description="*********************************************** &lt;br/&gt;9490, Missing Persons (18 and Over)&lt;br/&gt;"/><marker lat="40.442584949905417" lng="-80.001789508770926" zone="Zone 2" incidentdate="2016-07-13" incidenttime="01:15:00" incidentnumber="16129768" address="600 block Penn" type="OFFENSE" age="" gender="" description="*********************************************** &lt;br/&gt;3304, Criminal Mischief.&lt;br/&gt;3934, Theft from Vehicle&lt;br/&gt;"/><marker lat="40.436554160228923" lng="-79.981444568232604" zone="Zone 2" incidentdate="2016-07-13" incidenttime="23:30:00" incidentnumber="16130428" address="1800 block Locust St" type="OFFENSE" age="" gender="" description="*********************************************** &lt;br/&gt;2701, Simple Assault.&lt;br/&gt;"/><marker lat="40.425777674971151" lng="-80.011608201525007" zone="Zone 3" incidentdate="2016-07-13" incidenttime="11:00:00" incidentnumber="16129977" address="Prospect St" type="OFFENSE" age="" gender="" description="*********************************************** &lt;br/&gt;3921(a), Theft by Unlawful Taking or Disposition - Movable item&lt;br/&gt;"/><marker lat="40.437078053893849" lng="-79.961539715931224" zone="Zone 4" incidentdate="2016-07-13" incidenttime="16:13:00" incidentnumber="16130137" address="300 block Halket St" type="OFFENSE" age="" gender="" description="*********************************************** &lt;br/&gt;5511, Cruelty to Animals.&lt;br/&gt;"/><marker lat="40.445781163800902" lng="-79.985166000868688" zone="Zone 2" incidentdate="2016-07-13" incidenttime="05:05:00" incidentnumber="16129825" address="800 block Cassatt St" type="OFFENSE" age="" gender="" description="*********************************************** &lt;br/&gt;9093, Indirect Criminal Contempt&lt;br/&gt;2709(a)(1), Harassment by Physical Contact, or Attempts or Threats&lt;br/&gt;"/><marker lat="40.441406159731216" lng="-80.002873255548053" zone="Zone 2" incidentdate="2016-07-13" incidenttime="17:30:00" incidentnumber="16130186" address="100 block 5th Ave" type="OFFENSE" age="" gender="" description="*********************************************** &lt;br/&gt;3701, Robbery.&lt;br/&gt;2709(b), Stalking&lt;br/&gt;"/><marker lat="40.438808783984314" lng="-80.001618548213528" zone="Zone 2" incidentdate="2016-07-13" incidenttime="12:00:00" incidentnumber="16130282" address="300 block 3rd Ave" type="OFFENSE" age="" gender="" description="*********************************************** &lt;br/&gt;4106, Access Device Fraud&lt;br/&gt;3924, Theft of Property Lost, Mislaid or Delivered by Mistake.&lt;br/&gt;"/><marker lat="40.45283452139217" lng="-79.964512094176754" zone="Zone 2" incidentdate="2016-07-13" incidenttime="21:01:00" incidentnumber="16130362" address="3300 block Webster Ave" type="OFFENSE" age="" gender="" description="*********************************************** &lt;br/&gt;3304, Criminal Mischief.&lt;br/&gt;"/><marker lat="40.4785913" lng="-80.0008600" zone="Zone 1" incidentdate="2016-07-13" incidenttime="17:50:00" incidentnumber="16130214" address="500 block Mt Pleasant Rd" type="OFFENSE" age="" gender="" description="*********************************************** &lt;br/&gt;2701, Simple Assault.&lt;br/&gt;"/><marker lat="40.438219522469147" lng="-80.034614263575634" zone="Zone 6" incidentdate="2016-07-13" incidenttime="11:01:00" incidentnumber="16129965" address="100 block Wabash St" type="OFFENSE" age="" gender="" description="*********************************************** &lt;br/&gt;3921(a), Theft by Unlawful Taking or Disposition - Movable item&lt;br/&gt;"/><marker lat="40.45644682280367" lng="-79.998595406368935" zone="Zone 1" incidentdate="2016-07-13" incidenttime="08:00:00" incidentnumber="16129934" address="1000 block East St" type="OFFENSE" age="" gender="" description="*********************************************** &lt;br/&gt;3304, Criminal Mischief.&lt;br/&gt;3934, Theft from Vehicle&lt;br/&gt;"/><marker lat="40.428478873788158" lng="-79.980265799395895" zone="Zone 3" incidentdate="2016-07-13" incidenttime="15:43:00" incidentnumber="16130110" address="1800 block E Carson St" type="OFFENSE" age="" gender="" description="*********************************************** &lt;br/&gt;9501, Bench Warrant&lt;br/&gt;1543, Driving While Operating Privilege is Suspended or Revoked.&lt;br/&gt;3925, Receiving Stolen Property.&lt;br/&gt;6106, Firearms not to be Carried without a License.&lt;br/&gt;"/><marker lat="40.427188547881535" lng="-80.005614053802859" zone="Zone 3" incidentdate="2016-07-13" incidenttime="12:00:00" incidentnumber="16130002" address="100 block Boggs Ave" type="OFFENSE" age="" gender="" description="*********************************************** &lt;br/&gt;3934, Theft from Vehicle&lt;br/&gt;"/><marker lat="40.450892721440539" lng="-80.000843891836467" zone="Zone 1" incidentdate="2016-07-13" incidenttime="16:30:00" incidentnumber="16130414" address="300 block Cedar Ave" type="OFFENSE" age="" gender="" description="*********************************************** &lt;br/&gt;13(a)(16), Possession of Controlled Substance&lt;br/&gt;4910, Tampering with or Fabricating Physical Evidence.&lt;br/&gt;3304, Criminal Mischief.&lt;br/&gt;2701, Simple Assault.&lt;br/&gt;5123, Contraband.&lt;br/&gt;3926(a)(1), Theft of Services; Cable, Gas, Taxi, Bill, Tab, etc.&lt;br/&gt;"/><marker lat="40.451365022842182" lng="-80.009452129877758" zone="Zone 1" incidentdate="2016-07-13" incidenttime="20:20:00" incidentnumber="16130313" address="Merchant St &amp; Ridge Ave" type="OFFENSE" age="" gender="" description="*********************************************** &lt;br/&gt;5104, Resisting Arrest or Other Law Enforcement.&lt;br/&gt;5507, Obstructing Highways and Passages.&lt;br/&gt;2706, Terroristic Threats.&lt;br/&gt;4914(A), False Identification to Law Enforcement&lt;br/&gt;"/><marker lat="40.472866390131692" lng="-79.9639201912602" zone="Zone 2" incidentdate="2016-07-13" incidenttime="17:00:00" incidentnumber="16130226" address="100 block 43 1/2 St" type="OFFENSE" age="" gender="" description="*********************************************** &lt;br/&gt;3745, Accidents Involving Damage to Unattended Veh.or Prop.&lt;br/&gt;"/><marker lat="40.459754172232486" lng="-79.92480766252595" zone="Zone 4" incidentdate="2016-07-13" incidenttime="02:29:00" incidentnumber="16129763" address="6000 block Centre Ave" type="OFFENSE" age="" gender="" description="*********************************************** &lt;br/&gt;3921(a), Theft by Unlawful Taking or Disposition - Movable item&lt;br/&gt;"/><marker lat="40.49239877580181" lng="-80.020492620134107" zone="Zone 1" incidentdate="2016-07-13" incidenttime="08:58:00" incidentnumber="16129896" address="Franklin Rd &amp; Garvin St" type="OFFENSE" age="" gender="" description="*********************************************** &lt;br/&gt;9090, Recovered Firearm&lt;br/&gt;"/><marker lat="40.477650117914308" lng="-79.932723042823852" zone="Zone 2" incidentdate="2016-07-13" incidenttime="13:30:00" incidentnumber="16130222" address="5100 block Stanton Ave" type="OFFENSE" age="" gender="" description="*********************************************** &lt;br/&gt;3745, Accidents Involving Damage to Unattended Veh.or Prop.&lt;br/&gt;"/><marker lat="40.441406159731216" lng="-80.002873255548053" zone="Zone 2" incidentdate="2016-07-13" incidenttime="18:53:00" incidentnumber="16130258" address="100 block 5th Ave" type="OFFENSE" age="" gender="" description="*********************************************** &lt;br/&gt;5503, Disorderly Conduct.&lt;br/&gt;5505, Public Drunkenness&lt;br/&gt;5901, Open Lewdness.&lt;br/&gt;601.08(a), Alcohol or Liquor Consumption on Streets or Sidewalks&lt;br/&gt;"/><marker lat="40.435871654423465" lng="-79.923064652845284" zone="Zone 4" incidentdate="2016-07-13" incidenttime="18:10:00" incidentnumber="16130234" address="1900 block Murray Ave" type="OFFENSE" age="" gender="" description="*********************************************** &lt;br/&gt;3745, Accidents Involving Damage to Unattended Veh.or Prop.&lt;br/&gt;"/><marker lat="40.456249975527761" lng="-80.00093692366552" zone="Zone 1" incidentdate="2016-07-13" incidenttime="19:00:00" incidentnumber="16130272" address="500 block Tripoli St" type="OFFENSE" age="" gender="" description="*********************************************** &lt;br/&gt;3304, Criminal Mischief.&lt;br/&gt;"/><marker lat="40.392845075193414" lng="-79.997186325899577" zone="Zone 3" incidentdate="2016-07-13" incidenttime="10:00:00" incidentnumber="16129991" address="2000 block Saw Mill Run Blvd" type="OFFENSE" age="" gender="" description="*********************************************** &lt;br/&gt;3502, Burglary.&lt;br/&gt;"/><marker lat="40.470999082785468" lng="-79.89674879734207" zone="Zone 5" incidentdate="2016-07-13" incidenttime="17:35:00" incidentnumber="16130196" address="7100 block Churchland St" type="OFFENSE" age="" gender="" description="*********************************************** &lt;br/&gt;2709(a)(1), Harassment by Physical Contact, or Attempts or Threats&lt;br/&gt;2701(a)(1), Simple Assault - Intent., Know., Reckless.Cause Bod. Injury&lt;br/&gt;5503(a)(1), DISORDERLY CONDUCT - ENGAGE IN FIGHTING&lt;br/&gt;"/><marker lat="40.444124175924465" lng="-79.993451492617879" zone="Zone 2" incidentdate="2016-07-13" incidenttime="05:00:00" incidentnumber="16129815" address="Liberty Ave &amp; 11th St" type="OFFENSE" age="" gender="" description="*********************************************** &lt;br/&gt;9497, Aided Case&lt;br/&gt;"/><marker lat="40.497786424785396" lng="-80.017681467788762" zone="Zone 1" incidentdate="2016-07-13" incidenttime="14:25:00" incidentnumber="16130074" address="Oval Way &amp; Rodenbaugh Ave" type="OFFENSE" age="" gender="" description="*********************************************** &lt;br/&gt;9999, 9999 - (Misc. Incident):&lt;br/&gt;"/><marker lat="40.400806724439811" lng="-80.010236027269585" zone="Zone 6" incidentdate="2016-07-13" incidenttime="19:04:00" incidentnumber="16130188" address="700 block Fernhill Ave" type="OFFENSE" age="" gender="" description="*********************************************** &lt;br/&gt;9999, 9999 - (Misc. Incident):&lt;br/&gt;"/><marker lat="40.454038272737556" lng="-79.867341042290406" zone="Zone 5" incidentdate="2016-07-13" incidenttime="09:00:00" incidentnumber="16129969" address="2200 block Wilner Dr" type="OFFENSE" age="" gender="" description="*********************************************** &lt;br/&gt;3304, Criminal Mischief.&lt;br/&gt;"/><marker lat="40.486868894969639" lng="-79.887147317282711" zone="Zone 5" incidentdate="2016-07-13" incidenttime="20:32:00" incidentnumber="16130337" address="1000 block Freeport Rd" type="OFFENSE" age="" gender="" description="*********************************************** &lt;br/&gt;3929, Retail Theft.&lt;br/&gt;3925, Receiving Stolen Property.&lt;br/&gt;"/><marker lat="40.421786260807202" lng="-80.010407390440832" zone="Zone 3" incidentdate="2016-07-13" incidenttime="05:00:00" incidentnumber="16130326" address="600 block Boggs Ave" type="OFFENSE" age="" gender="" description="*********************************************** &lt;br/&gt;3934, Theft from Vehicle&lt;br/&gt;"/><marker lat="40.441137684867279" lng="-79.957585934716349" zone="Zone 4" incidentdate="2016-07-13" incidenttime="23:49:00" incidentnumber="16130442" address="200 block Atwood St" type="OFFENSE" age="" gender="" description="*********************************************** &lt;br/&gt;3929, Retail Theft.&lt;br/&gt;"/><marker lat="40.457267579856016" lng="-80.051856353957618" zone="Zone 6" incidentdate="2016-07-13" incidenttime="17:15:00" incidentnumber="16130172" address="3000 block Merwyn Ave" type="OFFENSE" age="" gender="" description="*********************************************** &lt;br/&gt;3304, Criminal Mischief.&lt;br/&gt;"/><marker lat="40.4671503" lng="-80.0368473" zone="Zone 1" incidentdate="2016-07-13" incidenttime="06:05:00" incidentnumber="16012983" address="2800 block Beaver Ave" type="OFFENSE" age="" gender="" description="*********************************************** &lt;br/&gt;9488, False  Burglar Alarm&lt;br/&gt;"/><marker lat="40.4621190" lng="-79.8919207" zone="Zone 5" incidentdate="2016-07-13" incidenttime="10:18:00" incidentnumber="16129939" address="7300 block Stranahan St" type="OFFENSE" age="" gender="" description="*********************************************** &lt;br/&gt;2706, Terroristic Threats.&lt;br/&gt;"/><marker lat="40.452625408687659" lng="-79.951757128743239" zone="Zone 4" incidentdate="2016-07-13" incidenttime="12:33:00" incidentnumber="16129997" address="Truro Pl &amp; Gold Way" type="OFFENSE" age="" gender="" description="*********************************************** &lt;br/&gt;13(a)(32), Paraphernalia - Use or Possession&lt;br/&gt;"/><marker lat="40.4523434" lng="-80.0088818" zone="Zone 1" incidentdate="2016-07-13" incidenttime="23:47:00" incidentnumber="16130435" address="700 block Arch St" type="OFFENSE" age="" gender="" description="*********************************************** &lt;br/&gt;3934, Theft from Vehicle&lt;br/&gt;"/><marker lat="40.471468305806894" lng="-79.926296300841145" zone="Zone 5" incidentdate="2016-07-13" incidenttime="10:00:00" incidentnumber="16130099" address="5600 block Stanton Ave" type="OFFENSE" age="" gender="" description="*********************************************** &lt;br/&gt;3934, Theft from Vehicle&lt;br/&gt;"/><marker lat="40.452794972924039" lng="-79.99878569066297" zone="Zone 1" incidentdate="2016-07-13" incidenttime="15:47:00" incidentnumber="16130114" address="600 block Lockhart St" type="OFFENSE" age="" gender="" description="*********************************************** &lt;br/&gt;9999, 9999 - (Misc. Incident):&lt;br/&gt;"/><marker lat="40.436929435103927" lng="-79.954991220056257" zone="Zone 4" incidentdate="2016-07-13" incidenttime="17:00:00" incidentnumber="16130298" address="400 block Semple St" type="OFFENSE" age="" gender="" description="*********************************************** &lt;br/&gt;3921(a), Theft by Unlawful Taking or Disposition - Movable item&lt;br/&gt;"/><marker lat="40.399985666969435" lng="-79.997996822999596" zone="Zone 3" incidentdate="2016-07-13" incidenttime="23:02:00" incidentnumber="16130416" address="1400 block Nobles Ln" type="OFFENSE" age="" gender="" description="*********************************************** &lt;br/&gt;2701, Simple Assault.&lt;br/&gt;2706, Terroristic Threats.&lt;br/&gt;"/><marker lat="40.473349600095005" lng="-80.002822219962013" zone="Zone 1" incidentdate="2016-07-13" incidenttime="00:21:00" incidentnumber="16129714" address="100 block Penfort St" type="OFFENSE" age="" gender="" description="*********************************************** &lt;br/&gt;2701, Simple Assault.&lt;br/&gt;"/><marker lat="40.440841979883878" lng="-80.006751980364669" zone="Zone 2" incidentdate="2016-07-13" incidenttime="01:05:00" incidentnumber="16129741" address="Commonwealth Pl &amp; Liberty Ave" type="OFFENSE" age="" gender="" description="*********************************************** &lt;br/&gt;2701, Simple Assault.&lt;br/&gt;"/><marker lat="40.451062991618954" lng="-79.968730527227905" zone="Zone 2" incidentdate="2016-07-13" incidenttime="06:58:00" incidentnumber="16129856" address="2800 block Webster Ave" type="OFFENSE" age="" gender="" description="*********************************************** &lt;br/&gt;3921, Theft by Unlawful Taking or Disposition.&lt;br/&gt;"/><marker lat="40.439353754070297" lng="-79.95623505278725" zone="Zone 4" incidentdate="2016-07-13" incidenttime="16:00:00" incidentnumber="16130131" address="300 block York Way" type="OFFENSE" age="" gender="" description="*********************************************** &lt;br/&gt;3304, Criminal Mischief.&lt;br/&gt;"/><marker lat="40.456899829514427" lng="-79.894145048070996" zone="Zone 5" incidentdate="2016-07-13" incidenttime="20:59:00" incidentnumber="16130353" address="Frankstown Ave &amp; Sterrett St" type="OFFENSE" age="" gender="" description="*********************************************** &lt;br/&gt;13(a)(16), Possession of Controlled Substance&lt;br/&gt;9501, Bench Warrant&lt;br/&gt;601.08(a), Alcohol or Liquor Consumption on Streets or Sidewalks&lt;br/&gt;"/><marker lat="40.462740043669676" lng="-79.905733593421971" zone="Zone 2" incidentdate="2016-07-13" incidenttime="17:10:00" incidentnumber="16130211" address="100 block Washington Pl" type="OFFENSE" age="" gender="" description="*********************************************** &lt;br/&gt;3304, Criminal Mischief.&lt;br/&gt;3934, Theft from Vehicle&lt;br/&gt;"/><marker lat="40.454283820351108" lng="-79.961397914352418" zone="Zone 2" incidentdate="2016-07-13" incidenttime="20:55:00" incidentnumber="16130351" address="Milwaukee St &amp; Orion St" type="OFFENSE" age="" gender="" description="*********************************************** &lt;br/&gt;3743, Accidents Involving Damage to Attended Veh. or Property&lt;br/&gt;"/><marker lat="40.418113180355292" lng="-79.988290306359971" zone="Zone 3" incidentdate="2016-07-13" incidenttime="00:34:00" incidentnumber="16129725" address="Amanda Ave" type="OFFENSE" age="" gender="" description="*********************************************** &lt;br/&gt;9123, Miscellaneous Fire Other Investigation to Continue&lt;br/&gt;"/><marker lat="40.442888113190847" lng="-79.997936520552642" zone="Zone 2" incidentdate="2016-07-13" incidenttime="02:05:00" incidentnumber="16129770" address="900 block Liberty Ave" type="OFFENSE" age="" gender="" description="*********************************************** &lt;br/&gt;3926(a)(1), Theft of Services; Cable, Gas, Taxi, Bill, Tab, etc.&lt;br/&gt;"/><marker lat="40.450892721440539" lng="-80.000843891836467" zone="Zone 1" incidentdate="2016-07-13" incidenttime="07:31:00" incidentnumber="16129857" address="300 block Cedar Ave" type="OFFENSE" age="" gender="" description="*********************************************** &lt;br/&gt;3921(a), Theft by Unlawful Taking or Disposition - Movable item&lt;br/&gt;4106, Access Device Fraud&lt;br/&gt;"/><marker lat="40.4406248" lng="-79.9958864" zone="Zone 1" incidentdate="2016-07-13" incidenttime="18:00:00" incidentnumber="16130201" address="Sandusky St S &amp; JY0b0nI3aYk= St" type="OFFENSE" age="" gender="" description="*********************************************** &lt;br/&gt;13(a)(16), Possession of Controlled Substance&lt;br/&gt;13(a)(32), Paraphernalia - Use or Possession&lt;br/&gt;5505, Public Drunkenness&lt;br/&gt;"/><marker lat="40.436554160228923" lng="-79.981444568232604" zone="Zone 2" incidentdate="2016-07-13" incidenttime="23:45:00" incidentnumber="16130428" address="1800 block Locust St" type="ARREST" age="28" gender="F" description="*********************************************** &lt;br/&gt;2701, Simple Assault.&lt;br/&gt;"/><marker lat="40.423965276852989" lng="-80.011564541452756" zone="Zone 3" incidentdate="2016-07-13" incidenttime="00:50:00" incidentnumber="16115176" address="200 block Ottawa St" type="ARREST" age="21" gender="F" description="*********************************************** &lt;br/&gt;2705, Recklessly Endangering Another Person.&lt;br/&gt;2702, Aggravated Assault.&lt;br/&gt;903, Criminal Conspiracy.&lt;br/&gt;"/><marker lat="40.486868894969639" lng="-79.887147317282711" zone="Zone 5" incidentdate="2016-07-13" incidenttime="20:55:00" incidentnumber="16130337" address="1000 block Freeport Rd" type="ARREST" age="27" gender="M" description="*********************************************** &lt;br/&gt;3929, Retail Theft.&lt;br/&gt;3925, Receiving Stolen Property.&lt;br/&gt;"/><marker lat="40.456249975527761" lng="-80.00093692366552" zone="Zone 1" incidentdate="2016-07-13" incidenttime="01:29:00" incidentnumber="16129749" address="500 block Tripoli St" type="ARREST" age="52" gender="M" description="*********************************************** &lt;br/&gt;3502, Burglary.&lt;br/&gt;13(a)(31), Marijuana: Possession Small Amount&lt;br/&gt;13(a)(32), Paraphernalia - Use or Possession&lt;br/&gt;9501, Bench Warrant&lt;br/&gt;903, Criminal Conspiracy.&lt;br/&gt;907, Possessing Instruments of Crime.&lt;br/&gt;5506, Loitering and Prowling at Night&lt;br/&gt;5126, Flight to Avoid Apprehension, Trial or Punishment.&lt;br/&gt;627.02(b), Possession or Smoking of a Small Amount of Marijuana&lt;br/&gt;"/><marker lat="40.4785913" lng="-80.0008600" zone="Zone 1" incidentdate="2016-07-13" incidenttime="18:23:00" incidentnumber="16130214" address="500 block Mt Pleasant Rd" type="ARREST" age="29" gender="F" description="*********************************************** &lt;br/&gt;2701, Simple Assault.&lt;br/&gt;"/><marker lat="40.440841979883878" lng="-80.006751980364669" zone="Zone 2" incidentdate="2016-07-13" incidenttime="01:28:00" incidentnumber="16129741" address="Commonwealth Pl &amp; Liberty Ave" type="ARREST" age="42" gender="M" description="*********************************************** &lt;br/&gt;2701, Simple Assault.&lt;br/&gt;"/><marker lat="40.441406159731216" lng="-80.002873255548053" zone="Zone 2" incidentdate="2016-07-13" incidenttime="18:45:00" incidentnumber="16130258" address="100 block 5th Ave" type="ARREST" age="56" gender="M" description="*********************************************** &lt;br/&gt;5503, Disorderly Conduct.&lt;br/&gt;5505, Public Drunkenness&lt;br/&gt;5901, Open Lewdness.&lt;br/&gt;601.08(a), Alcohol or Liquor Consumption on Streets or Sidewalks&lt;br/&gt;"/><marker lat="40.428478873788158" lng="-79.980265799395895" zone="Zone 3" incidentdate="2016-07-13" incidenttime="16:47:00" incidentnumber="16130110" address="1800 block E Carson St" type="ARREST" age="18" gender="M" description="*********************************************** &lt;br/&gt;9501, Bench Warrant&lt;br/&gt;1543, Driving While Operating Privilege is Suspended or Revoked.&lt;br/&gt;3925, Receiving Stolen Property.&lt;br/&gt;6106, Firearms not to be Carried without a License.&lt;br/&gt;"/><marker lat="40.441406159731216" lng="-80.002873255548053" zone="Zone 2" incidentdate="2016-07-13" incidenttime="17:30:00" incidentnumber="16130186" address="100 block 5th Ave" type="ARREST" age="21" gender="M" description="*********************************************** &lt;br/&gt;3701, Robbery.&lt;br/&gt;2709(b), Stalking&lt;br/&gt;"/><marker lat="40.456633448414188" lng="-79.936435139782176" zone="Zone 4" incidentdate="2016-07-13" incidenttime="06:30:00" incidentnumber="16005175" address="5500 block Centre Ave" type="ARREST" age="28" gender="M" description="*********************************************** &lt;br/&gt;5104, Resisting Arrest or Other Law Enforcement.&lt;br/&gt;3929(a)(1), Retail Theft; takes possession of, carries away, or transfers displayed merchandise&lt;br/&gt;3929, Retail Theft.&lt;br/&gt;"/><marker lat="40.452551254016129" lng="-79.949277413781033" zone="Zone 5" incidentdate="2016-07-13" incidenttime="12:42:00" incidentnumber="16126364" address="4700 block Centre Ave" type="ARREST" age="45" gender="M" description="*********************************************** &lt;br/&gt;3929(a)(1), Retail Theft; takes possession of, carries away, or transfers displayed merchandise&lt;br/&gt;"/><marker lat="40.450892721440539" lng="-80.000843891836467" zone="Zone 1" incidentdate="2016-07-13" incidenttime="16:56:00" incidentnumber="16130414" address="300 block Cedar Ave" type="ARREST" age="18" gender="M" description="*********************************************** &lt;br/&gt;13(a)(16), Possession of Controlled Substance&lt;br/&gt;4910, Tampering with or Fabricating Physical Evidence.&lt;br/&gt;3304, Criminal Mischief.&lt;br/&gt;2701, Simple Assault.&lt;br/&gt;5123, Contraband.&lt;br/&gt;3926(a)(1), Theft of Services; Cable, Gas, Taxi, Bill, Tab, etc.&lt;br/&gt;"/><marker lat="40.452625408687659" lng="-79.951757128743239" zone="Zone 4" incidentdate="2016-07-13" incidenttime="12:03:00" incidentnumber="16129997" address="Truro Pl &amp; Gold Way" type="ARREST" age="56" gender="M" description="*********************************************** &lt;br/&gt;13(a)(32), Paraphernalia - Use or Possession&lt;br/&gt;"/><marker lat="40.428478873788158" lng="-79.980265799395895" zone="Zone 3" incidentdate="2016-07-13" incidenttime="16:47:00" incidentnumber="16130110" address="1800 block E Carson St" type="ARREST" age="20" gender="M" description="*********************************************** &lt;br/&gt;9501, Bench Warrant&lt;br/&gt;1543, Driving While Operating Privilege is Suspended or Revoked.&lt;br/&gt;3925, Receiving Stolen Property.&lt;br/&gt;6106, Firearms not to be Carried without a License.&lt;br/&gt;"/><marker lat="40.456327343696188" lng="-79.999783815433531" zone="Zone 1" incidentdate="2016-07-13" incidenttime="21:02:00" incidentnumber="16130342" address="1000 block Middle St" type="ARREST" age="62" gender="M" description="*********************************************** &lt;br/&gt;13(a)(16), Possession of Controlled Substance&lt;br/&gt;5505, Public Drunkenness&lt;br/&gt;"/><marker lat="40.456249975527761" lng="-80.00093692366552" zone="Zone 1" incidentdate="2016-07-13" incidenttime="01:29:00" incidentnumber="16129749" address="500 block Tripoli St" type="ARREST" age="45" gender="M" description="*********************************************** &lt;br/&gt;3502, Burglary.&lt;br/&gt;13(a)(31), Marijuana: Possession Small Amount&lt;br/&gt;13(a)(32), Paraphernalia - Use or Possession&lt;br/&gt;9501, Bench Warrant&lt;br/&gt;903, Criminal Conspiracy.&lt;br/&gt;907, Possessing Instruments of Crime.&lt;br/&gt;5506, Loitering and Prowling at Night&lt;br/&gt;5126, Flight to Avoid Apprehension, Trial or Punishment.&lt;br/&gt;627.02(b), Possession or Smoking of a Small Amount of Marijuana&lt;br/&gt;"/><marker lat="40.464774823811233" lng="-79.942733938845166" zone="Zone 5" incidentdate="2016-07-13" incidenttime="17:45:00" incidentnumber="16122125" address="5100 block Penn Ave" type="ARREST" age="28" gender="F" description="*********************************************** &lt;br/&gt;3929, Retail Theft.&lt;br/&gt;"/><marker lat="40.399985666969435" lng="-79.997996822999596" zone="Zone 3" incidentdate="2016-07-13" incidenttime="23:31:00" incidentnumber="16130416" address="1400 block Nobles Ln" type="ARREST" age="50" gender="M" description="*********************************************** &lt;br/&gt;2701, Simple Assault.&lt;br/&gt;2706, Terroristic Threats.&lt;br/&gt;"/><marker lat="40.451365022842182" lng="-80.009452129877758" zone="Zone 1" incidentdate="2016-07-13" incidenttime="20:21:00" incidentnumber="16130313" address="Merchant St &amp; Ridge Ave" type="ARREST" age="" gender="M" description="*********************************************** &lt;br/&gt;5104, Resisting Arrest or Other Law Enforcement.&lt;br/&gt;5507, Obstructing Highways and Passages.&lt;br/&gt;2706, Terroristic Threats.&lt;br/&gt;4914(A), False Identification to Law Enforcement&lt;br/&gt;"/><marker lat="40.456249975527761" lng="-80.00093692366552" zone="Zone 1" incidentdate="2016-07-13" incidenttime="01:29:00" incidentnumber="16129749" address="500 block Tripoli St" type="ARREST" age="40" gender="M" description="*********************************************** &lt;br/&gt;3502, Burglary.&lt;br/&gt;13(a)(31), Marijuana: Possession Small Amount&lt;br/&gt;13(a)(32), Paraphernalia - Use or Possession&lt;br/&gt;9501, Bench Warrant&lt;br/&gt;903, Criminal Conspiracy.&lt;br/&gt;907, Possessing Instruments of Crime.&lt;br/&gt;5506, Loitering and Prowling at Night&lt;br/&gt;5126, Flight to Avoid Apprehension, Trial or Punishment.&lt;br/&gt;627.02(b), Possession or Smoking of a Small Amount of Marijuana&lt;br/&gt;"/><marker lat="40.473349600095005" lng="-80.002822219962013" zone="Zone 1" incidentdate="2016-07-13" incidenttime="00:21:00" incidentnumber="16129714" address="100 block Penfort St" type="ARREST" age="43" gender="M" description="*********************************************** &lt;br/&gt;2701, Simple Assault.&lt;br/&gt;"/><marker lat="40.402792738850167" lng="-79.984018569835641" zone="Zone 3" incidentdate="2016-07-13" incidenttime="11:30:00" incidentnumber="16125748" address="300 block Birmingham Ave" type="ARREST" age="20" gender="M" description="*********************************************** &lt;br/&gt;3502, Burglary.&lt;br/&gt;2701, Simple Assault.&lt;br/&gt;2701(a)(1), Simple Assault - Intent., Know., Reckless.Cause Bod. Injury&lt;br/&gt;"/><marker lat="40.4406248" lng="-79.9958864" zone="Zone 1" incidentdate="2016-07-13" incidenttime="17:50:00" incidentnumber="16130201" address="Sandusky St S &amp; JY0b0nI3aYk= St" type="ARREST" age="30" gender="M" description="*********************************************** &lt;br/&gt;13(a)(16), Possession of Controlled Substance&lt;br/&gt;13(a)(32), Paraphernalia - Use or Possession&lt;br/&gt;5505, Public Drunkenness&lt;br/&gt;"/><marker lat="40.456899829514427" lng="-79.894145048070996" zone="Zone 5" incidentdate="2016-07-13" incidenttime="20:59:00" incidentnumber="16130353" address="Frankstown Ave &amp; Sterrett St" type="ARREST" age="49" gender="M" description="*********************************************** &lt;br/&gt;13(a)(16), Possession of Controlled Substance&lt;br/&gt;9501, Bench Warrant&lt;br/&gt;601.08(a), Alcohol or Liquor Consumption on Streets or Sidewalks&lt;br/&gt;"/><marker lat="40.456731447697983" lng="-80.006873141930313" zone="Zone 1" incidentdate="2016-07-13" incidenttime="17:02:00" incidentnumber="16130154" address="1300 block Federal St N" type="ARREST" age="53" gender="M" description="*********************************************** &lt;br/&gt;9497, Aided Case&lt;br/&gt;13(a)(31), Marijuana: Possession Small Amount&lt;br/&gt;"/><marker lat="40.442888113190847" lng="-79.997936520552642" zone="Zone 2" incidentdate="2016-07-13" incidenttime="02:05:00" incidentnumber="16129770" address="900 block Liberty Ave" type="ARREST" age="19" gender="M" description="*********************************************** &lt;br/&gt;3926(a)(1), Theft of Services; Cable, Gas, Taxi, Bill, Tab, etc.&lt;br/&gt;"/></markers>
