<?xml version="1.0"?>
<markers><marker lat="40.421821897112089" lng="-80.010299848912638" zone="Zone 3" incidentdate="2016-04-20" incidenttime="04:00:00" incidentnumber="16071550" address="200 block Lelia St" type="OFFENSE" age="" gender="" description="*********************************************** &lt;br/&gt;3745, Accidents Involving Damage to Unattended Veh.or Prop.&lt;br/&gt;"/><marker lat="40.472607820161087" lng="-79.935817480313915" zone="Zone 5" incidentdate="2016-04-20" incidenttime="12:26:00" incidentnumber="16071674" address="5300 block Mossfield St" type="OFFENSE" age="" gender="" description="*********************************************** &lt;br/&gt;9018, Accidental Fire&lt;br/&gt;"/><marker lat="40.453285126966584" lng="-80.054579750288909" zone="Zone 6" incidentdate="2016-04-20" incidenttime="00:54:00" incidentnumber="16071375" address="Chartiers Ave &amp; Hillsboro St" type="OFFENSE" age="" gender="" description="*********************************************** &lt;br/&gt;4581, Restraint Systems.&lt;br/&gt;1543, Driving While Operating Privilege is Suspended or Revoked.&lt;br/&gt;3802(a)(1), DUI - General Impairment&lt;br/&gt;3323, Stop Signs and Yield Signs.&lt;br/&gt;3802(b), DUI - High Rate of Alchol - BAC &gt;=.10% &lt;.16%&lt;br/&gt;1784, Proof of Financial Responsibility Following Violation.&lt;br/&gt;"/><marker lat="40.488081814906529" lng="-79.894317224387123" zone="Zone 5" incidentdate="2016-04-20" incidenttime="17:00:00" incidentnumber="16071866" address="900 block Freeport Rd" type="OFFENSE" age="" gender="" description="*********************************************** &lt;br/&gt;3929, Retail Theft.&lt;br/&gt;"/><marker lat="40.450643107602708" lng="-80.013459947155624" zone="Zone 1" incidentdate="2016-04-20" incidenttime="16:30:00" incidentnumber="16071882" address="800 block RIDGE Ave" type="OFFENSE" age="" gender="" description="*********************************************** &lt;br/&gt;9999, 9999 - (Misc. Incident):&lt;br/&gt;"/><marker lat="40.4766310" lng="-79.9588286" zone="Zone 2" incidentdate="2016-04-20" incidenttime="22:15:00" incidentnumber="16072106" address="100 block 48th St" type="OFFENSE" age="" gender="" description="*********************************************** &lt;br/&gt;9123, Miscellaneous Fire Other Investigation to Continue&lt;br/&gt;"/><marker lat="40.419745084735858" lng="-79.933047930760196" zone="Zone 4" incidentdate="2016-04-20" incidenttime="18:30:00" incidentnumber="16072031" address="700 block Hazelwood Ave" type="OFFENSE" age="" gender="" description="*********************************************** &lt;br/&gt;3934, Theft from Vehicle&lt;br/&gt;"/><marker lat="40.442350196273111" lng="-79.980479481443609" zone="Zone 2" incidentdate="2016-04-20" incidenttime="12:50:00" incidentnumber="16071692" address="Rose St &amp; Dinwiddie St" type="OFFENSE" age="" gender="" description="*********************************************** &lt;br/&gt;2702, Aggravated Assault.&lt;br/&gt;2706, Terroristic Threats.&lt;br/&gt;2701(a)(3), Simple Assault - Attempts by Physical Menace&lt;br/&gt;4304(a)(2), Endangering Welfare of Children - Child Protective Services (Course of Conduct)&lt;br/&gt;"/><marker lat="40.462259475847965" lng="-79.905595377554704" zone="Zone 5" incidentdate="2016-04-20" incidenttime="08:30:00" incidentnumber="16071549" address="Washington Blvd &amp; Silver Lake Dr" type="OFFENSE" age="" gender="" description="*********************************************** &lt;br/&gt;3743, Accidents Involving Damage to Attended Veh. or Property&lt;br/&gt;"/><marker lat="40.486725826505598" lng="-79.924296135388687" zone="Zone 5" incidentdate="2016-04-20" incidenttime="08:57:00" incidentnumber="16071557" address="1900 block Chislett St" type="OFFENSE" age="" gender="" description="*********************************************** &lt;br/&gt;8104, CLASS 1 - Suspicious Package or Device&lt;br/&gt;"/><marker lat="40.398915184429292" lng="-79.986129239166701" zone="Zone 3" incidentdate="2016-04-20" incidenttime="19:48:00" incidentnumber="16072009" address="200 block E Cherryhill St" type="OFFENSE" age="" gender="" description="*********************************************** &lt;br/&gt;2701, Simple Assault.&lt;br/&gt;"/><marker lat="40.41341125564756" lng="-79.98172189768573" zone="Zone 3" incidentdate="2016-04-20" incidenttime="16:08:00" incidentnumber="16071829" address="400 block St Joseph St" type="OFFENSE" age="" gender="" description="*********************************************** &lt;br/&gt;3502, Burglary.&lt;br/&gt;"/><marker lat="40.478178829811441" lng="-79.941228725356893" zone="Zone 5" incidentdate="2016-04-20" incidenttime="20:27:00" incidentnumber="16054100" address="1100 block Woodbine St" type="OFFENSE" age="" gender="" description="*********************************************** &lt;br/&gt;9501, Bench Warrant&lt;br/&gt;3304, Criminal Mischief.&lt;br/&gt;"/><marker lat="40.426655631127865" lng="-80.02301213458307" zone="Zone 3" incidentdate="2016-04-20" incidenttime="18:15:00" incidentnumber="16071933" address="900 block Saw Mill Run Blvd" type="OFFENSE" age="" gender="" description="*********************************************** &lt;br/&gt;9999, 9999 - (Misc. Incident):&lt;br/&gt;"/><marker lat="40.425371808712953" lng="-79.94216631853314" zone="Zone 4" incidentdate="2016-04-20" incidenttime="17:10:00" incidentnumber="16071915" address="500 block Greenfield Ave" type="OFFENSE" age="" gender="" description="*********************************************** &lt;br/&gt;3745, Accidents Involving Damage to Unattended Veh.or Prop.&lt;br/&gt;"/><marker lat="40.452034108420726" lng="-79.938796144585069" zone="Zone 4" incidentdate="2016-04-20" incidenttime="20:27:00" incidentnumber="16054134" address="Ellsworth Ave &amp; Ellsworth Pl" type="OFFENSE" age="" gender="" description="*********************************************** &lt;br/&gt;3304, Criminal Mischief.&lt;br/&gt;1501, Drivers Required to be Licensed.&lt;br/&gt;907, Possessing Instruments of Crime.&lt;br/&gt;"/><marker lat="40.411181540883454" lng="-79.994989033332303" zone="Zone 3" incidentdate="2016-04-20" incidenttime="10:00:00" incidentnumber="16071568" address="400 block Suncrest St" type="OFFENSE" age="" gender="" description="*********************************************** &lt;br/&gt;029, Missing Juvenile&lt;br/&gt;"/><marker lat="40.4020803" lng="-80.0007366" zone="Zone 3" incidentdate="2016-04-20" incidenttime="00:22:00" incidentnumber="16071334" address="1300 block Saw Mill Run Blvd &amp; Edgebrook Ave" type="OFFENSE" age="" gender="" description="*********************************************** &lt;br/&gt;3743, Accidents Involving Damage to Attended Veh. or Property&lt;br/&gt;3714, Careless Driving&lt;br/&gt;"/><marker lat="40.441061138073565" lng="-79.970620771692978" zone="Zone 2" incidentdate="2016-04-20" incidenttime="20:10:00" incidentnumber="16072129" address="100 block Hyman Pl" type="OFFENSE" age="" gender="" description="*********************************************** &lt;br/&gt;4106, Access Device Fraud&lt;br/&gt;"/><marker lat="40.439887463158236" lng="-79.954990452332254" zone="Zone 4" incidentdate="2016-04-20" incidenttime="21:30:00" incidentnumber="16072111" address="300 block Oakland Ave" type="OFFENSE" age="" gender="" description="*********************************************** &lt;br/&gt;3921(a), Theft by Unlawful Taking or Disposition - Movable item&lt;br/&gt;"/><marker lat="40.471592016718667" lng="-79.963383965479906" zone="Zone 2" incidentdate="2016-04-20" incidenttime="14:00:00" incidentnumber="16071762" address="Smith Way &amp; Banner Way" type="OFFENSE" age="" gender="" description="*********************************************** &lt;br/&gt;13(a)(16), Possession of Controlled Substance&lt;br/&gt;13(a)(30), Possession w/ Intent to Del. Controlled Substance&lt;br/&gt;13(a)(31), Marijuana: Possession Small Amount&lt;br/&gt;7512, Criminal Use of Communication&lt;br/&gt;"/><marker lat="40.4397976" lng="-79.9666413" zone="Zone 2" incidentdate="2016-04-20" incidenttime="18:40:00" incidentnumber="16071942" address="100 block Burrows St" type="OFFENSE" age="" gender="" description="*********************************************** &lt;br/&gt;9501, Bench Warrant&lt;br/&gt;"/><marker lat="40.457329336513929" lng="-79.896253743327946" zone="Zone 5" incidentdate="2016-04-20" incidenttime="21:43:00" incidentnumber="16072083" address="7200 block Frankstown Ave" type="OFFENSE" age="" gender="" description="*********************************************** &lt;br/&gt;9501, Bench Warrant&lt;br/&gt;"/><marker lat="40.453891652031231" lng="-80.022791974980734" zone="Zone 1" incidentdate="2016-04-20" incidenttime="11:38:00" incidentnumber="16071647" address="1200 block Sheffield St" type="OFFENSE" age="" gender="" description="*********************************************** &lt;br/&gt;9496, Dead on Arrival (DOA)&lt;br/&gt;"/><marker lat="40.449709503118903" lng="-79.986072992839951" zone="Zone 2" incidentdate="2016-04-20" incidenttime="19:56:00" incidentnumber="16072011" address="17th St &amp; penn Ave" type="OFFENSE" age="" gender="" description="*********************************************** &lt;br/&gt;3743, Accidents Involving Damage to Attended Veh. or Property&lt;br/&gt;"/><marker lat="40.452079448980783" lng="-80.016803241975907" zone="Zone 1" incidentdate="2016-04-20" incidenttime="16:12:00" incidentnumber="16071825" address="900 block Western Ave" type="OFFENSE" age="" gender="" description="*********************************************** &lt;br/&gt;3745, Accidents Involving Damage to Unattended Veh.or Prop.&lt;br/&gt;1501, Drivers Required to be Licensed.&lt;br/&gt;1785, Proof of Financial Responsibility Following Accident.&lt;br/&gt;1515, Notice of Change of Name or Address.&lt;br/&gt;"/><marker lat="40.4550929957161" lng="-80.058105006106942" zone="Zone 6" incidentdate="2016-04-20" incidenttime="16:59:00" incidentnumber="16071862" address="Citadel St &amp; Sherwood Ave" type="OFFENSE" age="" gender="" description="*********************************************** &lt;br/&gt;13(a)(16), Possession of Controlled Substance&lt;br/&gt;9501, Bench Warrant&lt;br/&gt;3334, Turning Movements and Required Signals.&lt;br/&gt;"/><marker lat="40.471012276973703" lng="-80.016772844247583" zone="Zone 1" incidentdate="2016-04-20" incidenttime="11:00:00" incidentnumber="16071715" address="500 block Marshall Ave" type="OFFENSE" age="" gender="" description="*********************************************** &lt;br/&gt;2702, Aggravated Assault.&lt;br/&gt;"/><marker lat="40.457408754122774" lng="-79.965834527976199" zone="Zone 2" incidentdate="2016-04-20" incidenttime="00:14:00" incidentnumber="16071357" address="400 block Hancock St" type="OFFENSE" age="" gender="" description="*********************************************** &lt;br/&gt;3502, Burglary.&lt;br/&gt;"/><marker lat="40.403994514238505" lng="-79.990898214962598" zone="Zone 3" incidentdate="2016-04-20" incidenttime="16:25:00" incidentnumber="16071838" address="Nome Way &amp; Bertram Way" type="OFFENSE" age="" gender="" description="*********************************************** &lt;br/&gt;9501, Bench Warrant&lt;br/&gt;"/><marker lat="40.42155201085292" lng="-79.99720376810096" zone="Zone 3" incidentdate="2016-04-20" incidenttime="13:35:00" incidentnumber="16071728" address="600 block E Warrington Ave" type="OFFENSE" age="" gender="" description="*********************************************** &lt;br/&gt;3701, Robbery.&lt;br/&gt;"/><marker lat="40.451883876583189" lng="-79.952017784483445" zone="Zone 4" incidentdate="2016-04-20" incidenttime="15:15:00" incidentnumber="16071845" address="Centre Ave &amp; N Craig St" type="OFFENSE" age="" gender="" description="*********************************************** &lt;br/&gt;3743, Accidents Involving Damage to Attended Veh. or Property&lt;br/&gt;"/><marker lat="40.398915184429292" lng="-79.986129239166701" zone="Zone 3" incidentdate="2016-04-20" incidenttime="16:40:00" incidentnumber="16071842" address="200 block E Cherryhill St" type="OFFENSE" age="" gender="" description="*********************************************** &lt;br/&gt;3304, Criminal Mischief.&lt;br/&gt;"/><marker lat="40.423858090267018" lng="-79.924020317602967" zone="Zone 4" incidentdate="2016-04-20" incidenttime="20:27:00" incidentnumber="16054149" address="1000 block Shady Ave" type="OFFENSE" age="" gender="" description="*********************************************** &lt;br/&gt;3304, Criminal Mischief.&lt;br/&gt;"/><marker lat="40.469684316080389" lng="-79.911842544105951" zone="Zone 5" incidentdate="2016-04-20" incidenttime="07:20:00" incidentnumber="16071523" address="6500 block Stanton Ave" type="OFFENSE" age="" gender="" description="*********************************************** &lt;br/&gt;9999, 9999 - (Misc. Incident):&lt;br/&gt;"/><marker lat="40.456953704833772" lng="-79.970588127590759" zone="Zone 2" incidentdate="2016-04-20" incidenttime="08:00:00" incidentnumber="16071564" address="30th St &amp; Pulawski Way" type="OFFENSE" age="" gender="" description="*********************************************** &lt;br/&gt;9999, 9999 - (Misc. Incident):&lt;br/&gt;"/><marker lat="40.443989101514937" lng="-79.894787339959365" zone="Zone 4" incidentdate="2016-04-20" incidenttime="08:00:00" incidentnumber="16071545" address="7700 block Waverly St" type="OFFENSE" age="" gender="" description="*********************************************** &lt;br/&gt;3934, Theft from Vehicle&lt;br/&gt;"/><marker lat="40.453087824966865" lng="-80.000287901381768" zone="Zone 1" incidentdate="2016-04-20" incidenttime="23:02:00" incidentnumber="16048797" address="500 block Avery St" type="OFFENSE" age="" gender="" description="*********************************************** &lt;br/&gt;9015, Failure To Appear/Arrest on Attachment Order&lt;br/&gt;3925, Receiving Stolen Property.&lt;br/&gt;"/><marker lat="40.454236560435" lng="-79.921910142784014" zone="Zone 4" incidentdate="2016-04-20" incidenttime="14:15:00" incidentnumber="16071783" address="500 block Shady Ave" type="OFFENSE" age="" gender="" description="*********************************************** &lt;br/&gt;3745, Accidents Involving Damage to Unattended Veh.or Prop.&lt;br/&gt;"/><marker lat="40.4716083" lng="-79.8992918" zone="Zone 5" incidentdate="2016-04-20" incidenttime="16:03:00" incidentnumber="16071958" address="1300 block Evers Dr" type="OFFENSE" age="" gender="" description="*********************************************** &lt;br/&gt;4106, Access Device Fraud&lt;br/&gt;"/><marker lat="40.453710626162618" lng="-80.058610373179008" zone="Zone 6" incidentdate="2016-04-20" incidenttime="16:59:00" incidentnumber="16071993" address="Citadel St" type="OFFENSE" age="" gender="" description="*********************************************** &lt;br/&gt;9501, Bench Warrant&lt;br/&gt;"/><marker lat="40.424443469742371" lng="-80.010130215166072" zone="Zone 3" incidentdate="2016-04-20" incidenttime="18:11:00" incidentnumber="16071926" address="400 block Griffin St" type="OFFENSE" age="" gender="" description="*********************************************** &lt;br/&gt;2701, Simple Assault.&lt;br/&gt;"/><marker lat="40.41341125564756" lng="-79.98172189768573" zone="Zone 3" incidentdate="2016-04-20" incidenttime="17:30:00" incidentnumber="16071888" address="400 block St Joseph St" type="OFFENSE" age="" gender="" description="*********************************************** &lt;br/&gt;2709(a)(1), Harassment by Physical Contact, or Attempts or Threats&lt;br/&gt;"/><marker lat="40.411393377111729" lng="-79.996797259901697" zone="Zone 3" incidentdate="2016-04-20" incidenttime="19:15:00" incidentnumber="16071976" address="Suncrest St &amp; Arabella St" type="OFFENSE" age="" gender="" description="*********************************************** &lt;br/&gt;13(a)(16), Possession of Controlled Substance&lt;br/&gt;"/><marker lat="40.449161369517299" lng="-79.930431126701848" zone="Zone 4" incidentdate="2016-04-20" incidenttime="04:15:00" incidentnumber="16071775" address="5600 block 5th Ave" type="OFFENSE" age="" gender="" description="*********************************************** &lt;br/&gt;3921, Theft by Unlawful Taking or Disposition.&lt;br/&gt;"/><marker lat="40.43705206633399" lng="-79.998289773630901" zone="Zone 4" incidentdate="2016-04-20" incidenttime="15:40:00" incidentnumber="16071766" address="200 block Grand Blvd" type="OFFENSE" age="" gender="" description="*********************************************** &lt;br/&gt;9094, Recovered Stolen Vehicle (OUTSIDE CITY)&lt;br/&gt;"/><marker lat="40.470459852290823" lng="-80.0111378348073" zone="Zone 1" incidentdate="2016-04-20" incidenttime="04:00:00" incidentnumber="16071468" address="2900 block N Charles St" type="OFFENSE" age="" gender="" description="*********************************************** &lt;br/&gt;13(a)(32), Paraphernalia - Use or Possession&lt;br/&gt;4303, General Lighting Requirements.&lt;br/&gt;"/><marker lat="40.460706790003542" lng="-79.923780776230444" zone="Zone 5" incidentdate="2016-04-20" incidenttime="18:58:00" incidentnumber="16071967" address="6100 block Penn Ave" type="OFFENSE" age="" gender="" description="*********************************************** &lt;br/&gt;3701, Robbery.&lt;br/&gt;"/><marker lat="40.447955660226434" lng="-80.041147135719797" zone="Zone 6" incidentdate="2016-04-20" incidenttime="16:00:00" incidentnumber="16071819" address="1200 block Lakewood St" type="OFFENSE" age="" gender="" description="*********************************************** &lt;br/&gt;3921, Theft by Unlawful Taking or Disposition.&lt;br/&gt;"/><marker lat="40.460302578526942" lng="-80.006980071080037" zone="Zone 1" incidentdate="2016-04-20" incidenttime="21:49:00" incidentnumber="16072084" address="1700 block Belleau Dr" type="OFFENSE" age="" gender="" description="*********************************************** &lt;br/&gt;029, Missing Juvenile&lt;br/&gt;"/><marker lat="40.486287995610212" lng="-79.924548459369518" zone="Zone 5" incidentdate="2016-04-20" incidenttime="12:45:00" incidentnumber="16071700" address="6900 block Standish St" type="OFFENSE" age="" gender="" description="*********************************************** &lt;br/&gt;3934, Theft from Vehicle&lt;br/&gt;"/><marker lat="40.428258680734707" lng="-79.967942421604249" zone="Zone 3" incidentdate="2016-04-20" incidenttime="16:40:00" incidentnumber="16071920" address="2600 block Sidney St" type="OFFENSE" age="" gender="" description="*********************************************** &lt;br/&gt;3745, Accidents Involving Damage to Unattended Veh.or Prop.&lt;br/&gt;"/><marker lat="40.461938390813231" lng="-79.931713532761137" zone="Zone 5" incidentdate="2016-04-20" incidenttime="15:15:00" incidentnumber="16071769" address="200 block S Negley Ave" type="OFFENSE" age="" gender="" description="*********************************************** &lt;br/&gt;9497, Aided Case&lt;br/&gt;"/><marker lat="40.4530676" lng="-80.0030662" zone="Zone 1" incidentdate="2016-04-20" incidenttime="20:14:00" incidentnumber="16072024" address="200 block East Ohio St" type="OFFENSE" age="" gender="" description="*********************************************** &lt;br/&gt;13(a)(31), Marijuana: Possession Small Amount&lt;br/&gt;"/><marker lat="40.459241184494772" lng="-80.005548013998464" zone="Zone 1" incidentdate="2016-04-20" incidenttime="00:56:00" incidentnumber="16071377" address="1600 block Sandusky Ct" type="OFFENSE" age="" gender="" description="*********************************************** &lt;br/&gt;5505, Public Drunkenness&lt;br/&gt;2706, Terroristic Threats.&lt;br/&gt;2701(a)(3), Simple Assault - Attempts by Physical Menace&lt;br/&gt;"/><marker lat="40.445763505982463" lng="-79.992388243282392" zone="Zone 2" incidentdate="2016-04-20" incidenttime="15:26:00" incidentnumber="16071833" address="12th St &amp; Penn Ave" type="OFFENSE" age="" gender="" description="*********************************************** &lt;br/&gt;3921, Theft by Unlawful Taking or Disposition.&lt;br/&gt;"/><marker lat="40.47827547887173" lng="-79.951189516063963" zone="Zone 2" incidentdate="2016-04-20" incidenttime="23:10:00" incidentnumber="16072119" address="5200 block Duncan St" type="OFFENSE" age="" gender="" description="*********************************************** &lt;br/&gt;3802(a)(1), DUI - General Impairment&lt;br/&gt;"/><marker lat="40.42155201085292" lng="-79.99720376810096" zone="Zone 3" incidentdate="2016-04-20" incidenttime="02:15:00" incidentnumber="16071430" address="600 block E Warrington Ave" type="OFFENSE" age="" gender="" description="*********************************************** &lt;br/&gt;13(a)(16), Possession of Controlled Substance&lt;br/&gt;13(a)(32), Paraphernalia - Use or Possession&lt;br/&gt;1543, Driving While Operating Privilege is Suspended or Revoked.&lt;br/&gt;4302, Periods for Requiring Lighted Lamps.&lt;br/&gt;"/><marker lat="40.392348474984324" lng="-80.02458726687459" zone="Zone 6" incidentdate="2016-04-20" incidenttime="18:30:00" incidentnumber="16072013" address="700 block Fordham St" type="OFFENSE" age="" gender="" description="*********************************************** &lt;br/&gt;3921, Theft by Unlawful Taking or Disposition.&lt;br/&gt;"/><marker lat="40.448121549996621" lng="-79.978097750741512" zone="Zone 2" incidentdate="2016-04-20" incidenttime="18:55:00" incidentnumber="16071963" address="2200 block Bedford Ave" type="OFFENSE" age="" gender="" description="*********************************************** &lt;br/&gt;2709(a), Harassment.&lt;br/&gt;2706, Terroristic Threats.&lt;br/&gt;"/><marker lat="40.432853964225458" lng="-80.028345614182243" zone="Zone 6" incidentdate="2016-04-20" incidenttime="22:07:00" incidentnumber="16072103" address="Minnotte Sq &amp; Saw Mill Run Blvd" type="OFFENSE" age="" gender="" description="*********************************************** &lt;br/&gt;3736, Reckless Driving&lt;br/&gt;3802(a)(1), DUI - General Impairment&lt;br/&gt;3802(c), DUI - Highest Rate of Alcohol - BAC &gt;= .16%&lt;br/&gt;"/><marker lat="40.450901096519573" lng="-79.930622154707279" zone="Zone 5" incidentdate="2016-04-20" incidenttime="03:37:00" incidentnumber="16071460" address="900 block N Negley (Three Rivers Youth) Ave" type="OFFENSE" age="" gender="" description="*********************************************** &lt;br/&gt;029, Missing Juvenile&lt;br/&gt;"/><marker lat="40.475521854795446" lng="-80.025544019616277" zone="Zone 1" incidentdate="2016-04-20" incidenttime="17:00:00" incidentnumber="16071939" address="2000 block Rothpletz St" type="OFFENSE" age="" gender="" description="*********************************************** &lt;br/&gt;3934, Theft from Vehicle&lt;br/&gt;"/><marker lat="40.490597677167848" lng="-80.032742919048374" zone="Zone 1" incidentdate="2016-04-20" incidenttime="09:30:00" incidentnumber="16071585" address="100 block flora St" type="OFFENSE" age="" gender="" description="*********************************************** &lt;br/&gt;3304, Criminal Mischief.&lt;br/&gt;"/><marker lat="40.407726967796556" lng="-79.998315110016634" zone="Zone 3" incidentdate="2016-04-20" incidenttime="06:09:00" incidentnumber="16071502" address="300 block Camfield St" type="OFFENSE" age="" gender="" description="*********************************************** &lt;br/&gt;13(a)(16), Possession of Controlled Substance&lt;br/&gt;13(a)(30), Possession w/ Intent to Del. Controlled Substance&lt;br/&gt;13(a)(31), Marijuana: Possession Small Amount&lt;br/&gt;13(a)(32), Paraphernalia - Use or Possession&lt;br/&gt;"/><marker lat="40.442654991426622" lng="-79.979624658717782" zone="Zone 2" incidentdate="2016-04-20" incidenttime="17:05:00" incidentnumber="16071896" address="2000 block Rose St" type="OFFENSE" age="" gender="" description="*********************************************** &lt;br/&gt;2701, Simple Assault.&lt;br/&gt;"/><marker lat="40.447504904987383" lng="-80.08128003869588" zone="Zone 6" incidentdate="2016-04-20" incidenttime="07:22:00" incidentnumber="16071659" address="W Prospect Ave" type="OFFENSE" age="" gender="" description="*********************************************** &lt;br/&gt;2701(a)(1), Simple Assault - Intent., Know., Reckless.Cause Bod. Injury&lt;br/&gt;"/><marker lat="40.423701811107328" lng="-79.997552630724996" zone="Zone 3" incidentdate="2016-04-20" incidenttime="10:38:00" incidentnumber="16071618" address="Beltzhoover Ave" type="OFFENSE" age="" gender="" description="*********************************************** &lt;br/&gt;2701(a)(1), Simple Assault - Intent., Know., Reckless.Cause Bod. Injury&lt;br/&gt;"/><marker lat="40.4800074" lng="-79.7195627" zone="Zone 4" incidentdate="2016-04-20" incidenttime="22:55:00" incidentnumber="16072116" address="2000 block De Ruad St" type="OFFENSE" age="" gender="" description="*********************************************** &lt;br/&gt;13(a)(16), Possession of Controlled Substance&lt;br/&gt;13(a)(30), Possession w/ Intent to Del. Controlled Substance&lt;br/&gt;13(a)(31), Marijuana: Possession Small Amount&lt;br/&gt;"/><marker lat="40.465208117064684" lng="-79.94754987305511" zone="Zone 5" incidentdate="2016-04-20" incidenttime="13:34:00" incidentnumber="16071721" address="200 block Edmond St" type="OFFENSE" age="" gender="" description="*********************************************** &lt;br/&gt;3934, Theft from Vehicle&lt;br/&gt;"/><marker lat="40.392232155746562" lng="-80.019916657356717" zone="Zone 6" incidentdate="2016-04-20" incidenttime="01:09:00" incidentnumber="16071366" address="900 block Berkshire Ave" type="OFFENSE" age="" gender="" description="*********************************************** &lt;br/&gt;9999, 9999 - (Misc. Incident):&lt;br/&gt;"/><marker lat="40.455394857087178" lng="-80.053727584524282" zone="Zone 6" incidentdate="2016-04-20" incidenttime="20:21:00" incidentnumber="16072029" address="600 block Sherwood Ave" type="OFFENSE" age="" gender="" description="*********************************************** &lt;br/&gt;3304(a)(5), CRIMINAL MISCHIEF - Intentionally Damages Real Or Personal Property Of Another&lt;br/&gt;"/><marker lat="40.461767093483665" lng="-80.010412720044926" zone="Zone 1" incidentdate="2016-04-20" incidenttime="06:06:00" incidentnumber="16071496" address="1900 block Clayton Ave" type="OFFENSE" age="" gender="" description="*********************************************** &lt;br/&gt;9488, False  Burglar Alarm&lt;br/&gt;"/><marker lat="40.443134337433094" lng="-79.980896891654254" zone="Zone 2" incidentdate="2016-04-20" incidenttime="17:52:00" incidentnumber="16071914" address="1900 block Centre Ave" type="OFFENSE" age="" gender="" description="*********************************************** &lt;br/&gt;3929, Retail Theft.&lt;br/&gt;"/><marker lat="40.421821897112089" lng="-80.010299848912638" zone="Zone 3" incidentdate="2016-04-20" incidenttime="04:00:00" incidentnumber="16071542" address="200 block Lelia St" type="OFFENSE" age="" gender="" description="*********************************************** &lt;br/&gt;3745, Accidents Involving Damage to Unattended Veh.or Prop.&lt;br/&gt;"/><marker lat="40.453933093422279" lng="-79.925461076422579" zone="Zone 4" incidentdate="2016-04-20" incidenttime="19:35:00" incidentnumber="16071955" address="400 block S Highland Ave" type="OFFENSE" age="" gender="" description="*********************************************** &lt;br/&gt;4120, Identity Theft&lt;br/&gt;"/><marker lat="40.4393734" lng="-79.9684101" zone="Zone 2" incidentdate="2016-04-20" incidenttime="18:40:00" incidentnumber="16071952" address="200 block Oak Hill Dr" type="OFFENSE" age="" gender="" description="*********************************************** &lt;br/&gt;5104, Resisting Arrest or Other Law Enforcement.&lt;br/&gt;6110.1, Possesion of Firearm by Minor&lt;br/&gt;6106, Firearms not to be Carried without a License.&lt;br/&gt;"/><marker lat="40.455163784473093" lng="-80.054550909657195" zone="Zone 6" incidentdate="2016-04-20" incidenttime="21:50:00" incidentnumber="16072090" address="3000 block Landis St" type="OFFENSE" age="" gender="" description="*********************************************** &lt;br/&gt;029, Missing Juvenile&lt;br/&gt;"/><marker lat="40.480061447617878" lng="-80.027129768412976" zone="Zone 1" incidentdate="2016-04-20" incidenttime="11:00:00" incidentnumber="16071639" address="900 block Woods Run Ave" type="OFFENSE" age="" gender="" description="*********************************************** &lt;br/&gt;3921(a), Theft by Unlawful Taking or Disposition - Movable item&lt;br/&gt;"/><marker lat="40.441137684867279" lng="-79.957585934716349" zone="Zone 4" incidentdate="2016-04-20" incidenttime="01:45:00" incidentnumber="16071411" address="200 block Atwood St" type="OFFENSE" age="" gender="" description="*********************************************** &lt;br/&gt;3929, Retail Theft.&lt;br/&gt;"/><marker lat="40.405116256168142" lng="-80.019220284458086" zone="Zone 6" incidentdate="2016-04-20" incidenttime="11:00:00" incidentnumber="16071617" address="1900 block West Liberty Ave" type="OFFENSE" age="" gender="" description="*********************************************** &lt;br/&gt;3921(a), Theft by Unlawful Taking or Disposition - Movable item&lt;br/&gt;3928, Unauthorized Use of Automobile and Other Vehicles.&lt;br/&gt;"/><marker lat="40.421511012664602" lng="-79.995485385467873" zone="Zone 3" incidentdate="2016-04-20" incidenttime="06:14:00" incidentnumber="16071490" address="700 block E Warrington Ave" type="OFFENSE" age="" gender="" description="*********************************************** &lt;br/&gt;2701, Simple Assault.&lt;br/&gt;"/><marker lat="40.452740784191398" lng="-79.931372303501718" zone="Zone 4" incidentdate="2016-04-20" incidenttime="20:27:00" incidentnumber="16013278" address="Elwood St &amp; S Negley Ave" type="OFFENSE" age="" gender="" description="*********************************************** &lt;br/&gt;3304, Criminal Mischief.&lt;br/&gt;3304(a)(5), CRIMINAL MISCHIEF - Intentionally Damages Real Or Personal Property Of Another&lt;br/&gt;907, Possessing Instruments of Crime.&lt;br/&gt;"/><marker lat="40.478655848187707" lng="-79.900606800476623" zone="Zone 5" incidentdate="2016-04-20" incidenttime="11:10:00" incidentnumber="16071619" address="7100 block Highland Dr" type="OFFENSE" age="" gender="" description="*********************************************** &lt;br/&gt;2709(a)(3), Harassment No Legitimate Purpose&lt;br/&gt;2709(b), Stalking&lt;br/&gt;"/><marker lat="40.459220430259037" lng="-79.910881573554278" zone="Zone 5" incidentdate="2016-04-20" incidenttime="13:57:00" incidentnumber="16071731" address="6600 block Frankstown Ave" type="OFFENSE" age="" gender="" description="*********************************************** &lt;br/&gt;3924, Theft of Property Lost, Mislaid or Delivered by Mistake.&lt;br/&gt;"/><marker lat="40.418274125899934" lng="-80.025446611837481" zone="Zone 6" incidentdate="2016-04-20" incidenttime="04:10:00" incidentnumber="16071649" address="1100 block Tropical Ave" type="OFFENSE" age="" gender="" description="*********************************************** &lt;br/&gt;901, Criminal Attempt&lt;br/&gt;"/><marker lat="40.460655838069158" lng="-79.922722965339091" zone="Zone 5" incidentdate="2016-04-20" incidenttime="16:50:00" incidentnumber="16071877" address="Penn Ave &amp; Centre Ave" type="OFFENSE" age="" gender="" description="*********************************************** &lt;br/&gt;3743, Accidents Involving Damage to Attended Veh. or Property&lt;br/&gt;"/><marker lat="40.491171083037642" lng="-80.019869774112294" zone="Zone 1" incidentdate="2016-04-20" incidenttime="19:44:00" incidentnumber="16071987" address="4000 block Perrysville Ave" type="OFFENSE" age="" gender="" description="*********************************************** &lt;br/&gt;13(a)(32), Paraphernalia - Use or Possession&lt;br/&gt;9501, Bench Warrant&lt;br/&gt;"/><marker lat="40.455624262373476" lng="-80.005708088927022" zone="Zone 1" incidentdate="2016-04-20" incidenttime="20:28:00" incidentnumber="16072035" address="E North Ave &amp; Boyle St" type="OFFENSE" age="" gender="" description="*********************************************** &lt;br/&gt;13(a)(31), Marijuana: Possession Small Amount&lt;br/&gt;13(a)(32), Paraphernalia - Use or Possession&lt;br/&gt;1543, Driving While Operating Privilege is Suspended or Revoked.&lt;br/&gt;3334, Turning Movements and Required Signals.&lt;br/&gt;"/><marker lat="40.423858090267018" lng="-79.924020317602967" zone="Zone 4" incidentdate="2016-04-20" incidenttime="21:00:00" incidentnumber="16054149" address="1000 block Shady Ave" type="ARREST" age="28" gender="M" description="*********************************************** &lt;br/&gt;3304, Criminal Mischief.&lt;br/&gt;"/><marker lat="40.488081814906529" lng="-79.894317224387123" zone="Zone 5" incidentdate="2016-04-20" incidenttime="17:20:00" incidentnumber="16071866" address="900 block Freeport Rd" type="ARREST" age="30" gender="F" description="*********************************************** &lt;br/&gt;3929, Retail Theft.&lt;br/&gt;"/><marker lat="40.4530676" lng="-80.0030662" zone="Zone 1" incidentdate="2016-04-20" incidenttime="20:14:00" incidentnumber="16072024" address="200 block East Ohio St" type="ARREST" age="22" gender="M" description="*********************************************** &lt;br/&gt;13(a)(31), Marijuana: Possession Small Amount&lt;br/&gt;"/><marker lat="40.452034108420726" lng="-79.938796144585069" zone="Zone 4" incidentdate="2016-04-20" incidenttime="21:00:00" incidentnumber="16054134" address="Ellsworth Ave &amp; Ellsworth Pl" type="ARREST" age="28" gender="M" description="*********************************************** &lt;br/&gt;3304, Criminal Mischief.&lt;br/&gt;1501, Drivers Required to be Licensed.&lt;br/&gt;907, Possessing Instruments of Crime.&lt;br/&gt;"/><marker lat="40.4550929957161" lng="-80.058105006106942" zone="Zone 6" incidentdate="2016-04-20" incidenttime="16:40:00" incidentnumber="16071862" address="Citadel St &amp; Sherwood Ave" type="ARREST" age="24" gender="F" description="*********************************************** &lt;br/&gt;13(a)(16), Possession of Controlled Substance&lt;br/&gt;9501, Bench Warrant&lt;br/&gt;3334, Turning Movements and Required Signals.&lt;br/&gt;"/><marker lat="40.394126558946894" lng="-79.985230393155035" zone="Zone 3" incidentdate="2016-04-20" incidenttime="12:02:00" incidentnumber="16021026" address="100 block Madeline St" type="ARREST" age="32" gender="F" description="*********************************************** &lt;br/&gt;13(a)(16), Possession of Controlled Substance&lt;br/&gt;13(a)(30), Possession w/ Intent to Del. Controlled Substance&lt;br/&gt;13(a)(32), Paraphernalia - Use or Possession&lt;br/&gt;"/><marker lat="40.471592016718667" lng="-79.963383965479906" zone="Zone 2" incidentdate="2016-04-20" incidenttime="14:00:00" incidentnumber="16071762" address="Smith Way &amp; Banner Way" type="ARREST" age="30" gender="M" description="*********************************************** &lt;br/&gt;13(a)(16), Possession of Controlled Substance&lt;br/&gt;13(a)(30), Possession w/ Intent to Del. Controlled Substance&lt;br/&gt;13(a)(31), Marijuana: Possession Small Amount&lt;br/&gt;7512, Criminal Use of Communication&lt;br/&gt;"/><marker lat="40.42695519606621" lng="-80.005599666575392" zone="Zone 3" incidentdate="2016-04-20" incidenttime="17:25:00" incidentnumber="16005459" address="Bailey Ave" type="ARREST" age="19" gender="M" description="*********************************************** &lt;br/&gt;3304(a)(5), CRIMINAL MISCHIEF - Intentionally Damages Real Or Personal Property Of Another&lt;br/&gt;2701(a)(1), Simple Assault - Intent., Know., Reckless.Cause Bod. Injury&lt;br/&gt;"/><marker lat="40.471012276973703" lng="-80.016772844247583" zone="Zone 1" incidentdate="2016-04-20" incidenttime="14:00:00" incidentnumber="16071715" address="500 block Marshall Ave" type="ARREST" age="12" gender="F" description="*********************************************** &lt;br/&gt;2702, Aggravated Assault.&lt;br/&gt;"/><marker lat="40.432853964225458" lng="-80.028345614182243" zone="Zone 6" incidentdate="2016-04-20" incidenttime="22:40:00" incidentnumber="16072103" address="Minnotte Sq &amp; Saw Mill Run Blvd" type="ARREST" age="25" gender="M" description="*********************************************** &lt;br/&gt;3736, Reckless Driving&lt;br/&gt;3802(a)(1), DUI - General Impairment&lt;br/&gt;3802(c), DUI - Highest Rate of Alcohol - BAC &gt;= .16%&lt;br/&gt;"/><marker lat="40.453285126966584" lng="-80.054579750288909" zone="Zone 6" incidentdate="2016-04-20" incidenttime="01:15:00" incidentnumber="16071375" address="Chartiers Ave &amp; Hillsboro St" type="ARREST" age="58" gender="M" description="*********************************************** &lt;br/&gt;4581, Restraint Systems.&lt;br/&gt;1543, Driving While Operating Privilege is Suspended or Revoked.&lt;br/&gt;3802(a)(1), DUI - General Impairment&lt;br/&gt;3323, Stop Signs and Yield Signs.&lt;br/&gt;3802(b), DUI - High Rate of Alchol - BAC &gt;=.10% &lt;.16%&lt;br/&gt;1784, Proof of Financial Responsibility Following Violation.&lt;br/&gt;"/><marker lat="40.407726967796556" lng="-79.998315110016634" zone="Zone 3" incidentdate="2016-04-20" incidenttime="09:06:00" incidentnumber="16071502" address="300 block Camfield St" type="ARREST" age="32" gender="M" description="*********************************************** &lt;br/&gt;13(a)(16), Possession of Controlled Substance&lt;br/&gt;13(a)(30), Possession w/ Intent to Del. Controlled Substance&lt;br/&gt;13(a)(31), Marijuana: Possession Small Amount&lt;br/&gt;13(a)(32), Paraphernalia - Use or Possession&lt;br/&gt;"/><marker lat="40.4393734" lng="-79.9684101" zone="Zone 2" incidentdate="2016-04-20" incidenttime="18:42:00" incidentnumber="16071952" address="200 block Oak Hill Dr" type="ARREST" age="17" gender="M" description="*********************************************** &lt;br/&gt;5104, Resisting Arrest or Other Law Enforcement.&lt;br/&gt;6110.1, Possesion of Firearm by Minor&lt;br/&gt;6106, Firearms not to be Carried without a License.&lt;br/&gt;"/><marker lat="40.491171083037642" lng="-80.019869774112294" zone="Zone 1" incidentdate="2016-04-20" incidenttime="19:43:00" incidentnumber="16071987" address="4000 block Perrysville Ave" type="ARREST" age="40" gender="M" description="*********************************************** &lt;br/&gt;13(a)(32), Paraphernalia - Use or Possession&lt;br/&gt;9501, Bench Warrant&lt;br/&gt;"/><marker lat="40.470459852290823" lng="-80.0111378348073" zone="Zone 1" incidentdate="2016-04-20" incidenttime="04:25:00" incidentnumber="16071468" address="2900 block N Charles St" type="ARREST" age="28" gender="M" description="*********************************************** &lt;br/&gt;13(a)(32), Paraphernalia - Use or Possession&lt;br/&gt;4303, General Lighting Requirements.&lt;br/&gt;"/><marker lat="40.459227130464114" lng="-80.005623690982688" zone="Zone 1" incidentdate="2016-04-20" incidenttime="09:20:00" incidentnumber="16058169" address="Henderson St &amp; Sandusky Ct" type="ARREST" age="24" gender="M" description="*********************************************** &lt;br/&gt;4910, Tampering with or Fabricating Physical Evidence.&lt;br/&gt;2705, Recklessly Endangering Another Person.&lt;br/&gt;2702, Aggravated Assault.&lt;br/&gt;901, Criminal Attempt&lt;br/&gt;6106, Firearms not to be Carried without a License.&lt;br/&gt;2501, Criminal Homicide.&lt;br/&gt;6105(a)(1), Persons not to possess, use, manufacture, control, sell or transfer firearms: Former convict enumerated in subsection (b)&lt;br/&gt;"/><marker lat="40.453710626162618" lng="-80.058610373179008" zone="Zone 6" incidentdate="2016-04-20" incidenttime="16:44:00" incidentnumber="16071993" address="Citadel St" type="ARREST" age="28" gender="M" description="*********************************************** &lt;br/&gt;9501, Bench Warrant&lt;br/&gt;"/><marker lat="40.46183425862273" lng="-80.075809934483601" zone="Zone 6" incidentdate="2016-04-20" incidenttime="20:10:00" incidentnumber="15207240" address="4000 block Wind Gap Ave" type="ARREST" age="44" gender="F" description="*********************************************** &lt;br/&gt;3502, Burglary.&lt;br/&gt;3921(a), Theft by Unlawful Taking or Disposition - Movable item&lt;br/&gt;903, Criminal Conspiracy.&lt;br/&gt;"/><marker lat="40.452740784191398" lng="-79.931372303501718" zone="Zone 4" incidentdate="2016-04-20" incidenttime="21:00:00" incidentnumber="16013278" address="Elwood St &amp; S Negley Ave" type="ARREST" age="28" gender="M" description="*********************************************** &lt;br/&gt;3304, Criminal Mischief.&lt;br/&gt;3304(a)(5), CRIMINAL MISCHIEF - Intentionally Damages Real Or Personal Property Of Another&lt;br/&gt;907, Possessing Instruments of Crime.&lt;br/&gt;"/><marker lat="40.455624262373476" lng="-80.005708088927022" zone="Zone 1" incidentdate="2016-04-20" incidenttime="20:28:00" incidentnumber="16072035" address="E North Ave &amp; Boyle St" type="ARREST" age="33" gender="M" description="*********************************************** &lt;br/&gt;13(a)(31), Marijuana: Possession Small Amount&lt;br/&gt;13(a)(32), Paraphernalia - Use or Possession&lt;br/&gt;1543, Driving While Operating Privilege is Suspended or Revoked.&lt;br/&gt;3334, Turning Movements and Required Signals.&lt;br/&gt;"/><marker lat="40.442099610175106" lng="-79.999498348299113" zone="Zone 2" incidentdate="2016-04-20" incidenttime="16:50:00" incidentnumber="16071138" address="6th Ave &amp; Wood St" type="ARREST" age="19" gender="M" description="*********************************************** &lt;br/&gt;3921, Theft by Unlawful Taking or Disposition.&lt;br/&gt;"/><marker lat="40.403913619805039" lng="-80.030279091676448" zone="Zone 6" incidentdate="2016-04-20" incidenttime="10:55:00" incidentnumber="16000126" address="Broadway Ave &amp; Shiras Ave" type="ARREST" age="38" gender="M" description="*********************************************** &lt;br/&gt;2701, Simple Assault.&lt;br/&gt;"/><marker lat="40.424443469742371" lng="-80.010130215166072" zone="Zone 3" incidentdate="2016-04-20" incidenttime="18:16:00" incidentnumber="16071926" address="400 block Griffin St" type="ARREST" age="43" gender="M" description="*********************************************** &lt;br/&gt;2701, Simple Assault.&lt;br/&gt;"/><marker lat="40.403994514238505" lng="-79.990898214962598" zone="Zone 3" incidentdate="2016-04-20" incidenttime="16:25:00" incidentnumber="16071838" address="Nome Way &amp; Bertram Way" type="ARREST" age="40" gender="F" description="*********************************************** &lt;br/&gt;9501, Bench Warrant&lt;br/&gt;"/><marker lat="40.4800074" lng="-79.7195627" zone="Zone 4" incidentdate="2016-04-20" incidenttime="22:55:00" incidentnumber="16072116" address="2000 block De Ruad St" type="ARREST" age="19" gender="M" description="*********************************************** &lt;br/&gt;13(a)(16), Possession of Controlled Substance&lt;br/&gt;13(a)(30), Possession w/ Intent to Del. Controlled Substance&lt;br/&gt;13(a)(31), Marijuana: Possession Small Amount&lt;br/&gt;"/><marker lat="40.42155201085292" lng="-79.99720376810096" zone="Zone 3" incidentdate="2016-04-20" incidenttime="02:15:00" incidentnumber="16071430" address="600 block E Warrington Ave" type="ARREST" age="28" gender="F" description="*********************************************** &lt;br/&gt;13(a)(16), Possession of Controlled Substance&lt;br/&gt;13(a)(32), Paraphernalia - Use or Possession&lt;br/&gt;1543, Driving While Operating Privilege is Suspended or Revoked.&lt;br/&gt;4302, Periods for Requiring Lighted Lamps.&lt;br/&gt;"/><marker lat="40.42155201085292" lng="-79.99720376810096" zone="Zone 3" incidentdate="2016-04-20" incidenttime="02:15:00" incidentnumber="16071430" address="600 block E Warrington Ave" type="ARREST" age="48" gender="F" description="*********************************************** &lt;br/&gt;13(a)(16), Possession of Controlled Substance&lt;br/&gt;13(a)(32), Paraphernalia - Use or Possession&lt;br/&gt;1543, Driving While Operating Privilege is Suspended or Revoked.&lt;br/&gt;4302, Periods for Requiring Lighted Lamps.&lt;br/&gt;"/><marker lat="40.411393377111729" lng="-79.996797259901697" zone="Zone 3" incidentdate="2016-04-20" incidenttime="19:15:00" incidentnumber="16071976" address="Suncrest St &amp; Arabella St" type="ARREST" age="44" gender="M" description="*********************************************** &lt;br/&gt;13(a)(16), Possession of Controlled Substance&lt;br/&gt;"/><marker lat="40.4397976" lng="-79.9666413" zone="Zone 2" incidentdate="2016-04-20" incidenttime="18:40:00" incidentnumber="16071942" address="100 block Burrows St" type="ARREST" age="25" gender="F" description="*********************************************** &lt;br/&gt;9501, Bench Warrant&lt;br/&gt;"/><marker lat="40.434696587775576" lng="-79.996300985228572" zone="Zone 2" incidentdate="2016-04-20" incidenttime="09:28:00" incidentnumber="16008396" address="600 block 1st Ave" type="ARREST" age="22" gender="F" description="*********************************************** &lt;br/&gt;9015, Failure To Appear/Arrest on Attachment Order&lt;br/&gt;3503.B1I, DEF. TRESPASS ACTUAL COMMUNICATION&lt;br/&gt;2706, Terroristic Threats.&lt;br/&gt;"/><marker lat="40.470459852290823" lng="-80.0111378348073" zone="Zone 1" incidentdate="2016-04-20" incidenttime="04:25:00" incidentnumber="16071468" address="2900 block N Charles St" type="ARREST" age="57" gender="M" description="*********************************************** &lt;br/&gt;13(a)(32), Paraphernalia - Use or Possession&lt;br/&gt;4303, General Lighting Requirements.&lt;br/&gt;"/><marker lat="40.437818600399822" lng="-79.963832573222589" zone="Zone 4" incidentdate="2016-04-20" incidenttime="18:40:00" incidentnumber="15225222" address="3300 block 5th Ave" type="ARREST" age="25" gender="F" description="*********************************************** &lt;br/&gt;3922, Theft by Deception.&lt;br/&gt;4101, Forgery.&lt;br/&gt;"/><marker lat="40.454948691850667" lng="-80.009640272832598" zone="Zone 5" incidentdate="2016-04-20" incidenttime="11:40:00" incidentnumber="15207747" address="300 block West Penn Pl" type="ARREST" age="35" gender="F" description="*********************************************** &lt;br/&gt;9015, Failure To Appear/Arrest on Attachment Order&lt;br/&gt;2701, Simple Assault.&lt;br/&gt;"/><marker lat="40.470459852290823" lng="-80.0111378348073" zone="Zone 1" incidentdate="2016-04-20" incidenttime="04:25:00" incidentnumber="16071468" address="2900 block N Charles St" type="ARREST" age="48" gender="F" description="*********************************************** &lt;br/&gt;13(a)(32), Paraphernalia - Use or Possession&lt;br/&gt;4303, General Lighting Requirements.&lt;br/&gt;"/><marker lat="40.442584949905417" lng="-80.001789508770926" zone="Zone 2" incidentdate="2016-04-20" incidenttime="12:42:00" incidentnumber="16048738" address="600 block Penn Ave" type="ARREST" age="33" gender="F" description="*********************************************** &lt;br/&gt;3922, Theft by Deception.&lt;br/&gt;4101, Forgery.&lt;br/&gt;"/><marker lat="40.457329336513929" lng="-79.896253743327946" zone="Zone 5" incidentdate="2016-04-20" incidenttime="21:43:00" incidentnumber="16072083" address="7200 block Frankstown Ave" type="ARREST" age="59" gender="M" description="*********************************************** &lt;br/&gt;9501, Bench Warrant&lt;br/&gt;"/><marker lat="40.459241184494772" lng="-80.005548013998464" zone="Zone 1" incidentdate="2016-04-20" incidenttime="00:56:00" incidentnumber="16071377" address="1600 block Sandusky Ct" type="ARREST" age="29" gender="M" description="*********************************************** &lt;br/&gt;5505, Public Drunkenness&lt;br/&gt;2706, Terroristic Threats.&lt;br/&gt;2701(a)(3), Simple Assault - Attempts by Physical Menace&lt;br/&gt;"/><marker lat="40.478178829811441" lng="-79.941228725356893" zone="Zone 5" incidentdate="2016-04-20" incidenttime="21:00:00" incidentnumber="16054100" address="1100 block Woodbine St" type="ARREST" age="28" gender="M" description="*********************************************** &lt;br/&gt;9501, Bench Warrant&lt;br/&gt;3304, Criminal Mischief.&lt;br/&gt;"/><marker lat="40.4020803" lng="-80.0007366" zone="Zone 3" incidentdate="2016-04-20" incidenttime="23:00:00" incidentnumber="16071334" address="1300 block Saw Mill Run Blvd &amp; Edgebrook Ave" type="ARREST" age="60" gender="M" description="*********************************************** &lt;br/&gt;3743, Accidents Involving Damage to Attended Veh. or Property&lt;br/&gt;3714, Careless Driving&lt;br/&gt;"/></markers>
