<?xml version="1.0"?>
<markers><marker lat="40.4133805" lng="-79.9205069" zone="Zone 4" incidentdate="2014-10-08" incidenttime="08:15:00" incidentnumber="14116795" address="200 block JHF Dr" type="ARREST" description="*********************************************** &lt;br/&gt;3924, Theft of Property Lost, Mislaid or Delivered by Mistake.&lt;br/&gt;"/><marker lat="40.463473" lng="-80.008328" zone="Zone 1" incidentdate="2014-10-08" incidenttime="12:00:00" incidentnumber="14172066" address="2000 block Letche Ave" type="ARREST" description="*********************************************** &lt;br/&gt;2702, Aggravated Assault.&lt;br/&gt;5104, Resisting Arrest or Other Law Enforcement.&lt;br/&gt;"/><marker lat="40.3855224" lng="-80.015833" zone="Zone 6" incidentdate="2014-10-08" incidenttime="15:15:00" incidentnumber="14183316" address="2900 block Cedric Ave" type="ARREST" description="*********************************************** &lt;br/&gt;2702, Aggravated Assault.&lt;br/&gt;3928, Unauthorized Use of Automobile and Other Vehicles.&lt;br/&gt;"/><marker lat="40.421536" lng="-79.9935859" zone="Zone 3" incidentdate="2014-10-08" incidenttime="15:34:00" incidentnumber="14194989" address="800 block E Warrington Ave" type="OFFENSE" description="*********************************************** &lt;br/&gt;13(a)(16), Possession of Controlled Substance&lt;br/&gt;4910, Tampering with or Fabricating Physical Evidence.&lt;br/&gt;9124, Drug Investigation&lt;br/&gt;"/><marker lat="40.421536" lng="-79.9935859" zone="Zone 3" incidentdate="2014-10-08" incidenttime="15:34:00" incidentnumber="14194989" address="800 block E Warrington Ave" type="ARREST" description="*********************************************** &lt;br/&gt;13(a)(16), Possession of Controlled Substance&lt;br/&gt;4910, Tampering with or Fabricating Physical Evidence.&lt;br/&gt;9124, Drug Investigation&lt;br/&gt;"/><marker lat="40.435467" lng="-79.996404" zone="Zone 2" incidentdate="2014-10-08" incidenttime="15:00:00" incidentnumber="14195733" address="600 block 1st Ave" type="OFFENSE" description="*********************************************** &lt;br/&gt;9494, Summary Warrants&lt;br/&gt;"/><marker lat="40.435467" lng="-79.996404" zone="Zone 2" incidentdate="2014-10-08" incidenttime="15:15:00" incidentnumber="14195742" address="600 block 1st Ave" type="OFFENSE" description="*********************************************** &lt;br/&gt;9494, Summary Warrants&lt;br/&gt;"/><marker lat="40.435467" lng="-79.996404" zone="Zone 2" incidentdate="2014-10-08" incidenttime="15:00:00" incidentnumber="14195743" address="600 block 1st Ave" type="OFFENSE" description="*********************************************** &lt;br/&gt;9494, Summary Warrants&lt;br/&gt;"/><marker lat="40.435467" lng="-79.996404" zone="Zone 2" incidentdate="2014-10-08" incidenttime="15:00:00" incidentnumber="14195745" address="600 block 1st Ave" type="OFFENSE" description="*********************************************** &lt;br/&gt;9494, Summary Warrants&lt;br/&gt;"/><marker lat="40.464615" lng="-79.922397" zone="Zone 5" incidentdate="2014-10-08" incidenttime="09:30:00" incidentnumber="14196015" address="400 block N Highland Ave" type="ARREST" description="*********************************************** &lt;br/&gt;3929, Retail Theft.&lt;br/&gt;"/><marker lat="40.4437178" lng="-79.998361" zone="Zone 2" incidentdate="2014-10-08" incidenttime="10:45:00" incidentnumber="14197022" address="Penn Ave &amp; 9th St" type="ARREST" description="*********************************************** &lt;br/&gt;2701, Simple Assault.&lt;br/&gt;"/><marker lat="40.4359335" lng="-79.9971487" zone="Zone 2" incidentdate="2014-10-08" incidenttime="19:35:00" incidentnumber="14200867" address="600 block First Ave" type="ARREST" description="*********************************************** &lt;br/&gt;3743, Accidents Involving Damage to Attended Veh. or Property&lt;br/&gt;"/><marker lat="40.391905" lng="-80.013009" zone="Zone 6" incidentdate="2014-10-08" incidenttime="00:05:00" incidentnumber="14200998" address="1200 block Brookline Blvd" type="OFFENSE" description="*********************************************** &lt;br/&gt;9497, Aided Case&lt;br/&gt;"/><marker lat="40.4237598" lng="-79.9790511" zone="Zone 3" incidentdate="2014-10-08" incidenttime="00:45:00" incidentnumber="14201018" address="2000 block Gregory St" type="OFFENSE" description="*********************************************** &lt;br/&gt;2701, Simple Assault.&lt;br/&gt;"/><marker lat="40.4237598" lng="-79.9790511" zone="Zone 3" incidentdate="2014-10-08" incidenttime="00:55:00" incidentnumber="14201018" address="2000 block Gregory St" type="ARREST" description="*********************************************** &lt;br/&gt;2701, Simple Assault.&lt;br/&gt;"/><marker lat="40.4534488" lng="-79.9351744" zone="Zone 4" incidentdate="2014-10-08" incidenttime="02:16:00" incidentnumber="14201073" address="5500 block Ellsworth Ave" type="OFFENSE" description="*********************************************** &lt;br/&gt;601.16, Public Urination And Defecation&lt;br/&gt;"/><marker lat="40.4250918" lng="-79.9809193" zone="Zone 3" incidentdate="2014-10-08" incidenttime="02:40:00" incidentnumber="14201075" address="S 18th St" type="ARREST" description="*********************************************** &lt;br/&gt;3714, Careless Driving&lt;br/&gt;3802(a)(1), DUI - General Impairment&lt;br/&gt;3802(c), DUI - Highest Rate of Alcohol - BAC &gt;= .16%&lt;br/&gt;"/><marker lat="40.4250918" lng="-79.9809193" zone="Zone 3" incidentdate="2014-10-08" incidenttime="02:32:00" incidentnumber="14201075" address="S 18th St" type="OFFENSE" description="*********************************************** &lt;br/&gt;3714, Careless Driving&lt;br/&gt;3802(a)(1), DUI - General Impairment&lt;br/&gt;3802(c), DUI - Highest Rate of Alcohol - BAC &gt;= .16%&lt;br/&gt;"/><marker lat="40.4502445" lng="-80.0053047" zone="Zone 1" incidentdate="2014-10-08" incidenttime="02:42:00" incidentnumber="14201078" address="South Commons &amp; Federal St S" type="OFFENSE" description="*********************************************** &lt;br/&gt;1543, Driving While Operating Privilege is Suspended or Revoked.&lt;br/&gt;3112, Traffic-Control Signals.&lt;br/&gt;1501, Drivers Required to be Licensed.&lt;br/&gt;3802(a)(1), DUI - General Impairment&lt;br/&gt;3802(c), DUI - Highest Rate of Alcohol - BAC &gt;= .16%&lt;br/&gt;"/><marker lat="40.4502445" lng="-80.0053047" zone="Zone 1" incidentdate="2014-10-08" incidenttime="02:42:00" incidentnumber="14201078" address="South Commons &amp; Federal St S" type="ARREST" description="*********************************************** &lt;br/&gt;1543, Driving While Operating Privilege is Suspended or Revoked.&lt;br/&gt;3112, Traffic-Control Signals.&lt;br/&gt;1501, Drivers Required to be Licensed.&lt;br/&gt;3802(a)(1), DUI - General Impairment&lt;br/&gt;3802(c), DUI - Highest Rate of Alcohol - BAC &gt;= .16%&lt;br/&gt;"/><marker lat="40.4728177" lng="-79.9256642" zone="Zone 5" incidentdate="2014-10-08" incidenttime="03:10:00" incidentnumber="14201096" address="900 block N Negley Ave" type="OFFENSE" description="*********************************************** &lt;br/&gt;029, Missing Juvenile&lt;br/&gt;"/><marker lat="40.4033716" lng="-80.0013226" zone="Zone 3" incidentdate="2014-10-08" incidenttime="03:48:00" incidentnumber="14201112" address="900 block Saw Mill Run Blvd" type="OFFENSE" description="*********************************************** &lt;br/&gt;9017, Found Drugs&lt;br/&gt;"/><marker lat="40.4003501" lng="-80.0180758" zone="Zone 6" incidentdate="2014-10-08" incidenttime="04:41:00" incidentnumber="14201120" address="300 block Lamarido St" type="OFFENSE" description="*********************************************** &lt;br/&gt;2701, Simple Assault.&lt;br/&gt;"/><marker lat="40.446566" lng="-80.037221" zone="Zone 6" incidentdate="2014-10-08" incidenttime="04:45:00" incidentnumber="14201124" address="400 block Lorenz Ave" type="OFFENSE" description="*********************************************** &lt;br/&gt;3304(a)(5), CRIMINAL MISCHIEF - Intentionally Damages Real Or Personal Property Of Another&lt;br/&gt;"/><marker lat="40.4059907" lng="-80.0364266" zone="Zone 6" incidentdate="2014-10-08" incidenttime="06:10:00" incidentnumber="14201133" address="2600 block Banksville Rd" type="OFFENSE" description="*********************************************** &lt;br/&gt;9488, False  Burglar Alarm&lt;br/&gt;"/><marker lat="40.4288477" lng="-79.9820535" zone="Zone 3" incidentdate="2014-10-08" incidenttime="07:05:00" incidentnumber="14201148" address="100 block S 17th St" type="ARREST" description="*********************************************** &lt;br/&gt;2701, Simple Assault.&lt;br/&gt;"/><marker lat="40.4288477" lng="-79.9820535" zone="Zone 3" incidentdate="2014-10-08" incidenttime="06:55:00" incidentnumber="14201148" address="100 block S 17th St" type="OFFENSE" description="*********************************************** &lt;br/&gt;2701, Simple Assault.&lt;br/&gt;"/><marker lat="40.4165043" lng="-79.9930976" zone="Zone 3" incidentdate="2014-10-08" incidenttime="07:00:00" incidentnumber="14201158" address="300 block Charles St" type="OFFENSE" description="*********************************************** &lt;br/&gt;3304, Criminal Mischief.&lt;br/&gt;3934, Theft from Vehicle&lt;br/&gt;"/><marker lat="40.4483916" lng="-79.9671894" zone="Zone 2" incidentdate="2014-10-08" incidenttime="07:15:00" incidentnumber="14201160" address="500 block Morgan St" type="OFFENSE" description="*********************************************** &lt;br/&gt;2501, Criminal Homicide.&lt;br/&gt;"/><marker lat="40.4921195" lng="-80.0211627" zone="Zone 1" incidentdate="2014-10-08" incidenttime="07:37:00" incidentnumber="14201170" address="Perrysville Ave &amp; Portman Ave" type="OFFENSE" description="*********************************************** &lt;br/&gt;9999, 9999 - (Misc. Incident):&lt;br/&gt;"/><marker lat="40.4658988" lng="-80.0291599" zone="Zone 1" incidentdate="2014-10-08" incidenttime="08:10:00" incidentnumber="14201180" address="1300 block Gifford St" type="OFFENSE" description="*********************************************** &lt;br/&gt;9488, False  Burglar Alarm&lt;br/&gt;"/><marker lat="40.4633499" lng="-79.8938315" zone="Zone 5" incidentdate="2014-10-08" incidenttime="08:05:00" incidentnumber="14201185" address="7100 block Everton St" type="OFFENSE" description="*********************************************** &lt;br/&gt;2702, Aggravated Assault.&lt;br/&gt;"/><marker lat="40.4575158" lng="-79.8968924" zone="Zone 5" incidentdate="2014-10-08" incidenttime="02:00:00" incidentnumber="14201186" address="7100 block Frankstown Ave" type="OFFENSE" description="*********************************************** &lt;br/&gt;3924, Theft of Property Lost, Mislaid or Delivered by Mistake.&lt;br/&gt;"/><marker lat="40.4658346" lng="-79.9953157" zone="Zone 1" incidentdate="2014-10-08" incidenttime="08:45:00" incidentnumber="14201210" address="Woessner Ave" type="OFFENSE" description="*********************************************** &lt;br/&gt;3921(a), Theft by Unlawful Taking or Disposition - Movable item&lt;br/&gt;"/><marker lat="40.448071" lng="-79.975611" zone="Zone 2" incidentdate="2014-10-08" incidenttime="08:58:00" incidentnumber="14201228" address="2300 block Webster Ave" type="OFFENSE" description="*********************************************** &lt;br/&gt;2709, Harassment (Non-Specific)&lt;br/&gt;"/><marker lat="40.464615" lng="-79.922397" zone="Zone 5" incidentdate="2014-10-08" incidenttime="10:20:00" incidentnumber="14201251" address="400 block N Highland Ave" type="ARREST" description="*********************************************** &lt;br/&gt;3929(a)(1), Retail Theft; takes possession of, carries away, or transfers displayed merchandise&lt;br/&gt;"/><marker lat="40.464615" lng="-79.922397" zone="Zone 5" incidentdate="2014-10-08" incidenttime="09:39:00" incidentnumber="14201251" address="400 block N Highland Ave" type="OFFENSE" description="*********************************************** &lt;br/&gt;3929(a)(1), Retail Theft; takes possession of, carries away, or transfers displayed merchandise&lt;br/&gt;"/><marker lat="40.4634639" lng="-80.0546265" zone="Zone 6" incidentdate="2014-10-08" incidenttime="09:45:00" incidentnumber="14201254" address="400 block Sloan St" type="OFFENSE" description="*********************************************** &lt;br/&gt;3502, Burglary.&lt;br/&gt;"/><marker lat="40.430725" lng="-79.99039" zone="Zone 3" incidentdate="2014-10-08" incidenttime="11:15:00" incidentnumber="14201291" address="300 block S 9th St" type="OFFENSE" description="*********************************************** &lt;br/&gt;2701(a)(1), Simple Assault - Intent., Know., Reckless.Cause Bod. Injury&lt;br/&gt;"/><marker lat="40.4739499" lng="-80.0288268" zone="Zone 1" incidentdate="2014-10-08" incidenttime="11:40:00" incidentnumber="14201304" address="3100 block Brighton Rd" type="ARREST" description="*********************************************** &lt;br/&gt;2702, Aggravated Assault.&lt;br/&gt;"/><marker lat="40.4739499" lng="-80.0288268" zone="Zone 1" incidentdate="2014-10-08" incidenttime="11:05:00" incidentnumber="14201304" address="3100 block Brighton Rd" type="OFFENSE" description="*********************************************** &lt;br/&gt;2702, Aggravated Assault.&lt;br/&gt;"/><marker lat="40.455665" lng="-79.889976" zone="Zone 5" incidentdate="2014-10-08" incidenttime="12:00:00" incidentnumber="14201312" address="7600 block Frankstown Ave" type="OFFENSE" description="*********************************************** &lt;br/&gt;4105(a)(1), Bad Checks&lt;br/&gt;4120, Identity Theft&lt;br/&gt;"/><marker lat="40.45536" lng="-79.922754" zone="Zone 4" incidentdate="2014-10-08" incidenttime="11:30:00" incidentnumber="14201323" address="400 block Shady Ave" type="OFFENSE" description="*********************************************** &lt;br/&gt;3921, Theft by Unlawful Taking or Disposition.&lt;br/&gt;"/><marker lat="40.463189" lng="-79.905818" zone="Zone 5" incidentdate="2014-10-08" incidenttime="12:30:00" incidentnumber="14201333" address="1000 block Washington Blvd" type="OFFENSE" description="*********************************************** &lt;br/&gt;3932, Theft of Leased Property.&lt;br/&gt;"/><marker lat="40.4412372" lng="-79.9835854" zone="Zone 2" incidentdate="2014-10-08" incidenttime="11:50:00" incidentnumber="14201334" address="400 block Miller St" type="OFFENSE" description="*********************************************** &lt;br/&gt;3304, Criminal Mischief.&lt;br/&gt;3934, Theft from Vehicle&lt;br/&gt;"/><marker lat="40.453873" lng="-79.925524" zone="Zone 4" incidentdate="2014-10-08" incidenttime="07:15:00" incidentnumber="14201343" address="400 block S Highland Ave" type="OFFENSE" description="*********************************************** &lt;br/&gt;3921, Theft by Unlawful Taking or Disposition.&lt;br/&gt;"/><marker lat="40.4539485" lng="-80.059518" zone="Zone 6" incidentdate="2014-10-08" incidenttime="08:32:00" incidentnumber="14201351" address="Allendale St &amp; Chartiers Ave" type="OFFENSE" description="*********************************************** &lt;br/&gt;9489, Found Property&lt;br/&gt;"/><marker lat="40.4606263" lng="-79.9238313" zone="Zone 5" incidentdate="2014-10-08" incidenttime="12:50:00" incidentnumber="14201357" address="6100 block Penn Ave" type="ARREST" description="*********************************************** &lt;br/&gt;13(a)(32), Paraphernalia - Use or Possession&lt;br/&gt;3929, Retail Theft.&lt;br/&gt;"/><marker lat="40.4606263" lng="-79.9238313" zone="Zone 5" incidentdate="2014-10-08" incidenttime="12:32:00" incidentnumber="14201357" address="6100 block Penn Ave" type="OFFENSE" description="*********************************************** &lt;br/&gt;13(a)(32), Paraphernalia - Use or Possession&lt;br/&gt;3929, Retail Theft.&lt;br/&gt;"/><marker lat="40.4188868" lng="-79.9734305" zone="Zone 3" incidentdate="2014-10-08" incidenttime="08:00:00" incidentnumber="14201363" address="Salisbury St &amp; Conway St" type="OFFENSE" description="*********************************************** &lt;br/&gt;3745, Accidents Involving Damage to Unattended Veh.or Prop.&lt;br/&gt;"/><marker lat="40.394925" lng="-79.986912" zone="Zone 3" incidentdate="2014-10-08" incidenttime="13:30:00" incidentnumber="14201379" address="2000 block Brownsville Rd" type="OFFENSE" description="*********************************************** &lt;br/&gt;2706, Terroristic Threats.&lt;br/&gt;2709(a)(4), Harassment Communicates Prohibited Acts&lt;br/&gt;"/><marker lat="40.4139596" lng="-80.0131818" zone="Zone 6" incidentdate="2014-10-08" incidenttime="13:39:00" incidentnumber="14201402" address="Dawn Ave" type="ARREST" description="*********************************************** &lt;br/&gt;13(a)(31), Marijuana: Possession Small Amount&lt;br/&gt;13(a)(16), Possession of Controlled Substance&lt;br/&gt;13(a)(30), Possession w/ Intent to Del. Controlled Substance&lt;br/&gt;7512, Criminal Use of Communication&lt;br/&gt;13(a)(30)*, Delivery of Controlled Substance&lt;br/&gt;"/><marker lat="40.4139596" lng="-80.0131818" zone="Zone 6" incidentdate="2014-10-08" incidenttime="13:39:00" incidentnumber="14201402" address="Dawn Ave" type="OFFENSE" description="*********************************************** &lt;br/&gt;13(a)(31), Marijuana: Possession Small Amount&lt;br/&gt;13(a)(16), Possession of Controlled Substance&lt;br/&gt;13(a)(30), Possession w/ Intent to Del. Controlled Substance&lt;br/&gt;7512, Criminal Use of Communication&lt;br/&gt;13(a)(30)*, Delivery of Controlled Substance&lt;br/&gt;"/><marker lat="40.368528" lng="-79.917319" zone="Zone 4" incidentdate="2014-10-08" incidenttime="08:00:00" incidentnumber="14201445" address="1100 block Muldowney Ave" type="OFFENSE" description="*********************************************** &lt;br/&gt;9093, Indirect Criminal Contempt&lt;br/&gt;"/><marker lat="40.385802" lng="-79.9819349" zone="Zone 3" incidentdate="2014-10-08" incidenttime="15:31:00" incidentnumber="14201450" address="2500 block Edgar St" type="OFFENSE" description="*********************************************** &lt;br/&gt;9999, 9999 - (Misc. Incident):&lt;br/&gt;"/><marker lat="40.4395271" lng="-79.9981821" zone="Zone 2" incidentdate="2014-10-08" incidenttime="15:32:00" incidentnumber="14201452" address="400 block 5th Ave" type="OFFENSE" description="*********************************************** &lt;br/&gt;3929, Retail Theft.&lt;br/&gt;5503, Disorderly Conduct.&lt;br/&gt;"/><marker lat="40.4395271" lng="-79.9981821" zone="Zone 2" incidentdate="2014-10-08" incidenttime="15:32:00" incidentnumber="14201452" address="400 block 5th Ave" type="ARREST" description="*********************************************** &lt;br/&gt;3929, Retail Theft.&lt;br/&gt;5503, Disorderly Conduct.&lt;br/&gt;"/><marker lat="40.4512829" lng="-80.000609" zone="Zone 1" incidentdate="2014-10-08" incidenttime="00:01:00" incidentnumber="14201463" address="300 block Cedar Ave" type="OFFENSE" description="*********************************************** &lt;br/&gt;4120, Identity Theft&lt;br/&gt;"/><marker lat="40.3931987" lng="-79.986534" zone="Zone 3" incidentdate="2014-10-08" incidenttime="16:45:00" incidentnumber="14201465" address="2100 block Brownsville Rd" type="OFFENSE" description="*********************************************** &lt;br/&gt;2709, Harassment (Non-Specific)&lt;br/&gt;5503, Disorderly Conduct.&lt;br/&gt;"/><marker lat="40.4541571" lng="-79.9992604" zone="Zone 1" incidentdate="2014-10-08" incidenttime="16:00:00" incidentnumber="14201468" address="East Ohio St &amp; Emlin St" type="OFFENSE" description="*********************************************** &lt;br/&gt;3742, Accidents Involving Death or Personal Injury&lt;br/&gt;"/><marker lat="40.4201058" lng="-80.0077003" zone="Zone 3" incidentdate="2014-10-08" incidenttime="16:16:00" incidentnumber="14201478" address="Boggston Ave &amp; W Warrington Ave" type="OFFENSE" description="*********************************************** &lt;br/&gt;13(a)(16), Possession of Controlled Substance&lt;br/&gt;13(a)(32), Paraphernalia - Use or Possession&lt;br/&gt;"/><marker lat="40.4201058" lng="-80.0077003" zone="Zone 3" incidentdate="2014-10-08" incidenttime="16:16:00" incidentnumber="14201478" address="Boggston Ave &amp; W Warrington Ave" type="ARREST" description="*********************************************** &lt;br/&gt;13(a)(16), Possession of Controlled Substance&lt;br/&gt;13(a)(32), Paraphernalia - Use or Possession&lt;br/&gt;"/><marker lat="40.4419631" lng="-79.9786532" zone="Zone 2" incidentdate="2014-10-08" incidenttime="16:26:00" incidentnumber="14201482" address="2000 block Bentley Dr" type="OFFENSE" description="*********************************************** &lt;br/&gt;2705, Recklessly Endangering Another Person.&lt;br/&gt;2707.1, Discharge of a Firearm into Occupied Structure&lt;br/&gt;"/><marker lat="40.4928647" lng="-79.9040718" zone="Zone 2" incidentdate="2014-10-08" incidenttime="15:30:00" incidentnumber="14201488" address="200 block 4th Ave" type="OFFENSE" description="*********************************************** &lt;br/&gt;3304, Criminal Mischief.&lt;br/&gt;3934, Theft from Vehicle&lt;br/&gt;"/><marker lat="40.4387143" lng="-79.9994904" zone="Zone 2" incidentdate="2014-10-08" incidenttime="14:45:00" incidentnumber="14201490" address="400 block Smithfield St" type="OFFENSE" description="*********************************************** &lt;br/&gt;3929, Retail Theft.&lt;br/&gt;"/><marker lat="40.3870632" lng="-79.9832914" zone="Zone 3" incidentdate="2014-10-08" incidenttime="17:10:00" incidentnumber="14201491" address="The Boulevard &amp; Brownsville Rd" type="OFFENSE" description="*********************************************** &lt;br/&gt;3802(d)(2), DUI - Drug - Impaired Ability&lt;br/&gt;"/><marker lat="40.3870632" lng="-79.9832914" zone="Zone 3" incidentdate="2014-10-08" incidenttime="17:10:00" incidentnumber="14201491" address="The Boulevard &amp; Brownsville Rd" type="ARREST" description="*********************************************** &lt;br/&gt;3802(d)(2), DUI - Drug - Impaired Ability&lt;br/&gt;"/><marker lat="40.453873" lng="-79.925524" zone="Zone 4" incidentdate="2014-10-08" incidenttime="00:01:00" incidentnumber="14201492" address="400 block S Highland Ave" type="OFFENSE" description="*********************************************** &lt;br/&gt;3921, Theft by Unlawful Taking or Disposition.&lt;br/&gt;"/><marker lat="40.4605708" lng="-80.0071651" zone="Zone 1" incidentdate="2014-10-08" incidenttime="16:43:00" incidentnumber="14201493" address="1700 block Belleau Dr" type="OFFENSE" description="*********************************************** &lt;br/&gt;13(a)(16), Possession of Controlled Substance&lt;br/&gt;4910, Tampering with or Fabricating Physical Evidence.&lt;br/&gt;5126, Flight to Avoid Apprehension, Trial or Punishment.&lt;br/&gt;13(a)(30), Possession w/ Intent to Del. Controlled Substance&lt;br/&gt;"/><marker lat="40.4085502" lng="-80.0119324" zone="Zone 6" incidentdate="2014-10-08" incidenttime="17:15:00" incidentnumber="14201514" address="700 block Linda Dr" type="OFFENSE" description="*********************************************** &lt;br/&gt;2709.A3, HARASSMENT - COURSE OF CONDUCT W/NO LEGIT. PURPOSE&lt;br/&gt;"/><marker lat="40.4515839" lng="-80.0083418" zone="Zone 1" incidentdate="2014-10-08" incidenttime="16:00:00" incidentnumber="14201518" address="Foster Sq" type="OFFENSE" description="*********************************************** &lt;br/&gt;9999, 9999 - (Misc. Incident):&lt;br/&gt;"/><marker lat="40.449753" lng="-79.890512" zone="Zone 5" incidentdate="2014-10-08" incidenttime="17:31:00" incidentnumber="14201526" address="500 block Brushton Ave" type="OFFENSE" description="*********************************************** &lt;br/&gt;9999, 9999 - (Misc. Incident):&lt;br/&gt;"/><marker lat="40.4211505" lng="-79.9989123" zone="Zone 3" incidentdate="2014-10-08" incidenttime="17:36:00" incidentnumber="14201530" address="Curtin Ave &amp; E Warrington Ave" type="ARREST" description="*********************************************** &lt;br/&gt;13(a)(16), Possession of Controlled Substance&lt;br/&gt;3334, Turning Movements and Required Signals.&lt;br/&gt;1501, Drivers Required to be Licensed.&lt;br/&gt;"/><marker lat="40.4211505" lng="-79.9989123" zone="Zone 3" incidentdate="2014-10-08" incidenttime="17:40:00" incidentnumber="14201530" address="Curtin Ave &amp; E Warrington Ave" type="OFFENSE" description="*********************************************** &lt;br/&gt;13(a)(16), Possession of Controlled Substance&lt;br/&gt;3334, Turning Movements and Required Signals.&lt;br/&gt;1501, Drivers Required to be Licensed.&lt;br/&gt;"/><marker lat="40.4622667" lng="-79.9491159" zone="Zone 5" incidentdate="2014-10-08" incidenttime="17:55:00" incidentnumber="14201544" address="Corday Way &amp; Joliet Way" type="OFFENSE" description="*********************************************** &lt;br/&gt;13(a)(32), Paraphernalia - Use or Possession&lt;br/&gt;5505, Public Drunkenness&lt;br/&gt;"/><marker lat="40.4622667" lng="-79.9491159" zone="Zone 5" incidentdate="2014-10-08" incidenttime="18:12:00" incidentnumber="14201544" address="Corday Way &amp; Joliet Way" type="ARREST" description="*********************************************** &lt;br/&gt;13(a)(32), Paraphernalia - Use or Possession&lt;br/&gt;5505, Public Drunkenness&lt;br/&gt;"/><marker lat="40.451189" lng="-79.9304464" zone="Zone 4" incidentdate="2014-10-08" incidenttime="06:30:00" incidentnumber="14201558" address="5700 block Howe St" type="OFFENSE" description="*********************************************** &lt;br/&gt;9999, 9999 - (Misc. Incident):&lt;br/&gt;"/><marker lat="40.4527421" lng="-79.9100375" zone="Zone 4" incidentdate="2014-10-08" incidenttime="16:00:00" incidentnumber="14201559" address="100 block N Linden Ave" type="OFFENSE" description="*********************************************** &lt;br/&gt;3921, Theft by Unlawful Taking or Disposition.&lt;br/&gt;"/><marker lat="40.4406248" lng="-79.9958864" zone="Zone OSC" incidentdate="2014-10-08" incidenttime="17:30:00" incidentnumber="14201561" address="Potomac Ave" type="OFFENSE" description="*********************************************** &lt;br/&gt;9999, 9999 - (Misc. Incident):&lt;br/&gt;"/><marker lat="40.4686656" lng="-79.9651486" zone="Zone 2" incidentdate="2014-10-08" incidenttime="00:01:00" incidentnumber="14201572" address="100 block 39th St" type="OFFENSE" description="*********************************************** &lt;br/&gt;3921, Theft by Unlawful Taking or Disposition.&lt;br/&gt;"/><marker lat="40.4410083" lng="-79.9638239" zone="Zone 4" incidentdate="2014-10-08" incidenttime="18:20:00" incidentnumber="14201584" address="Chesterfield Rd &amp; Terrace St" type="OFFENSE" description="*********************************************** &lt;br/&gt;3304, Criminal Mischief.&lt;br/&gt;3934, Theft from Vehicle&lt;br/&gt;"/><marker lat="40.4614634" lng="-80.0503722" zone="Zone 6" incidentdate="2014-10-08" incidenttime="18:45:00" incidentnumber="14201586" address="100 block Frustum St" type="OFFENSE" description="*********************************************** &lt;br/&gt;3304, Criminal Mischief.&lt;br/&gt;"/><marker lat="40.4611602" lng="-79.9678491" zone="Zone 2" incidentdate="2014-10-08" incidenttime="18:45:00" incidentnumber="14201588" address="3300 block Liberty Ave" type="OFFENSE" description="*********************************************** &lt;br/&gt;3701, Robbery.&lt;br/&gt;"/><marker lat="40.42167" lng="-79.9812819" zone="Zone 3" incidentdate="2014-10-08" incidenttime="18:30:00" incidentnumber="14201589" address="1900 block St Paul St" type="OFFENSE" description="*********************************************** &lt;br/&gt;3502, Burglary.&lt;br/&gt;"/><marker lat="40.432505" lng="-79.92431" zone="Zone 4" incidentdate="2014-10-08" incidenttime="15:00:00" incidentnumber="14201612" address="5700 block Hobart St" type="OFFENSE" description="*********************************************** &lt;br/&gt;9489, Found Property&lt;br/&gt;"/><marker lat="40.4293034" lng="-79.9724245" zone="Zone 3" incidentdate="2014-10-08" incidenttime="19:30:00" incidentnumber="14201629" address="Bike Trl" type="OFFENSE" description="*********************************************** &lt;br/&gt;3701, Robbery.&lt;br/&gt;"/><marker lat="40.4441681" lng="-79.994852" zone="Zone 2" incidentdate="2014-10-08" incidenttime="19:30:00" incidentnumber="14201630" address="1000 block Penn Ave" type="ARREST" description="*********************************************** &lt;br/&gt;903, Criminal Conspiracy.&lt;br/&gt;907, Possessing Instruments of Crime.&lt;br/&gt;5902(a)(1), Prostitution&lt;br/&gt;5902(b)(1), Promoting Prostitution - Keeping Business or House&lt;br/&gt;"/><marker lat="40.4441681" lng="-79.994852" zone="Zone 2" incidentdate="2014-10-08" incidenttime="19:30:00" incidentnumber="14201630" address="1000 block Penn Ave" type="OFFENSE" description="*********************************************** &lt;br/&gt;903, Criminal Conspiracy.&lt;br/&gt;907, Possessing Instruments of Crime.&lt;br/&gt;5902(a)(1), Prostitution&lt;br/&gt;5902(b)(1), Promoting Prostitution - Keeping Business or House&lt;br/&gt;"/><marker lat="40.4441681" lng="-79.994852" zone="Zone 2" incidentdate="2014-10-08" incidenttime="19:30:00" incidentnumber="14201630" address="1000 block Penn Ave" type="ARREST" description="*********************************************** &lt;br/&gt;903, Criminal Conspiracy.&lt;br/&gt;907, Possessing Instruments of Crime.&lt;br/&gt;5902(a)(1), Prostitution&lt;br/&gt;5902(b)(1), Promoting Prostitution - Keeping Business or House&lt;br/&gt;"/><marker lat="40.421536" lng="-79.9935859" zone="Zone 3" incidentdate="2014-10-08" incidenttime="20:01:00" incidentnumber="14201634" address="800 block E Warrington Ave" type="OFFENSE" description="*********************************************** &lt;br/&gt;13(a)(30), Possession w/ Intent to Del. Controlled Substance&lt;br/&gt;13(a)(16), Possession of Controlled Substance&lt;br/&gt;"/><marker lat="40.3882901" lng="-79.9882977" zone="Zone 3" incidentdate="2014-10-08" incidenttime="20:05:00" incidentnumber="14201635" address="2300 block Almont St" type="OFFENSE" description="*********************************************** &lt;br/&gt;2701, Simple Assault.&lt;br/&gt;2706, Terroristic Threats.&lt;br/&gt;"/><marker lat="40.438366" lng="-79.9807741" zone="Zone 2" incidentdate="2014-10-08" incidenttime="20:08:00" incidentnumber="14201639" address="Fifth Ave &amp; Dinwiddie St" type="OFFENSE" description="*********************************************** &lt;br/&gt;1501, Drivers Required to be Licensed.&lt;br/&gt;3111, Obedience to Traffic-Control Devices.&lt;br/&gt;3323, Stop Signs and Yield Signs.&lt;br/&gt;3733, Fleeing or Attempting to Elude Police Officer&lt;br/&gt;"/><marker lat="40.438366" lng="-79.9807741" zone="Zone 2" incidentdate="2014-10-08" incidenttime="20:19:00" incidentnumber="14201639" address="Fifth Ave &amp; Dinwiddie St" type="ARREST" description="*********************************************** &lt;br/&gt;1501, Drivers Required to be Licensed.&lt;br/&gt;3111, Obedience to Traffic-Control Devices.&lt;br/&gt;3323, Stop Signs and Yield Signs.&lt;br/&gt;3733, Fleeing or Attempting to Elude Police Officer&lt;br/&gt;"/><marker lat="40.4306744" lng="-80.0553431" zone="Zone 6" incidentdate="2014-10-08" incidenttime="20:19:00" incidentnumber="14201642" address="1800 block Chessland St" type="OFFENSE" description="*********************************************** &lt;br/&gt;2701, Simple Assault.&lt;br/&gt;"/><marker lat="40.4656796" lng="-79.9451181" zone="Zone 5" incidentdate="2014-10-08" incidenttime="18:00:00" incidentnumber="14201644" address="100 block N Millvale Ave" type="OFFENSE" description="*********************************************** &lt;br/&gt;3934, Theft from Vehicle&lt;br/&gt;"/><marker lat="40.4417688" lng="-80.0015897" zone="Zone 2" incidentdate="2014-10-08" incidenttime="20:46:00" incidentnumber="14201653" address="600 block Liberty Ave" type="ARREST" description="*********************************************** &lt;br/&gt;13(a)(31), Marijuana: Possession Small Amount&lt;br/&gt;13(a)(16), Possession of Controlled Substance&lt;br/&gt;5505, Public Drunkenness&lt;br/&gt;"/><marker lat="40.4417688" lng="-80.0015897" zone="Zone 2" incidentdate="2014-10-08" incidenttime="20:46:00" incidentnumber="14201653" address="600 block Liberty Ave" type="OFFENSE" description="*********************************************** &lt;br/&gt;13(a)(31), Marijuana: Possession Small Amount&lt;br/&gt;13(a)(16), Possession of Controlled Substance&lt;br/&gt;5505, Public Drunkenness&lt;br/&gt;"/><marker lat="40.4856352" lng="-79.9397897" zone="Zone 5" incidentdate="2014-10-08" incidenttime="21:20:00" incidentnumber="14201662" address="1000 block Oglethorpe Ave" type="ARREST" description="*********************************************** &lt;br/&gt;13(a)(32), Paraphernalia - Use or Possession&lt;br/&gt;"/><marker lat="40.4856352" lng="-79.9397897" zone="Zone 5" incidentdate="2014-10-08" incidenttime="21:20:00" incidentnumber="14201662" address="1000 block Oglethorpe Ave" type="OFFENSE" description="*********************************************** &lt;br/&gt;13(a)(32), Paraphernalia - Use or Possession&lt;br/&gt;"/><marker lat="40.4518806" lng="-79.9520029" zone="Zone 4" incidentdate="2014-10-08" incidenttime="21:00:00" incidentnumber="14201667" address="4600 block Centre Ave" type="ARREST" description="*********************************************** &lt;br/&gt;3929, Retail Theft.&lt;br/&gt;"/><marker lat="40.4518806" lng="-79.9520029" zone="Zone 4" incidentdate="2014-10-08" incidenttime="20:53:00" incidentnumber="14201667" address="4600 block Centre Ave" type="OFFENSE" description="*********************************************** &lt;br/&gt;3929, Retail Theft.&lt;br/&gt;"/><marker lat="40.469069" lng="-79.924732" zone="Zone 5" incidentdate="2014-10-08" incidenttime="21:11:00" incidentnumber="14201677" address="700 block N St Clair St" type="OFFENSE" description="*********************************************** &lt;br/&gt;9489, Found Property&lt;br/&gt;"/><marker lat="40.4539771" lng="-79.9989196" zone="Zone 1" incidentdate="2014-10-08" incidenttime="21:29:00" incidentnumber="14201687" address="600 block East Ohio St" type="OFFENSE" description="*********************************************** &lt;br/&gt;9488, False  Burglar Alarm&lt;br/&gt;"/></markers>
