<?xml version="1.0"?>
<markers><marker lat="40.454948691850667" lng="-80.009640272832598" zone="Zone 1" incidentdate="2015-12-02" incidenttime="02:50:00" incidentnumber="15230363" address="300 block E North Ave" type="OFFENSE" age="" gender="" description="*********************************************** &lt;br/&gt;9497, Aided Case&lt;br/&gt;"/><marker lat="40.393381465666913" lng="-80.023176044457372" zone="Zone 6" incidentdate="2015-12-02" incidenttime="16:34:00" incidentnumber="15230706" address="700 block Woodbourne Ave" type="OFFENSE" age="" gender="" description="*********************************************** &lt;br/&gt;9497, Aided Case&lt;br/&gt;"/><marker lat="40.467120297372375" lng="-79.91745510853157" zone="Zone 5" incidentdate="2015-12-02" incidenttime="13:30:00" incidentnumber="15230656" address="Moga St" type="OFFENSE" age="" gender="" description="*********************************************** &lt;br/&gt;3304, Criminal Mischief.&lt;br/&gt;"/><marker lat="40.452841769688419" lng="-79.891813206508516" zone="Zone 5" incidentdate="2015-12-02" incidenttime="02:21:00" incidentnumber="15230356" address="7500 block Mulford St" type="OFFENSE" age="" gender="" description="*********************************************** &lt;br/&gt;2701, Simple Assault.&lt;br/&gt;"/><marker lat="40.445640297979047" lng="-79.981797214737767" zone="Zone 2" incidentdate="2015-12-02" incidenttime="13:10:00" incidentnumber="15230611" address="2000 block Webster Ave" type="OFFENSE" age="" gender="" description="*********************************************** &lt;br/&gt;9999, 9999 - (Misc. Incident):&lt;br/&gt;"/><marker lat="40.451399852825176" lng="-80.02847262975925" zone="Zone 1" incidentdate="2015-12-02" incidenttime="03:07:00" incidentnumber="15230372" address="1000 block Beaver Ave" type="OFFENSE" age="" gender="" description="*********************************************** &lt;br/&gt;9488, False  Burglar Alarm&lt;br/&gt;"/><marker lat="40.4600940" lng="-79.9238524" zone="Zone 4" incidentdate="2015-12-02" incidenttime="15:23:00" incidentnumber="15230685" address="6300 block Shakespeare St" type="OFFENSE" age="" gender="" description="*********************************************** &lt;br/&gt;5505, Public Drunkenness&lt;br/&gt;"/><marker lat="40.409907809469559" lng="-79.944055701424162" zone="Zone 4" incidentdate="2015-12-02" incidenttime="20:00:00" incidentnumber="15230912" address="4900 block Second Ave" type="OFFENSE" age="" gender="" description="*********************************************** &lt;br/&gt;9124, Drug Investigation&lt;br/&gt;"/><marker lat="40.458313629612618" lng="-79.891012641854417" zone="Zone 5" incidentdate="2015-12-02" incidenttime="14:35:00" incidentnumber="15223233" address="7400 block Monticello St" type="OFFENSE" age="" gender="" description="*********************************************** &lt;br/&gt;2701, Simple Assault.&lt;br/&gt;4952, Intimidation of Witnesses or Victims&lt;br/&gt;"/><marker lat="40.446476585245676" lng="-79.951911343376082" zone="Zone 4" incidentdate="2015-12-02" incidenttime="08:00:00" incidentnumber="15230500" address="5th Ave &amp; N Bellefield Ave" type="OFFENSE" age="" gender="" description="*********************************************** &lt;br/&gt;3743, Accidents Involving Damage to Attended Veh. or Property&lt;br/&gt;"/><marker lat="40.442149856978411" lng="-79.957840380080995" zone="Zone 4" incidentdate="2015-12-02" incidenttime="04:50:00" incidentnumber="15230413" address="100 block Oakland Ave" type="OFFENSE" age="" gender="" description="*********************************************** &lt;br/&gt;3304, Criminal Mischief.&lt;br/&gt;"/><marker lat="40.447502334719239" lng="-80.051783949854453" zone="Zone 6" incidentdate="2015-12-02" incidenttime="16:40:00" incidentnumber="15230729" address="1600 block Crucible St" type="OFFENSE" age="" gender="" description="*********************************************** &lt;br/&gt;9999, 9999 - (Misc. Incident):&lt;br/&gt;"/><marker lat="40.463491101423543" lng="-79.91733643444087" zone="Zone 5" incidentdate="2015-12-02" incidenttime="19:15:00" incidentnumber="15230824" address="East Liberty Blvd &amp; Larimer Ave" type="OFFENSE" age="" gender="" description="*********************************************** &lt;br/&gt;13(a)(16), Possession of Controlled Substance&lt;br/&gt;13(a)(31), Marijuana: Possession Small Amount&lt;br/&gt;"/><marker lat="40.425268732521559" lng="-79.923798716444367" zone="Zone 4" incidentdate="2015-12-02" incidenttime="10:00:00" incidentnumber="15230527" address="6300 block Monitor St" type="OFFENSE" age="" gender="" description="*********************************************** &lt;br/&gt;2709, Harassment (Non-Specific)&lt;br/&gt;4912, Impersonating a Public Servant.&lt;br/&gt;"/><marker lat="40.416388207227982" lng="-79.976208590026218" zone="Zone 3" incidentdate="2015-12-02" incidenttime="07:21:00" incidentnumber="15230435" address="200 block Fernleaf St" type="OFFENSE" age="" gender="" description="*********************************************** &lt;br/&gt;3503, Criminal Trespass&lt;br/&gt;"/><marker lat="40.438917876440819" lng="-80.001250590800993" zone="Zone 2" incidentdate="2015-12-02" incidenttime="21:50:00" incidentnumber="15230924" address="300 block Wood St" type="OFFENSE" age="" gender="" description="*********************************************** &lt;br/&gt;2709(a), Harassment.&lt;br/&gt;"/><marker lat="40.466195226278067" lng="-79.952149926209557" zone="Zone 5" incidentdate="2015-12-02" incidenttime="00:01:00" incidentnumber="15230803" address="4500 block Penn Ave" type="OFFENSE" age="" gender="" description="*********************************************** &lt;br/&gt;4120, Identity Theft&lt;br/&gt;"/><marker lat="40.441234571705877" lng="-80.003477050749922" zone="Zone 2" incidentdate="2015-12-02" incidenttime="06:51:00" incidentnumber="15230428" address="500 block Liberty Ave" type="OFFENSE" age="" gender="" description="*********************************************** &lt;br/&gt;13(a)(16), Possession of Controlled Substance&lt;br/&gt;"/><marker lat="40.457708930211595" lng="-79.935327377456005" zone="Zone 5" incidentdate="2015-12-02" incidenttime="11:50:00" incidentnumber="15230572" address="5600 block Baum Blvd" type="OFFENSE" age="" gender="" description="*********************************************** &lt;br/&gt;3929, Retail Theft.&lt;br/&gt;"/><marker lat="40.440086472089142" lng="-79.958320548707789" zone="Zone 4" incidentdate="2015-12-02" incidenttime="22:45:00" incidentnumber="15230948" address="3500 block Forbes Ave" type="OFFENSE" age="" gender="" description="*********************************************** &lt;br/&gt;3929, Retail Theft.&lt;br/&gt;"/><marker lat="40.423622007225454" lng="-79.993693050792444" zone="Zone 3" incidentdate="2015-12-02" incidenttime="04:52:00" incidentnumber="15230412" address="800 block Eureka St" type="OFFENSE" age="" gender="" description="*********************************************** &lt;br/&gt;3304, Criminal Mischief.&lt;br/&gt;3503, Criminal Trespass&lt;br/&gt;"/><marker lat="40.404939361855945" lng="-79.990899233620965" zone="Zone 3" incidentdate="2015-12-02" incidenttime="17:15:00" incidentnumber="15230757" address="1100 block Brownsville Rd" type="OFFENSE" age="" gender="" description="*********************************************** &lt;br/&gt;3743, Accidents Involving Damage to Attended Veh. or Property&lt;br/&gt;"/><marker lat="40.462327376687419" lng="-79.933803585526491" zone="Zone 5" incidentdate="2015-12-02" incidenttime="08:20:00" incidentnumber="15230478" address="200 block S Fairmount St" type="OFFENSE" age="" gender="" description="*********************************************** &lt;br/&gt;3934, Theft from Vehicle&lt;br/&gt;"/><marker lat="40.491171083037642" lng="-80.019869774112294" zone="Zone 1" incidentdate="2015-12-02" incidenttime="08:07:00" incidentnumber="15230446" address="4000 block Perrysville Ave" type="OFFENSE" age="" gender="" description="*********************************************** &lt;br/&gt;9488, False  Burglar Alarm&lt;br/&gt;"/><marker lat="40.464437566245238" lng="-79.930051905731787" zone="Zone 5" incidentdate="2015-12-02" incidenttime="10:11:00" incidentnumber="15230524" address="5600 block Broad St" type="OFFENSE" age="" gender="" description="*********************************************** &lt;br/&gt;4120, Identity Theft&lt;br/&gt;"/><marker lat="40.475462819237762" lng="-79.924174162819057" zone="Zone 5" incidentdate="2015-12-02" incidenttime="17:00:00" incidentnumber="15230808" address="1100 block N Negley Ave" type="OFFENSE" age="" gender="" description="*********************************************** &lt;br/&gt;2701, Simple Assault.&lt;br/&gt;2902, Unlawful Restraint.&lt;br/&gt;"/><marker lat="40.439069492655918" lng="-80.005463552778977" zone="Zone 2" incidentdate="2015-12-02" incidenttime="15:25:00" incidentnumber="15230693" address="Stanwix St" type="OFFENSE" age="" gender="" description="*********************************************** &lt;br/&gt;3921(a), Theft by Unlawful Taking or Disposition - Movable item&lt;br/&gt;"/><marker lat="40.392154392860824" lng="-80.017676067888289" zone="Zone 6" incidentdate="2015-12-02" incidenttime="18:09:00" incidentnumber="15230800" address="1000 block Brookline Blvd" type="OFFENSE" age="" gender="" description="*********************************************** &lt;br/&gt;3745, Accidents Involving Damage to Unattended Veh.or Prop.&lt;br/&gt;"/><marker lat="40.407880141393832" lng="-79.946287273663344" zone="Zone 4" incidentdate="2015-12-02" incidenttime="19:02:00" incidentnumber="15230838" address="5000 block Lytle St" type="OFFENSE" age="" gender="" description="*********************************************** &lt;br/&gt;3701, Robbery.&lt;br/&gt;903, Criminal Conspiracy.&lt;br/&gt;"/><marker lat="40.44511004552583" lng="-80.039246537687731" zone="Zone 6" incidentdate="2015-12-02" incidenttime="16:35:00" incidentnumber="15230715" address="700 block Lorenz Ave" type="OFFENSE" age="" gender="" description="*********************************************** &lt;br/&gt;9497, Aided Case&lt;br/&gt;9498, 302 (Mental)&lt;br/&gt;"/><marker lat="40.444200272919588" lng="-80.040607296470199" zone="Zone 6" incidentdate="2015-12-02" incidenttime="18:49:00" incidentnumber="15230826" address="1000 block Chartiers Ave" type="OFFENSE" age="" gender="" description="*********************************************** &lt;br/&gt;9490, Missing Persons (18 and Over)&lt;br/&gt;"/><marker lat="40.451209746298005" lng="-80.021965140261187" zone="Zone 1" incidentdate="2015-12-02" incidenttime="19:00:00" incidentnumber="15230897" address="1200 block Western Ave" type="OFFENSE" age="" gender="" description="*********************************************** &lt;br/&gt;9126, Investigation&lt;br/&gt;"/><marker lat="40.432768864771802" lng="-79.922932515944069" zone="Zone 4" incidentdate="2015-12-02" incidenttime="16:15:00" incidentnumber="15230712" address="5800 block Douglas St" type="OFFENSE" age="" gender="" description="*********************************************** &lt;br/&gt;9999, 9999 - (Misc. Incident):&lt;br/&gt;"/><marker lat="40.461274538426245" lng="-80.001662215865622" zone="Zone 1" incidentdate="2015-12-02" incidenttime="14:45:00" incidentnumber="15230627" address="Carrie St &amp; Henderson St" type="OFFENSE" age="" gender="" description="*********************************************** &lt;br/&gt;2705, Recklessly Endangering Another Person.&lt;br/&gt;2702, Aggravated Assault.&lt;br/&gt;4914, False Identification to Law Enforcement Authorities&lt;br/&gt;5121, Escape.&lt;br/&gt;6106, Firearms not to be Carried without a License.&lt;br/&gt;6105(a)(1), Persons not to possess, use, manufacture, control, sell or transfer firearms: Former convict enumerated in subsection (b)&lt;br/&gt;"/><marker lat="40.427437109046565" lng="-79.986500313235538" zone="Zone 3" incidentdate="2015-12-02" incidenttime="08:00:00" incidentnumber="15230452" address="100 block S 12th St" type="OFFENSE" age="" gender="" description="*********************************************** &lt;br/&gt;3745, Accidents Involving Damage to Unattended Veh.or Prop.&lt;br/&gt;"/><marker lat="40.4560814306125" lng="-79.91534375922059" zone="Zone 5" incidentdate="2015-12-02" incidenttime="00:33:00" incidentnumber="15230318" address="100 block Bakery Square Blvd" type="OFFENSE" age="" gender="" description="*********************************************** &lt;br/&gt;3502, Burglary.&lt;br/&gt;13(a)(16), Possession of Controlled Substance&lt;br/&gt;13(a)(32), Paraphernalia - Use or Possession&lt;br/&gt;3304, Criminal Mischief.&lt;br/&gt;"/><marker lat="40.441688508499325" lng="-80.002700301164367" zone="Zone 2" incidentdate="2015-12-02" incidenttime="11:24:00" incidentnumber="15230559" address="Liberty Ave &amp; 5th Ave" type="OFFENSE" age="" gender="" description="*********************************************** &lt;br/&gt;6501(a)(1), Scattering Rubbish; Any waste, dangerous or detrimental substance upon public property or waters&lt;br/&gt;"/><marker lat="40.425414312145136" lng="-79.966548027660309" zone="Zone 3" incidentdate="2015-12-02" incidenttime="20:50:00" incidentnumber="15230887" address="2800 block Sarah St" type="OFFENSE" age="" gender="" description="*********************************************** &lt;br/&gt;3745, Accidents Involving Damage to Unattended Veh.or Prop.&lt;br/&gt;"/><marker lat="40.456581713944651" lng="-80.000332843470076" zone="Zone 1" incidentdate="2015-12-02" incidenttime="00:50:00" incidentnumber="15230330" address="E North Ave" type="OFFENSE" age="" gender="" description="*********************************************** &lt;br/&gt;9497, Aided Case&lt;br/&gt;"/><marker lat="40.418509780935644" lng="-79.988182748058577" zone="Zone 3" incidentdate="2015-12-02" incidenttime="17:37:00" incidentnumber="15230779" address="E Amanda Ave &amp; Arlington Ave" type="OFFENSE" age="" gender="" description="*********************************************** &lt;br/&gt;9999, 9999 - (Misc. Incident):&lt;br/&gt;"/><marker lat="40.5181718" lng="-80.0368775" zone="Zone 2" incidentdate="2015-12-02" incidenttime="16:00:00" incidentnumber="15230717" address="1300 block Central Ave" type="OFFENSE" age="" gender="" description="*********************************************** &lt;br/&gt;9999, 9999 - (Misc. Incident):&lt;br/&gt;"/><marker lat="40.412912128512517" lng="-80.010119905933863" zone="Zone 6" incidentdate="2015-12-02" incidenttime="16:45:00" incidentnumber="15230804" address="Pioneer Ave &amp; West Liberty Ave" type="OFFENSE" age="" gender="" description="*********************************************** &lt;br/&gt;3743, Accidents Involving Damage to Attended Veh. or Property&lt;br/&gt;"/><marker lat="40.427454597996189" lng="-79.98762519176347" zone="Zone 2" incidentdate="2015-12-02" incidenttime="18:10:00" incidentnumber="15230795" address="100 block 11th St" type="OFFENSE" age="" gender="" description="*********************************************** &lt;br/&gt;9497, Aided Case&lt;br/&gt;"/><marker lat="40.455504998738647" lng="-80.007850467221047" zone="Zone 5" incidentdate="2015-12-02" incidenttime="18:50:00" incidentnumber="15230837" address="100 block N Euclid Ave" type="OFFENSE" age="" gender="" description="*********************************************** &lt;br/&gt;3701, Robbery.&lt;br/&gt;903, Criminal Conspiracy.&lt;br/&gt;"/><marker lat="40.415900617060004" lng="-79.99061174896508" zone="Zone 3" incidentdate="2015-12-02" incidenttime="00:15:00" incidentnumber="15230313" address="200 block Zara St" type="OFFENSE" age="" gender="" description="*********************************************** &lt;br/&gt;13(a)(16), Possession of Controlled Substance&lt;br/&gt;"/><marker lat="40.491171083037642" lng="-80.019869774112294" zone="Zone 1" incidentdate="2015-12-02" incidenttime="01:39:00" incidentnumber="15230345" address="4000 block Perrysville Ave" type="OFFENSE" age="" gender="" description="*********************************************** &lt;br/&gt;029, Missing Juvenile&lt;br/&gt;"/><marker lat="40.428831695315139" lng="-79.982712224739444" zone="Zone 3" incidentdate="2015-12-02" incidenttime="01:00:00" incidentnumber="15230331" address="E Carson St &amp; S 16th St" type="OFFENSE" age="" gender="" description="*********************************************** &lt;br/&gt;3802(a)(1), DUI - General Impairment&lt;br/&gt;3802(c), DUI - Highest Rate of Alcohol - BAC &gt;= .16%&lt;br/&gt;3353, Prohibitions in Specified Places.&lt;br/&gt;"/><marker lat="40.482061761957844" lng="-80.01163075793238" zone="Zone 1" incidentdate="2015-12-02" incidenttime="16:15:00" incidentnumber="15230766" address="3400 block Portola St" type="OFFENSE" age="" gender="" description="*********************************************** &lt;br/&gt;3304, Criminal Mischief.&lt;br/&gt;"/><marker lat="40.438288712573893" lng="-79.988307080841821" zone="Zone 2" incidentdate="2015-12-02" incidenttime="17:30:00" incidentnumber="15230782" address="Watson St &amp; Magee St" type="OFFENSE" age="" gender="" description="*********************************************** &lt;br/&gt;3745, Accidents Involving Damage to Unattended Veh.or Prop.&lt;br/&gt;"/><marker lat="40.466882278815696" lng="-79.933782124356327" zone="Zone 5" incidentdate="2015-12-02" incidenttime="08:50:00" incidentnumber="15230488" address="300 block S Graham St" type="OFFENSE" age="" gender="" description="*********************************************** &lt;br/&gt;3934, Theft from Vehicle&lt;br/&gt;"/><marker lat="40.454614947288412" lng="-80.014854314791251" zone="Zone 1" incidentdate="2015-12-02" incidenttime="09:30:00" incidentnumber="15230697" address="1200 block Brighton Rd" type="OFFENSE" age="" gender="" description="*********************************************** &lt;br/&gt;3304, Criminal Mischief.&lt;br/&gt;"/><marker lat="40.451209746298005" lng="-80.021965140261187" zone="Zone 1" incidentdate="2015-12-02" incidenttime="18:00:00" incidentnumber="15230797" address="1200 block Western Ave" type="OFFENSE" age="" gender="" description="*********************************************** &lt;br/&gt;9124, Drug Investigation&lt;br/&gt;"/><marker lat="40.450823234429677" lng="-80.047347154659121" zone="Zone 6" incidentdate="2015-12-02" incidenttime="15:39:00" incidentnumber="15230687" address="Chartiers Ave &amp; Greenway School Dr" type="OFFENSE" age="" gender="" description="*********************************************** &lt;br/&gt;13(a)(16), Possession of Controlled Substance&lt;br/&gt;13(a)(32), Paraphernalia - Use or Possession&lt;br/&gt;1543, Driving While Operating Privilege is Suspended or Revoked.&lt;br/&gt;4914, False Identification to Law Enforcement Authorities&lt;br/&gt;3310, Following Too Closely.&lt;br/&gt;"/><marker lat="40.451095792564047" lng="-79.995841155725614" zone="Zone 1" incidentdate="2015-12-02" incidenttime="19:28:00" incidentnumber="15230855" address="800 block Progress St" type="OFFENSE" age="" gender="" description="*********************************************** &lt;br/&gt;9488, False  Burglar Alarm&lt;br/&gt;"/><marker lat="40.442266191240257" lng="-79.994528573458879" zone="Zone 2" incidentdate="2015-12-02" incidenttime="16:00:00" incidentnumber="15230667" address="700 block Grant St" type="OFFENSE" age="" gender="" description="*********************************************** &lt;br/&gt;2709(a)(1), Harassment by Physical Contact, or Attempts or Threats&lt;br/&gt;2706, Terroristic Threats.&lt;br/&gt;"/><marker lat="40.480990130382899" lng="-79.952709076064778" zone="Zone 2" incidentdate="2015-12-02" incidenttime="10:05:00" incidentnumber="15230547" address="100 block Mc Candless St" type="OFFENSE" age="" gender="" description="*********************************************** &lt;br/&gt;3743, Accidents Involving Damage to Attended Veh. or Property&lt;br/&gt;"/><marker lat="40.456129468098958" lng="-80.005653454006023" zone="Zone 1" incidentdate="2015-12-02" incidenttime="01:11:00" incidentnumber="15230322" address="1200 block Boyle St" type="OFFENSE" age="" gender="" description="*********************************************** &lt;br/&gt;9488, False  Burglar Alarm&lt;br/&gt;"/><marker lat="40.442888113190847" lng="-79.997936520552642" zone="Zone 2" incidentdate="2015-12-02" incidenttime="02:23:00" incidentnumber="15230329" address="900 block Liberty Ave" type="OFFENSE" age="" gender="" description="*********************************************** &lt;br/&gt;9488, False  Burglar Alarm&lt;br/&gt;"/><marker lat="40.4276365" lng="-79.9664315" zone="Zone 3" incidentdate="2015-12-02" incidenttime="20:20:00" incidentnumber="15230884" address="500 block S 27th St" type="OFFENSE" age="" gender="" description="*********************************************** &lt;br/&gt;3929(a)(1), Retail Theft; takes possession of, carries away, or transfers displayed merchandise&lt;br/&gt;"/><marker lat="40.464441156580989" lng="-79.936415907960978" zone="Zone 5" incidentdate="2015-12-02" incidenttime="15:30:00" incidentnumber="15230676" address="5400 block Penn Ave" type="OFFENSE" age="" gender="" description="*********************************************** &lt;br/&gt;2705, Recklessly Endangering Another Person.&lt;br/&gt;3701, Robbery.&lt;br/&gt;"/><marker lat="40.400478668891324" lng="-79.937687377290004" zone="Zone 4" incidentdate="2015-12-02" incidenttime="16:10:00" incidentnumber="15230750" address="100 block Alluvian St" type="OFFENSE" age="" gender="" description="*********************************************** &lt;br/&gt;9999, 9999 - (Misc. Incident):&lt;br/&gt;"/><marker lat="40.391177102725187" lng="-79.986909728912025" zone="Zone 3" incidentdate="2015-12-02" incidenttime="03:05:00" incidentnumber="15230381" address="2200 block Brownsville Rd" type="OFFENSE" age="" gender="" description="*********************************************** &lt;br/&gt;5104, Resisting Arrest or Other Law Enforcement.&lt;br/&gt;901, Criminal Attempt&lt;br/&gt;2701(a)(3), Simple Assault - Attempts by Physical Menace&lt;br/&gt;907, Possessing Instruments of Crime.&lt;br/&gt;3702, Robbery of Motor Vehicle.&lt;br/&gt;"/><marker lat="40.4530675" lng="-80.0030668" zone="Zone 1" incidentdate="2015-12-02" incidenttime="22:55:00" incidentnumber="15230940" address="200 block East Ohio St" type="OFFENSE" age="" gender="" description="*********************************************** &lt;br/&gt;13(a)(31), Marijuana: Possession Small Amount&lt;br/&gt;13(a)(32), Paraphernalia - Use or Possession&lt;br/&gt;4910, Tampering with or Fabricating Physical Evidence.&lt;br/&gt;5121, Escape.&lt;br/&gt;"/><marker lat="40.430762072355677" lng="-79.898936023072253" zone="Zone 4" incidentdate="2015-12-02" incidenttime="14:09:00" incidentnumber="15230647" address="Hutchinson St &amp; Richmond St" type="OFFENSE" age="" gender="" description="*********************************************** &lt;br/&gt;425.26, Miscellaneous&lt;br/&gt;"/><marker lat="40.422171501064383" lng="-79.991026696561363" zone="Zone 3" incidentdate="2015-12-02" incidenttime="15:48:00" incidentnumber="15230721" address="Brosville St" type="OFFENSE" age="" gender="" description="*********************************************** &lt;br/&gt;9489, Found Property&lt;br/&gt;"/><marker lat="40.437934090739112" lng="-80.018209264000305" zone="Zone 3" incidentdate="2015-12-02" incidenttime="03:15:00" incidentnumber="15230391" address="1200 block Grandview Ave" type="OFFENSE" age="" gender="" description="*********************************************** &lt;br/&gt;2702, Aggravated Assault.&lt;br/&gt;"/><marker lat="40.471059024723466" lng="-79.942573678576423" zone="Zone 4" incidentdate="2015-12-02" incidenttime="14:02:00" incidentnumber="12056165" address="Schenly Oval" type="ARREST" age="50" gender="M" description="*********************************************** &lt;br/&gt;3925, Receiving Stolen Property.&lt;br/&gt;7122, Altered, Forged or Counterfeit Documents and Plates&lt;br/&gt;"/><marker lat="40.463491101423543" lng="-79.91733643444087" zone="Zone 5" incidentdate="2015-12-02" incidenttime="19:00:00" incidentnumber="15230824" address="East Liberty Blvd &amp; Larimer Ave" type="ARREST" age="44" gender="F" description="*********************************************** &lt;br/&gt;13(a)(16), Possession of Controlled Substance&lt;br/&gt;13(a)(31), Marijuana: Possession Small Amount&lt;br/&gt;"/><marker lat="40.391177102725187" lng="-79.986909728912025" zone="Zone 3" incidentdate="2015-12-02" incidenttime="03:21:00" incidentnumber="15230381" address="2200 block Brownsville Rd" type="ARREST" age="25" gender="M" description="*********************************************** &lt;br/&gt;5104, Resisting Arrest or Other Law Enforcement.&lt;br/&gt;901, Criminal Attempt&lt;br/&gt;2701(a)(3), Simple Assault - Attempts by Physical Menace&lt;br/&gt;907, Possessing Instruments of Crime.&lt;br/&gt;3702, Robbery of Motor Vehicle.&lt;br/&gt;"/><marker lat="40.461274538426245" lng="-80.001662215865622" zone="Zone 1" incidentdate="2015-12-02" incidenttime="13:35:00" incidentnumber="15230627" address="Carrie St &amp; Henderson St" type="ARREST" age="19" gender="M" description="*********************************************** &lt;br/&gt;2705, Recklessly Endangering Another Person.&lt;br/&gt;2702, Aggravated Assault.&lt;br/&gt;4914, False Identification to Law Enforcement Authorities&lt;br/&gt;5121, Escape.&lt;br/&gt;6106, Firearms not to be Carried without a License.&lt;br/&gt;6105(a)(1), Persons not to possess, use, manufacture, control, sell or transfer firearms: Former convict enumerated in subsection (b)&lt;br/&gt;"/><marker lat="40.450823234429677" lng="-80.047347154659121" zone="Zone 6" incidentdate="2015-12-02" incidenttime="15:45:00" incidentnumber="15230687" address="Chartiers Ave &amp; Greenway School Dr" type="ARREST" age="21" gender="M" description="*********************************************** &lt;br/&gt;13(a)(16), Possession of Controlled Substance&lt;br/&gt;13(a)(32), Paraphernalia - Use or Possession&lt;br/&gt;1543, Driving While Operating Privilege is Suspended or Revoked.&lt;br/&gt;4914, False Identification to Law Enforcement Authorities&lt;br/&gt;3310, Following Too Closely.&lt;br/&gt;"/><marker lat="40.450823234429677" lng="-80.047347154659121" zone="Zone 6" incidentdate="2015-12-02" incidenttime="15:47:00" incidentnumber="15230687" address="Chartiers Ave &amp; Greenway School Dr" type="ARREST" age="56" gender="M" description="*********************************************** &lt;br/&gt;13(a)(16), Possession of Controlled Substance&lt;br/&gt;13(a)(32), Paraphernalia - Use or Possession&lt;br/&gt;1543, Driving While Operating Privilege is Suspended or Revoked.&lt;br/&gt;4914, False Identification to Law Enforcement Authorities&lt;br/&gt;3310, Following Too Closely.&lt;br/&gt;"/><marker lat="40.406291144733899" lng="-79.939750564272074" zone="Zone 4" incidentdate="2015-12-02" incidenttime="10:30:00" incidentnumber="15226823" address="5200 block Glenwood Ave" type="ARREST" age="26" gender="M" description="*********************************************** &lt;br/&gt;2705, Recklessly Endangering Another Person.&lt;br/&gt;2702, Aggravated Assault.&lt;br/&gt;901, Criminal Attempt&lt;br/&gt;8106, Shots Fired&lt;br/&gt;"/><marker lat="40.436055445481003" lng="-80.033852288679995" zone="Zone 6" incidentdate="2015-12-02" incidenttime="12:45:00" incidentnumber="15201754" address="Wabash St &amp; Mc Cartney St" type="ARREST" age="28" gender="M" description="*********************************************** &lt;br/&gt;13(a)(32), Paraphernalia - Use or Possession&lt;br/&gt;9015, Failure To Appear/Arrest on Attachment Order&lt;br/&gt;1543, Driving While Operating Privilege is Suspended or Revoked.&lt;br/&gt;3714, Careless Driving&lt;br/&gt;3322, Vehicle Turning Left.&lt;br/&gt;"/><marker lat="40.453312242754301" lng="-80.001693845474151" zone="Zone 1" incidentdate="2015-12-02" incidenttime="12:50:00" incidentnumber="15224998" address="Cedar Ave &amp; East Ohio St" type="ARREST" age="30" gender="M" description="*********************************************** &lt;br/&gt;2702, Aggravated Assault.&lt;br/&gt;"/><marker lat="40.383627811328978" lng="-80.010426214365054" zone="Zone 6" incidentdate="2015-12-02" incidenttime="14:00:00" incidentnumber="15101046" address="1200 block Chelton Ave" type="ARREST" age="28" gender="M" description="*********************************************** &lt;br/&gt;13(a)(16), Possession of Controlled Substance&lt;br/&gt;13(a)(30), Possession w/ Intent to Del. Controlled Substance&lt;br/&gt;13(a)(30)*, Delivery of Controlled Substance&lt;br/&gt;13(a)(32), Paraphernalia - Use or Possession&lt;br/&gt;2705, Recklessly Endangering Another Person.&lt;br/&gt;7512, Criminal Use of Communication&lt;br/&gt;"/><marker lat="40.3962284495828" lng="-80.023740009052389" zone="Zone 6" incidentdate="2015-12-02" incidenttime="14:30:00" incidentnumber="15141562" address="2600 block Pioneer Ave" type="ARREST" age="0" gender="M" description="*********************************************** &lt;br/&gt;3921, Theft by Unlawful Taking or Disposition.&lt;br/&gt;3925, Receiving Stolen Property.&lt;br/&gt;"/><marker lat="40.463491101423543" lng="-79.91733643444087" zone="Zone 5" incidentdate="2015-12-02" incidenttime="19:00:00" incidentnumber="15230824" address="East Liberty Blvd &amp; Larimer Ave" type="ARREST" age="24" gender="M" description="*********************************************** &lt;br/&gt;13(a)(16), Possession of Controlled Substance&lt;br/&gt;13(a)(31), Marijuana: Possession Small Amount&lt;br/&gt;"/><marker lat="40.410622077894772" lng="-80.022911507373166" zone="Zone 6" incidentdate="2015-12-02" incidenttime="16:45:00" incidentnumber="15154687" address="1600 block Dagmar Ave" type="ARREST" age="23" gender="F" description="*********************************************** &lt;br/&gt;3921, Theft by Unlawful Taking or Disposition.&lt;br/&gt;4106, Access Device Fraud&lt;br/&gt;"/><marker lat="40.4560814306125" lng="-79.91534375922059" zone="Zone 5" incidentdate="2015-12-02" incidenttime="00:42:00" incidentnumber="15230318" address="100 block Bakery Square Blvd" type="ARREST" age="29" gender="M" description="*********************************************** &lt;br/&gt;3502, Burglary.&lt;br/&gt;13(a)(16), Possession of Controlled Substance&lt;br/&gt;13(a)(32), Paraphernalia - Use or Possession&lt;br/&gt;3304, Criminal Mischief.&lt;br/&gt;"/><marker lat="40.458313629612618" lng="-79.891012641854417" zone="Zone 5" incidentdate="2015-12-02" incidenttime="14:35:00" incidentnumber="15223233" address="7400 block Monticello St" type="ARREST" age="29" gender="F" description="*********************************************** &lt;br/&gt;2701, Simple Assault.&lt;br/&gt;4952, Intimidation of Witnesses or Victims&lt;br/&gt;"/><marker lat="40.4530675" lng="-80.0030668" zone="Zone 1" incidentdate="2015-12-02" incidenttime="22:55:00" incidentnumber="15230940" address="200 block East Ohio St" type="ARREST" age="22" gender="M" description="*********************************************** &lt;br/&gt;13(a)(31), Marijuana: Possession Small Amount&lt;br/&gt;13(a)(32), Paraphernalia - Use or Possession&lt;br/&gt;4910, Tampering with or Fabricating Physical Evidence.&lt;br/&gt;5121, Escape.&lt;br/&gt;"/><marker lat="40.415900617060004" lng="-79.99061174896508" zone="Zone 3" incidentdate="2015-12-02" incidenttime="00:15:00" incidentnumber="15230313" address="200 block Zara St" type="ARREST" age="29" gender="M" description="*********************************************** &lt;br/&gt;13(a)(16), Possession of Controlled Substance&lt;br/&gt;"/><marker lat="40.438746720963323" lng="-79.965505248712333" zone="Zone 4" incidentdate="2015-12-02" incidenttime="20:24:00" incidentnumber="15222535" address="100 block Robinson St" type="ARREST" age="20" gender="M" description="*********************************************** &lt;br/&gt;3701, Robbery.&lt;br/&gt;"/><marker lat="40.452841769688419" lng="-79.891813206508516" zone="Zone 5" incidentdate="2015-12-02" incidenttime="02:21:00" incidentnumber="15230356" address="7500 block Mulford St" type="ARREST" age="54" gender="F" description="*********************************************** &lt;br/&gt;2701, Simple Assault.&lt;br/&gt;"/><marker lat="40.441234571705877" lng="-80.003477050749922" zone="Zone 2" incidentdate="2015-12-02" incidenttime="07:32:00" incidentnumber="15230428" address="500 block Liberty Ave" type="ARREST" age="36" gender="F" description="*********************************************** &lt;br/&gt;13(a)(16), Possession of Controlled Substance&lt;br/&gt;"/><marker lat="40.428831695315139" lng="-79.982712224739444" zone="Zone 3" incidentdate="2015-12-02" incidenttime="01:07:00" incidentnumber="15230331" address="E Carson St &amp; S 16th St" type="ARREST" age="21" gender="M" description="*********************************************** &lt;br/&gt;3802(a)(1), DUI - General Impairment&lt;br/&gt;3802(c), DUI - Highest Rate of Alcohol - BAC &gt;= .16%&lt;br/&gt;3353, Prohibitions in Specified Places.&lt;br/&gt;"/><marker lat="40.423622007225454" lng="-79.993693050792444" zone="Zone 3" incidentdate="2015-12-02" incidenttime="05:00:00" incidentnumber="15230412" address="800 block Eureka St" type="ARREST" age="29" gender="M" description="*********************************************** &lt;br/&gt;3304, Criminal Mischief.&lt;br/&gt;3503, Criminal Trespass&lt;br/&gt;"/></markers>
