<?xml version="1.0"?>
<markers><marker lat="40.471012276973703" lng="-80.016772844247583" zone="Zone 1" incidentdate="2015-02-18" incidenttime="13:30:00" incidentnumber="15029166" address="500 block Marshall Ave" type="OFFENSE" age="" gender="" description="*********************************************** &lt;br/&gt;2702, Aggravated Assault.&lt;br/&gt;"/><marker lat="40.482912027056557" lng="-80.045339855362599" zone="Zone 1" incidentdate="2015-02-18" incidenttime="17:24:00" incidentnumber="15029263" address="Termon Ave &amp; Millerton Ave" type="OFFENSE" age="" gender="" description="*********************************************** &lt;br/&gt;3714, Careless Driving&lt;br/&gt;3736, Reckless Driving&lt;br/&gt;3743, Accidents Involving Damage to Attended Veh. or Property&lt;br/&gt;2705, Recklessly Endangering Another Person.&lt;br/&gt;3304, Criminal Mischief.&lt;br/&gt;"/><marker lat="40.457563513130026" lng="-79.997923771045023" zone="Zone 1" incidentdate="2015-02-18" incidenttime="20:30:00" incidentnumber="15029379" address="Ohio River Blvd &amp; Chateau St Ramp" type="OFFENSE" age="" gender="" description="*********************************************** &lt;br/&gt;3714, Careless Driving&lt;br/&gt;3743, Accidents Involving Damage to Attended Veh. or Property&lt;br/&gt;3736, Reckless Driving&lt;br/&gt;"/><marker lat="40.434696587775576" lng="-79.996300985228572" zone="Zone 2" incidentdate="2015-02-18" incidenttime="13:21:00" incidentnumber="15029160" address="1500 block Bedford Ave" type="OFFENSE" age="" gender="" description="*********************************************** &lt;br/&gt;2702, Aggravated Assault.&lt;br/&gt;"/><marker lat="40.420846354403423" lng="-79.991767714991497" zone="Zone 3" incidentdate="2015-02-18" incidenttime="00:46:00" incidentnumber="15028914" address="Arlington Ave &amp; Industry St" type="OFFENSE" age="" gender="" description="*********************************************** &lt;br/&gt;13(a)(31)(i), Marijuana - Possess Small Amt for Personal Use&lt;br/&gt;3334, Turning Movements and Required Signals.&lt;br/&gt;"/><marker lat="40.407435133532175" lng="-79.992595304592015" zone="Zone 3" incidentdate="2015-02-18" incidenttime="08:15:00" incidentnumber="15029018" address="200 block Wilbur St" type="OFFENSE" age="" gender="" description="*********************************************** &lt;br/&gt;1543, Driving While Operating Privilege is Suspended or Revoked.&lt;br/&gt;13(a)(16), Possession of Controlled Substance&lt;br/&gt;13(a)(30), Possession w/ Intent to Del. Controlled Substance&lt;br/&gt;3928, Unauthorized Use of Automobile and Other Vehicles.&lt;br/&gt;13(a)(32), Paraphernalia - Use or Possession&lt;br/&gt;6117, Altering or Obliterating Marks of Identification.&lt;br/&gt;3736, Reckless Driving&lt;br/&gt;6105(a)(1), Persons not to possess, use, manufacture, control, sell or transfer firearms: Former convict enumerated in subsection (b)&lt;br/&gt;3733, Fleeing or Attempting to Elude Police Officer&lt;br/&gt;13(a)(31), Marijuana: Possession Small Amount&lt;br/&gt;"/><marker lat="40.461444187210184" lng="-79.892272507182355" zone="Zone 5" incidentdate="2015-02-18" incidenttime="22:32:00" incidentnumber="15029434" address="7300 block Upland St" type="OFFENSE" age="" gender="" description="*********************************************** &lt;br/&gt;2701, Simple Assault.&lt;br/&gt;"/><marker lat="40.457080522724901" lng="-79.9917146785331" zone="Zone 1" incidentdate="2015-02-18" incidenttime="05:31:00" incidentnumber="15029005" address="800 block Vinial St" type="OFFENSE" age="" gender="" description="*********************************************** &lt;br/&gt;3934, Theft from Vehicle&lt;br/&gt;"/><marker lat="40.368364081749228" lng="-79.920591588339761" zone="Zone 4" incidentdate="2015-02-18" incidenttime="07:30:00" incidentnumber="15029029" address="1000 block Muldowney Ave" type="OFFENSE" age="" gender="" description="*********************************************** &lt;br/&gt;3502, Burglary.&lt;br/&gt;"/><marker lat="40.41227198237857" lng="-79.991352857551959" zone="Zone 3" incidentdate="2015-02-18" incidenttime="11:00:00" incidentnumber="15029109" address="200 block Arabella St" type="OFFENSE" age="" gender="" description="*********************************************** &lt;br/&gt;4106, Access Device Fraud&lt;br/&gt;"/><marker lat="40.41587374641999" lng="-79.974749103210542" zone="Zone 3" incidentdate="2015-02-18" incidenttime="07:15:00" incidentnumber="15029025" address="Jonquil Way &amp; Sterling St" type="OFFENSE" age="" gender="" description="*********************************************** &lt;br/&gt;3743, Accidents Involving Damage to Attended Veh. or Property&lt;br/&gt;"/><marker lat="40.457563513130026" lng="-79.997923771045023" zone="Zone 1" incidentdate="2015-02-18" incidenttime="18:19:00" incidentnumber="15029304" address="800 block Concord St" type="OFFENSE" age="" gender="" description="*********************************************** &lt;br/&gt;9488, False  Burglar Alarm&lt;br/&gt;"/><marker lat="40.462257155598245" lng="-79.921709557324306" zone="Zone 5" incidentdate="2015-02-18" incidenttime="18:30:00" incidentnumber="15029317" address="Centre Ave &amp; Harvard Sq" type="OFFENSE" age="" gender="" description="*********************************************** &lt;br/&gt;13(a)(31), Marijuana: Possession Small Amount&lt;br/&gt;1543, Driving While Operating Privilege is Suspended or Revoked.&lt;br/&gt;3334, Turning Movements and Required Signals.&lt;br/&gt;3323, Stop Signs and Yield Signs.&lt;br/&gt;"/><marker lat="40.420846354403423" lng="-79.991767714991497" zone="Zone 3" incidentdate="2015-02-18" incidenttime="01:45:00" incidentnumber="15028986" address="Saw Mill Run Blvd &amp; Maytide St" type="OFFENSE" age="" gender="" description="*********************************************** &lt;br/&gt;3304, Criminal Mischief.&lt;br/&gt;2701, Simple Assault.&lt;br/&gt;"/><marker lat="40.458608795008487" lng="-79.902074938407978" zone="Zone 5" incidentdate="2015-02-18" incidenttime="02:45:00" incidentnumber="15028965" address="900 block Gerritt St" type="OFFENSE" age="" gender="" description="*********************************************** &lt;br/&gt;2709.1, Stalking Conduct or Repeatedly Acts Including Follows&lt;br/&gt;3304, Criminal Mischief.&lt;br/&gt;"/><marker lat="40.457837653123157" lng="-79.898482668870983" zone="Zone 5" incidentdate="2015-02-18" incidenttime="00:38:00" incidentnumber="15028902" address="7100 block Frankstown Ave" type="OFFENSE" age="" gender="" description="*********************************************** &lt;br/&gt;9999, 9999 - (Misc. Incident):&lt;br/&gt;"/><marker lat="40.413021286036582" lng="-80.021173030556767" zone="Zone 6" incidentdate="2015-02-18" incidenttime="20:18:00" incidentnumber="15029372" address="1400 block Alton St" type="OFFENSE" age="" gender="" description="*********************************************** &lt;br/&gt;9489, Found Property&lt;br/&gt;"/><marker lat="40.455621040819977" lng="-79.896671260385219" zone="Zone 5" incidentdate="2015-02-18" incidenttime="04:17:00" incidentnumber="15028987" address="700 block N Homewood Ave" type="OFFENSE" age="" gender="" description="*********************************************** &lt;br/&gt;9999, 9999 - (Misc. Incident):&lt;br/&gt;"/><marker lat="40.457563513130026" lng="-79.997923771045023" zone="Zone 1" incidentdate="2015-02-18" incidenttime="18:20:00" incidentnumber="15029356" address="Rialto St &amp; E Ohio St" type="OFFENSE" age="" gender="" description="*********************************************** &lt;br/&gt;3743, Accidents Involving Damage to Attended Veh. or Property&lt;br/&gt;"/><marker lat="40.481107601332575" lng="-80.045139143402906" zone="Zone 1" incidentdate="2015-02-18" incidenttime="13:09:00" incidentnumber="15029155" address="3700 block Hiawatha St" type="OFFENSE" age="" gender="" description="*********************************************** &lt;br/&gt;9488, False  Burglar Alarm&lt;br/&gt;"/><marker lat="40.482879021356389" lng="-80.04453300763744" zone="Zone 1" incidentdate="2015-02-18" incidenttime="10:55:00" incidentnumber="15029150" address="2000 block Termon Ave" type="OFFENSE" age="" gender="" description="*********************************************** &lt;br/&gt;029, Missing Juvenile&lt;br/&gt;"/><marker lat="40.482243758392855" lng="-80.010678865864747" zone="Zone 1" incidentdate="2015-02-18" incidenttime="21:25:00" incidentnumber="15029413" address="3400 block Delaware St" type="OFFENSE" age="" gender="" description="*********************************************** &lt;br/&gt;2709, Harassment (Non-Specific)&lt;br/&gt;"/><marker lat="40.455510923715885" lng="-79.890193619894021" zone="Zone 5" incidentdate="2015-02-18" incidenttime="21:31:00" incidentnumber="15029419" address="Felicia Way &amp; N Braddock Ave" type="OFFENSE" age="" gender="" description="*********************************************** &lt;br/&gt;13(a)(31), Marijuana: Possession Small Amount&lt;br/&gt;4303, General Lighting Requirements.&lt;br/&gt;13(a)(32), Paraphernalia - Use or Possession&lt;br/&gt;"/><marker lat="40.457563513130026" lng="-79.997923771045023" zone="Zone 1" incidentdate="2015-02-18" incidenttime="19:30:00" incidentnumber="15029345" address="3500 block Oklahoma St" type="OFFENSE" age="" gender="" description="*********************************************** &lt;br/&gt;3502, Burglary.&lt;br/&gt;"/><marker lat="40.382689605941358" lng="-79.984812458579711" zone="Zone 3" incidentdate="2015-02-18" incidenttime="00:14:00" incidentnumber="15028896" address="300 block Sunnyland Ave" type="OFFENSE" age="" gender="" description="*********************************************** &lt;br/&gt;3745, Accidents Involving Damage to Unattended Veh.or Prop.&lt;br/&gt;"/><marker lat="40.472251886400727" lng="-79.928338201140335" zone="Zone 5" incidentdate="2015-02-18" incidenttime="12:30:00" incidentnumber="15029136" address="5500 block Stanton Ave" type="OFFENSE" age="" gender="" description="*********************************************** &lt;br/&gt;9490, Missing Persons (18 and Over)&lt;br/&gt;"/><marker lat="40.445073876850095" lng="-79.936039925990855" zone="Zone 4" incidentdate="2015-02-18" incidenttime="09:00:00" incidentnumber="15029198" address="5200 block Beeler St" type="OFFENSE" age="" gender="" description="*********************************************** &lt;br/&gt;4120, Identity Theft&lt;br/&gt;"/><marker lat="40.442882553943193" lng="-80.054884406124557" zone="Zone 6" incidentdate="2015-02-18" incidenttime="12:49:00" incidentnumber="15029149" address="200 block Hollywood St" type="OFFENSE" age="" gender="" description="*********************************************** &lt;br/&gt;029, Missing Juvenile&lt;br/&gt;"/><marker lat="40.417740125103577" lng="-79.995556616841256" zone="Zone 3" incidentdate="2015-02-18" incidenttime="16:05:00" incidentnumber="15029217" address="400 block Orchard Pl" type="OFFENSE" age="" gender="" description="*********************************************** &lt;br/&gt;9488, False  Burglar Alarm&lt;br/&gt;"/><marker lat="40.385891735246354" lng="-79.978254236122268" zone="Zone 3" incidentdate="2015-02-18" incidenttime="12:15:00" incidentnumber="15029143" address="100 block Kirk Ave" type="OFFENSE" age="" gender="" description="*********************************************** &lt;br/&gt;13(a)(16), Possession of Controlled Substance&lt;br/&gt;13(a)(32), Paraphernalia - Use or Possession&lt;br/&gt;"/><marker lat="40.414185826150991" lng="-79.995042090433813" zone="Zone 3" incidentdate="2015-02-18" incidenttime="21:15:00" incidentnumber="12216844" address="400 block Bausman St" type="OFFENSE" age="" gender="" description="*********************************************** &lt;br/&gt;3502, Burglary.&lt;br/&gt;"/><marker lat="40.449985943095825" lng="-79.967362954717203" zone="Zone 2" incidentdate="2015-02-18" incidenttime="03:12:00" incidentnumber="15028977" address="600 block Hollace St" type="OFFENSE" age="" gender="" description="*********************************************** &lt;br/&gt;3921(a), Theft by Unlawful Taking or Disposition - Movable item&lt;br/&gt;"/><marker lat="40.4193453042814" lng="-79.966561266070158" zone="Zone 1" incidentdate="2015-02-18" incidenttime="10:30:00" incidentnumber="15029118" address="Northview Heights" type="OFFENSE" age="" gender="" description="*********************************************** &lt;br/&gt;029, Missing Juvenile&lt;br/&gt;"/><marker lat="40.475970803438344" lng="-80.003076972725822" zone="Zone 1" incidentdate="2015-02-18" incidenttime="12:45:00" incidentnumber="15029282" address="100 block Hazlett St" type="OFFENSE" age="" gender="" description="*********************************************** &lt;br/&gt;4106, Access Device Fraud&lt;br/&gt;3502, Burglary.&lt;br/&gt;"/><marker lat="40.378544560850742" lng="-80.0017229558362" zone="Zone 3" incidentdate="2015-02-18" incidenttime="07:45:00" incidentnumber="15029042" address="2700 block Kingwood St" type="OFFENSE" age="" gender="" description="*********************************************** &lt;br/&gt;3304, Criminal Mischief.&lt;br/&gt;"/><marker lat="40.414205883123259" lng="-80.009519955943716" zone="Zone 3" incidentdate="2015-02-18" incidenttime="06:30:00" incidentnumber="15029022" address="Liberty Tunl" type="OFFENSE" age="" gender="" description="*********************************************** &lt;br/&gt;3304, Criminal Mischief.&lt;br/&gt;"/><marker lat="40.445099987229362" lng="-79.999050002208406" zone="Zone 2" incidentdate="2015-02-18" incidenttime="13:30:00" incidentnumber="15029209" address="100 block 9th St" type="OFFENSE" age="" gender="" description="*********************************************** &lt;br/&gt;029, Missing Juvenile&lt;br/&gt;"/><marker lat="40.490051116731578" lng="-80.015624160322076" zone="Zone 1" incidentdate="2015-02-18" incidenttime="10:00:00" incidentnumber="15029084" address="200 block Bonvue St" type="OFFENSE" age="" gender="" description="*********************************************** &lt;br/&gt;9504, Lost Property&lt;br/&gt;"/><marker lat="40.391346677185638" lng="-79.987901085631847" zone="Zone 3" incidentdate="2015-02-18" incidenttime="15:00:00" incidentnumber="15029197" address="100 block Parkfield St" type="OFFENSE" age="" gender="" description="*********************************************** &lt;br/&gt;3745, Accidents Involving Damage to Unattended Veh.or Prop.&lt;br/&gt;"/><marker lat="40.458546551514743" lng="-80.012726223345538" zone="Zone 1" incidentdate="2015-02-18" incidenttime="20:45:00" incidentnumber="15029389" address="500 block Armandale St" type="OFFENSE" age="" gender="" description="*********************************************** &lt;br/&gt;13(a)(33)(i), Possession with Intent to Del. - Under 18&lt;br/&gt;6110.1, Possesion of Firearm by Minor&lt;br/&gt;13(a)(16), Possession of Controlled Substance&lt;br/&gt;13(a)(30), Possession w/ Intent to Del. Controlled Substance&lt;br/&gt;13(a)(32), Paraphernalia - Use or Possession&lt;br/&gt;"/><marker lat="40.42178880507479" lng="-79.991913102223009" zone="Zone 3" incidentdate="2015-02-18" incidenttime="21:11:00" incidentnumber="15029398" address="E Warrington Ave &amp; Brosville St" type="OFFENSE" age="" gender="" description="*********************************************** &lt;br/&gt;4303, General Lighting Requirements.&lt;br/&gt;13(a)(16), Possession of Controlled Substance&lt;br/&gt;1543, Driving While Operating Privilege is Suspended or Revoked.&lt;br/&gt;"/><marker lat="40.449477191482259" lng="-79.872572603046294" zone="Zone 5" incidentdate="2015-02-18" incidenttime="04:40:00" incidentnumber="15029211" address="2000 block Calistoga Pl" type="OFFENSE" age="" gender="" description="*********************************************** &lt;br/&gt;3502, Burglary.&lt;br/&gt;"/><marker lat="40.397123531939101" lng="-79.9881756213681" zone="Zone 3" incidentdate="2015-02-18" incidenttime="23:16:00" incidentnumber="15029443" address="1800 block Brownsville Rd" type="OFFENSE" age="" gender="" description="*********************************************** &lt;br/&gt;9488, False  Burglar Alarm&lt;br/&gt;"/><marker lat="40.468074486445026" lng="-79.894414077799127" zone="Zone 5" incidentdate="2015-02-18" incidenttime="16:00:00" incidentnumber="15029281" address="1400 block Westmoreland St" type="OFFENSE" age="" gender="" description="*********************************************** &lt;br/&gt;3502, Burglary.&lt;br/&gt;"/><marker lat="40.4283102180068" lng="-79.977507484026688" zone="Zone 3" incidentdate="2015-02-18" incidenttime="11:30:00" incidentnumber="15029235" address="2000 block E Carson St" type="OFFENSE" age="" gender="" description="*********************************************** &lt;br/&gt;3921, Theft by Unlawful Taking or Disposition.&lt;br/&gt;2709(a)(1), Harassment by Physical Contact, or Attempts or Threats&lt;br/&gt;"/><marker lat="40.452568778107079" lng="-80.019180498158363" zone="Zone 1" incidentdate="2015-02-18" incidenttime="16:00:00" incidentnumber="15029224" address="1000 block Allegheny Ave" type="OFFENSE" age="" gender="" description="*********************************************** &lt;br/&gt;3921(a), Theft by Unlawful Taking or Disposition - Movable item&lt;br/&gt;"/><marker lat="40.414185826150991" lng="-79.995042090433813" zone="Zone 3" incidentdate="2015-02-18" incidenttime="22:42:00" incidentnumber="15029437" address="Saw Mill Run Blvd &amp; Woodruff St" type="OFFENSE" age="" gender="" description="*********************************************** &lt;br/&gt;3802(a)(1), DUI - General Impairment&lt;br/&gt;"/><marker lat="40.441372308321661" lng="-79.923287923128115" zone="Zone 4" incidentdate="2015-02-18" incidenttime="14:10:00" incidentnumber="15016189" address="5800 block Northumberland St" type="OFFENSE" age="" gender="" description="*********************************************** &lt;br/&gt;13(a)(16), Possession of Controlled Substance&lt;br/&gt;9124, Drug Investigation&lt;br/&gt;13(a)(30), Possession w/ Intent to Del. Controlled Substance&lt;br/&gt;13(a)(32), Paraphernalia - Use or Possession&lt;br/&gt;13(a)(30)*, Delivery of Controlled Substance&lt;br/&gt;"/><marker lat="40.401813135737179" lng="-80.042389059362733" zone="Zone 6" incidentdate="2015-02-18" incidenttime="21:40:00" incidentnumber="15029422" address="3000 block Banksville Rd" type="OFFENSE" age="" gender="" description="*********************************************** &lt;br/&gt;9488, False  Burglar Alarm&lt;br/&gt;"/><marker lat="40.43007247445037" lng="-80.053908499092216" zone="Zone 6" incidentdate="2015-02-18" incidenttime="17:10:00" incidentnumber="15029298" address="2200 block Noblestown Rd" type="OFFENSE" age="" gender="" description="*********************************************** &lt;br/&gt;3929, Retail Theft.&lt;br/&gt;"/><marker lat="40.46740800637123" lng="-80.01047380717246" zone="Zone 1" incidentdate="2015-02-18" incidenttime="11:30:00" incidentnumber="15029114" address="100 block Maywood St" type="OFFENSE" age="" gender="" description="*********************************************** &lt;br/&gt;4120, Identity Theft&lt;br/&gt;"/><marker lat="40.448840773567333" lng="-79.973973354239064" zone="Zone 2" incidentdate="2015-02-18" incidenttime="21:10:00" incidentnumber="15029412" address="2400 block Webster Ave" type="OFFENSE" age="" gender="" description="*********************************************** &lt;br/&gt;2701, Simple Assault.&lt;br/&gt;"/><marker lat="40.487551319845878" lng="-80.016020890107271" zone="Zone 1" incidentdate="2015-02-18" incidenttime="01:52:00" incidentnumber="15028946" address="3800 block Perrysville Ave" type="OFFENSE" age="" gender="" description="*********************************************** &lt;br/&gt;9488, False  Burglar Alarm&lt;br/&gt;"/><marker lat="40.455526459350949" lng="-79.888093103464158" zone="Zone 5" incidentdate="2015-02-18" incidenttime="04:00:00" incidentnumber="15028991" address="Frankstown Ave &amp; Brushton Ave" type="OFFENSE" age="" gender="" description="*********************************************** &lt;br/&gt;9497, Aided Case&lt;br/&gt;"/><marker lat="40.454136833164974" lng="-80.001939797868459" zone="Zone 1" incidentdate="2015-02-18" incidenttime="13:48:00" incidentnumber="15029173" address="400 block Foreland St" type="OFFENSE" age="" gender="" description="*********************************************** &lt;br/&gt;13(a)(16), Possession of Controlled Substance&lt;br/&gt;13(a)(30), Possession w/ Intent to Del. Controlled Substance&lt;br/&gt;"/><marker lat="40.46442864138092" lng="-80.053173771735089" zone="Zone 6" incidentdate="2015-02-18" incidenttime="01:18:00" incidentnumber="15028928" address="Stanhope St &amp; W Carson St" type="OFFENSE" age="" gender="" description="*********************************************** &lt;br/&gt;3308, One-Way Roadways and Rotary Traffic Islands.&lt;br/&gt;3802(a)(1), DUI - General Impairment&lt;br/&gt;3802(c), DUI - Highest Rate of Alcohol - BAC &gt;= .16%&lt;br/&gt;"/><marker lat="40.461444187210184" lng="-79.892272507182355" zone="Zone 6" incidentdate="2015-02-18" incidenttime="00:02:00" incidentnumber="15028890" address="600 block Hillsboro St" type="OFFENSE" age="" gender="" description="*********************************************** &lt;br/&gt;2709(a), Harassment.&lt;br/&gt;"/><marker lat="40.420999733694813" lng="-79.921878690608111" zone="Zone 4" incidentdate="2015-02-18" incidenttime="08:00:00" incidentnumber="15029199" address="3100 block Beechwood Blvd" type="OFFENSE" age="" gender="" description="*********************************************** &lt;br/&gt;3922, Theft by Deception.&lt;br/&gt;"/><marker lat="40.457788117409535" lng="-79.878225068212814" zone="Zone 5" incidentdate="2015-02-18" incidenttime="17:45:00" incidentnumber="15029275" address="8400 block Dersam St" type="OFFENSE" age="" gender="" description="*********************************************** &lt;br/&gt;3502, Burglary.&lt;br/&gt;"/><marker lat="40.474257123372347" lng="-80.013666594855891" zone="Zone 1" incidentdate="2015-02-18" incidenttime="08:40:00" incidentnumber="15029045" address="300 block Kennedy Ave" type="OFFENSE" age="" gender="" description="*********************************************** &lt;br/&gt;9488, False  Burglar Alarm&lt;br/&gt;"/><marker lat="40.473064336961379" lng="-79.919546436401845" zone="Zone 5" incidentdate="2015-02-18" incidenttime="14:15:00" incidentnumber="15029194" address="100 block N Highland Ave" type="OFFENSE" age="" gender="" description="*********************************************** &lt;br/&gt;3745, Accidents Involving Damage to Unattended Veh.or Prop.&lt;br/&gt;"/><marker lat="40.46740800637123" lng="-80.01047380717246" zone="Zone 1" incidentdate="2015-02-18" incidenttime="12:30:00" incidentnumber="15029145" address="100 block Hemphill St" type="OFFENSE" age="" gender="" description="*********************************************** &lt;br/&gt;3934, Theft from Vehicle&lt;br/&gt;"/><marker lat="40.424963474529918" lng="-80.020029681866973" zone="Zone 3" incidentdate="2015-02-18" incidenttime="15:15:00" incidentnumber="15029204" address="1000 block E Saw Mill Run Blvd" type="OFFENSE" age="" gender="" description="*********************************************** &lt;br/&gt;3743, Accidents Involving Damage to Attended Veh. or Property&lt;br/&gt;"/><marker lat="40.457080522724901" lng="-79.9917146785331" zone="Zone 1" incidentdate="2015-02-18" incidenttime="07:30:00" incidentnumber="15029120" address="100 block Hemphill St" type="OFFENSE" age="" gender="" description="*********************************************** &lt;br/&gt;3934, Theft from Vehicle&lt;br/&gt;"/><marker lat="40.478108780040486" lng="-79.955158548090708" zone="Zone 2" incidentdate="2015-02-18" incidenttime="12:30:00" incidentnumber="15029142" address="5100 block Dresden Way" type="OFFENSE" age="" gender="" description="*********************************************** &lt;br/&gt;9496, Dead on Arrival (DOA)&lt;br/&gt;"/><marker lat="40.458313629612618" lng="-79.891012641854417" zone="Zone 5" incidentdate="2015-02-18" incidenttime="01:28:00" incidentnumber="15028935" address="7400 block Monticello St" type="OFFENSE" age="" gender="" description="*********************************************** &lt;br/&gt;2701, Simple Assault.&lt;br/&gt;"/><marker lat="40.449072841497312" lng="-79.883741917226331" zone="Zone 5" incidentdate="2015-02-18" incidenttime="03:41:00" incidentnumber="15028982" address="500 block Oakwood St" type="OFFENSE" age="" gender="" description="*********************************************** &lt;br/&gt;1543, Driving While Operating Privilege is Suspended or Revoked.&lt;br/&gt;13(a)(30), Possession w/ Intent to Del. Controlled Substance&lt;br/&gt;3928, Unauthorized Use of Automobile and Other Vehicles.&lt;br/&gt;3802(c), DUI - Highest Rate of Alcohol - BAC &gt;= .16%&lt;br/&gt;3802(a)(1), DUI - General Impairment&lt;br/&gt;"/><marker lat="40.451209746298005" lng="-80.021965140261187" zone="Zone 1" incidentdate="2015-02-18" incidenttime="12:31:00" incidentnumber="15029128" address="1200 block Western Ave" type="OFFENSE" age="" gender="" description="*********************************************** &lt;br/&gt;9999, 9999 - (Misc. Incident):&lt;br/&gt;"/><marker lat="40.443230518813948" lng="-80.000259352054542" zone="Zone 2" incidentdate="2015-02-18" incidenttime="22:04:00" incidentnumber="15029432" address="Penn Ave &amp; 7th St" type="OFFENSE" age="" gender="" description="*********************************************** &lt;br/&gt;9501, Bench Warrant&lt;br/&gt;"/><marker lat="40.45584959643125" lng="-79.930434547158555" zone="Zone 4" incidentdate="2015-02-18" incidenttime="17:40:00" incidentnumber="15029302" address="5800 block Ellsworth Ave" type="OFFENSE" age="" gender="" description="*********************************************** &lt;br/&gt;9999, 9999 - (Misc. Incident):&lt;br/&gt;"/><marker lat="40.438943794278437" lng="-79.956702987700893" zone="Zone 4" incidentdate="2015-02-18" incidenttime="22:15:00" incidentnumber="15029421" address="300 block Meyran Ave" type="OFFENSE" age="" gender="" description="*********************************************** &lt;br/&gt;9501, Bench Warrant&lt;br/&gt;"/><marker lat="40.461586857098283" lng="-80.053375285712278" zone="Zone 6" incidentdate="2015-02-18" incidenttime="11:50:00" incidentnumber="15029132" address="3300 block Oregon St" type="OFFENSE" age="" gender="" description="*********************************************** &lt;br/&gt;9999, 9999 - (Misc. Incident):&lt;br/&gt;"/><marker lat="40.482879021356389" lng="-80.04453300763744" zone="Zone 1" incidentdate="2015-02-18" incidenttime="22:18:00" incidentnumber="15029433" address="2000 block Termon Ave" type="OFFENSE" age="" gender="" description="*********************************************** &lt;br/&gt;9490, Missing Persons (18 and Over)&lt;br/&gt;"/><marker lat="40.390220199188796" lng="-80.014057135633308" zone="Zone 6" incidentdate="2015-02-18" incidenttime="17:00:00" incidentnumber="15029371" address="1200 block Creedmoor Ave" type="OFFENSE" age="" gender="" description="*********************************************** &lt;br/&gt;3745, Accidents Involving Damage to Unattended Veh.or Prop.&lt;br/&gt;"/><marker lat="40.456515048695316" lng="-80.016515559088219" zone="Zone 1" incidentdate="2015-02-18" incidenttime="16:00:00" incidentnumber="15029240" address="1500 block Brighton Rd" type="OFFENSE" age="" gender="" description="*********************************************** &lt;br/&gt;9501, Bench Warrant&lt;br/&gt;"/><marker lat="" lng="" zone="Zone 1" incidentdate="2015-02-18" incidenttime="01:35:00" incidentnumber="15028939" address="General Robinson St W &amp; Art Rooney Ave" type="OFFENSE" age="" gender="" description="*********************************************** &lt;br/&gt;3802(b), DUI - High Rate of Alchol - BAC &gt;=.10% &lt;.16%&lt;br/&gt;3802(a)(1), DUI - General Impairment&lt;br/&gt;"/><marker lat="40.463596180890804" lng="-79.939046672312472" zone="Zone 5" incidentdate="2015-02-18" incidenttime="15:30:00" incidentnumber="14238108" address="200 block S Atlantic Ave" type="ARREST" age="37" gender="M" description="*********************************************** &lt;br/&gt;3304, Criminal Mischief.&lt;br/&gt;"/><marker lat="40.441372308321661" lng="-79.923287923128115" zone="Zone 4" incidentdate="2015-02-18" incidenttime="14:10:00" incidentnumber="15016189" address="5800 block Northumberland St" type="ARREST" age="24" gender="M" description="*********************************************** &lt;br/&gt;13(a)(16), Possession of Controlled Substance&lt;br/&gt;9124, Drug Investigation&lt;br/&gt;13(a)(30), Possession w/ Intent to Del. Controlled Substance&lt;br/&gt;13(a)(32), Paraphernalia - Use or Possession&lt;br/&gt;13(a)(30)*, Delivery of Controlled Substance&lt;br/&gt;"/><marker lat="40.456515048695316" lng="-80.016515559088219" zone="Zone 1" incidentdate="2015-02-18" incidenttime="16:23:00" incidentnumber="15029240" address="1500 block Brighton Rd" type="ARREST" age="21" gender="F" description="*********************************************** &lt;br/&gt;9501, Bench Warrant&lt;br/&gt;"/><marker lat="40.449920330979076" lng="-79.974597253786143" zone="Zone 2" incidentdate="2015-02-18" incidenttime="19:20:00" incidentnumber="14197260" address="2400 block Chauncey Dr" type="ARREST" age="20" gender="M" description="*********************************************** &lt;br/&gt;2701, Simple Assault.&lt;br/&gt;"/><marker lat="40.414185826150991" lng="-79.995042090433813" zone="Zone 3" incidentdate="2015-02-18" incidenttime="22:45:00" incidentnumber="15029437" address="Saw Mill Run Blvd &amp; Woodruff St" type="ARREST" age="48" gender="F" description="*********************************************** &lt;br/&gt;3802(a)(1), DUI - General Impairment&lt;br/&gt;"/><marker lat="40.472866452963352" lng="-79.930425366944149" zone="Zone 5" incidentdate="2015-02-18" incidenttime="08:42:00" incidentnumber="15006173" address="5400 block Stanton Ave" type="ARREST" age="22" gender="M" description="*********************************************** &lt;br/&gt;13(a)(31), Marijuana: Possession Small Amount&lt;br/&gt;13(a)(16), Possession of Controlled Substance&lt;br/&gt;13(a)(30), Possession w/ Intent to Del. Controlled Substance&lt;br/&gt;907, Possessing Instruments of Crime.&lt;br/&gt;13(a)(32), Paraphernalia - Use or Possession&lt;br/&gt;"/><marker lat="40.385891735246354" lng="-79.978254236122268" zone="Zone 3" incidentdate="2015-02-18" incidenttime="12:15:00" incidentnumber="15029143" address="100 block Kirk Ave" type="ARREST" age="45" gender="M" description="*********************************************** &lt;br/&gt;13(a)(16), Possession of Controlled Substance&lt;br/&gt;13(a)(32), Paraphernalia - Use or Possession&lt;br/&gt;"/><marker lat="40.442742988252533" lng="-80.08214738017989" zone="Zone 5" incidentdate="2015-02-18" incidenttime="12:50:00" incidentnumber="14246239" address="2400 block Woodmere Dr" type="ARREST" age="41" gender="M" description="*********************************************** &lt;br/&gt;3921(a), Theft by Unlawful Taking or Disposition - Movable item&lt;br/&gt;"/><marker lat="40.455510923715885" lng="-79.890193619894021" zone="Zone 5" incidentdate="2015-02-18" incidenttime="21:31:00" incidentnumber="15029419" address="Felicia Way &amp; N Braddock Ave" type="ARREST" age="24" gender="M" description="*********************************************** &lt;br/&gt;13(a)(31), Marijuana: Possession Small Amount&lt;br/&gt;4303, General Lighting Requirements.&lt;br/&gt;13(a)(32), Paraphernalia - Use or Possession&lt;br/&gt;"/><marker lat="40.458546551514743" lng="-80.012726223345538" zone="Zone 1" incidentdate="2015-02-18" incidenttime="20:50:00" incidentnumber="15029389" address="500 block Armandale St" type="ARREST" age="17" gender="M" description="*********************************************** &lt;br/&gt;13(a)(33)(i), Possession with Intent to Del. - Under 18&lt;br/&gt;6110.1, Possesion of Firearm by Minor&lt;br/&gt;13(a)(16), Possession of Controlled Substance&lt;br/&gt;13(a)(30), Possession w/ Intent to Del. Controlled Substance&lt;br/&gt;13(a)(32), Paraphernalia - Use or Possession&lt;br/&gt;"/><marker lat="40.46442864138092" lng="-80.053173771735089" zone="Zone 6" incidentdate="2015-02-18" incidenttime="01:35:00" incidentnumber="15028928" address="Stanhope St &amp; W Carson St" type="ARREST" age="38" gender="M" description="*********************************************** &lt;br/&gt;3308, One-Way Roadways and Rotary Traffic Islands.&lt;br/&gt;3802(a)(1), DUI - General Impairment&lt;br/&gt;3802(c), DUI - Highest Rate of Alcohol - BAC &gt;= .16%&lt;br/&gt;"/><marker lat="40.458313629612618" lng="-79.891012641854417" zone="Zone 5" incidentdate="2015-02-18" incidenttime="01:40:00" incidentnumber="15028935" address="7400 block Monticello St" type="ARREST" age="38" gender="F" description="*********************************************** &lt;br/&gt;2701, Simple Assault.&lt;br/&gt;"/><marker lat="40.449072841497312" lng="-79.883741917226331" zone="Zone 5" incidentdate="2015-02-18" incidenttime="04:00:00" incidentnumber="15028982" address="500 block Oakwood St" type="ARREST" age="28" gender="M" description="*********************************************** &lt;br/&gt;1543, Driving While Operating Privilege is Suspended or Revoked.&lt;br/&gt;13(a)(30), Possession w/ Intent to Del. Controlled Substance&lt;br/&gt;3928, Unauthorized Use of Automobile and Other Vehicles.&lt;br/&gt;3802(c), DUI - Highest Rate of Alcohol - BAC &gt;= .16%&lt;br/&gt;3802(a)(1), DUI - General Impairment&lt;br/&gt;"/><marker lat="40.448840773567333" lng="-79.973973354239064" zone="Zone 2" incidentdate="2015-02-18" incidenttime="21:25:00" incidentnumber="15029412" address="2400 block Webster Ave" type="ARREST" age="37" gender="M" description="*********************************************** &lt;br/&gt;2701, Simple Assault.&lt;br/&gt;"/><marker lat="40.454136833164974" lng="-80.001939797868459" zone="Zone 1" incidentdate="2015-02-18" incidenttime="13:47:00" incidentnumber="15028568" address="400 block Foreland St" type="ARREST" age="43" gender="M" description="*********************************************** &lt;br/&gt;13(a)(16), Possession of Controlled Substance&lt;br/&gt;13(a)(30)*, Delivery of Controlled Substance&lt;br/&gt;13(a)(30), Possession w/ Intent to Del. Controlled Substance&lt;br/&gt;13(a)(32), Paraphernalia - Use or Possession&lt;br/&gt;"/><marker lat="40.414185826150991" lng="-79.995042090433813" zone="Zone 3" incidentdate="2015-02-18" incidenttime="21:39:00" incidentnumber="12216844" address="400 block Bausman St" type="ARREST" age="33" gender="M" description="*********************************************** &lt;br/&gt;3502, Burglary.&lt;br/&gt;"/><marker lat="40.439375459635848" lng="-80.00122331354693" zone="Zone 2" incidentdate="2015-02-18" incidenttime="09:22:00" incidentnumber="14182600" address="400 block Wood St" type="ARREST" age="19" gender="M" description="*********************************************** &lt;br/&gt;3925, Receiving Stolen Property.&lt;br/&gt;"/><marker lat="40.461444187210184" lng="-79.892272507182355" zone="Zone 5" incidentdate="2015-02-18" incidenttime="22:40:00" incidentnumber="15029434" address="7300 block Upland St" type="ARREST" age="35" gender="M" description="*********************************************** &lt;br/&gt;2701, Simple Assault.&lt;br/&gt;"/><marker lat="40.42178880507479" lng="-79.991913102223009" zone="Zone 3" incidentdate="2015-02-18" incidenttime="21:11:00" incidentnumber="15029398" address="E Warrington Ave &amp; Brosville St" type="ARREST" age="44" gender="M" description="*********************************************** &lt;br/&gt;4303, General Lighting Requirements.&lt;br/&gt;13(a)(16), Possession of Controlled Substance&lt;br/&gt;1543, Driving While Operating Privilege is Suspended or Revoked.&lt;br/&gt;"/><marker lat="40.454136833164974" lng="-80.001939797868459" zone="Zone 1" incidentdate="2015-02-18" incidenttime="13:47:00" incidentnumber="15027978" address="400 block Foreland St" type="ARREST" age="43" gender="M" description="*********************************************** &lt;br/&gt;13(a)(16), Possession of Controlled Substance&lt;br/&gt;13(a)(30)*, Delivery of Controlled Substance&lt;br/&gt;13(a)(30), Possession w/ Intent to Del. Controlled Substance&lt;br/&gt;13(a)(32), Paraphernalia - Use or Possession&lt;br/&gt;"/><marker lat="40.434696587775576" lng="-79.996300985228572" zone="Zone 2" incidentdate="2015-02-18" incidenttime="13:15:00" incidentnumber="15027382" address="600 block 1st Ave" type="ARREST" age="53" gender="M" description="*********************************************** &lt;br/&gt;3929, Retail Theft.&lt;br/&gt;"/><marker lat="40.455510923715885" lng="-79.890193619894021" zone="Zone 5" incidentdate="2015-02-18" incidenttime="21:31:00" incidentnumber="15029419" address="Felicia Way &amp; N Braddock Ave" type="ARREST" age="21" gender="M" description="*********************************************** &lt;br/&gt;13(a)(31), Marijuana: Possession Small Amount&lt;br/&gt;4303, General Lighting Requirements.&lt;br/&gt;13(a)(32), Paraphernalia - Use or Possession&lt;br/&gt;"/><marker lat="40.407435133532175" lng="-79.992595304592015" zone="Zone 3" incidentdate="2015-02-18" incidenttime="07:35:00" incidentnumber="15029018" address="200 block Wilbur St" type="ARREST" age="25" gender="M" description="*********************************************** &lt;br/&gt;1543, Driving While Operating Privilege is Suspended or Revoked.&lt;br/&gt;13(a)(16), Possession of Controlled Substance&lt;br/&gt;13(a)(30), Possession w/ Intent to Del. Controlled Substance&lt;br/&gt;3928, Unauthorized Use of Automobile and Other Vehicles.&lt;br/&gt;13(a)(32), Paraphernalia - Use or Possession&lt;br/&gt;6117, Altering or Obliterating Marks of Identification.&lt;br/&gt;3736, Reckless Driving&lt;br/&gt;6105(a)(1), Persons not to possess, use, manufacture, control, sell or transfer firearms: Former convict enumerated in subsection (b)&lt;br/&gt;3733, Fleeing or Attempting to Elude Police Officer&lt;br/&gt;13(a)(31), Marijuana: Possession Small Amount&lt;br/&gt;"/><marker lat="40.443230518813948" lng="-80.000259352054542" zone="Zone 2" incidentdate="2015-02-18" incidenttime="22:04:00" incidentnumber="15029432" address="Penn Ave &amp; 7th St" type="ARREST" age="27" gender="M" description="*********************************************** &lt;br/&gt;9501, Bench Warrant&lt;br/&gt;"/><marker lat="40.462257155598245" lng="-79.921709557324306" zone="Zone 5" incidentdate="2015-02-18" incidenttime="18:24:00" incidentnumber="15029317" address="Centre Ave &amp; Harvard Sq" type="ARREST" age="21" gender="M" description="*********************************************** &lt;br/&gt;13(a)(31), Marijuana: Possession Small Amount&lt;br/&gt;1543, Driving While Operating Privilege is Suspended or Revoked.&lt;br/&gt;3334, Turning Movements and Required Signals.&lt;br/&gt;3323, Stop Signs and Yield Signs.&lt;br/&gt;"/><marker lat="40.473349600095005" lng="-80.002822219962013" zone="Zone 1" incidentdate="2015-02-18" incidenttime="15:30:00" incidentnumber="14246873" address="100 block Penfort St" type="ARREST" age="21" gender="F" description="*********************************************** &lt;br/&gt;4101, Forgery.&lt;br/&gt;3925, Receiving Stolen Property.&lt;br/&gt;3921, Theft by Unlawful Taking or Disposition.&lt;br/&gt;"/><marker lat="40.454136833164974" lng="-80.001939797868459" zone="Zone 1" incidentdate="2015-02-18" incidenttime="13:48:00" incidentnumber="15029173" address="400 block Foreland St" type="ARREST" age="43" gender="M" description="*********************************************** &lt;br/&gt;13(a)(16), Possession of Controlled Substance&lt;br/&gt;13(a)(30), Possession w/ Intent to Del. Controlled Substance&lt;br/&gt;"/><marker lat="40.434696587775576" lng="-79.996300985228572" zone="Zone 2" incidentdate="2015-02-18" incidenttime="13:21:00" incidentnumber="15029160" address="1500 block Bedford Ave" type="ARREST" age="19" gender="F" description="*********************************************** &lt;br/&gt;2702, Aggravated Assault.&lt;br/&gt;"/><marker lat="40.453010839990817" lng="-79.924961174485944" zone="Zone 5" incidentdate="2015-02-18" incidenttime="00:08:00" incidentnumber="15016446" address="500 block N Highland Ave" type="ARREST" age="52" gender="M" description="*********************************************** &lt;br/&gt;13(a)(16), Possession of Controlled Substance&lt;br/&gt;"/><marker lat="40.434696587775576" lng="-79.996300985228572" zone="Zone 2" incidentdate="2015-02-18" incidenttime="04:15:00" incidentnumber="15022524" address="600 block 1st Ave" type="ARREST" age="32" gender="M" description="*********************************************** &lt;br/&gt;3921, Theft by Unlawful Taking or Disposition.&lt;br/&gt;13(a)(16), Possession of Controlled Substance&lt;br/&gt;"/><marker lat="40.46442864138092" lng="-80.053173771735089" zone="Zone 6" incidentdate="2015-02-18" incidenttime="02:45:00" incidentnumber="15021555" address="2900 block Sheraden Blvd" type="ARREST" age="54" gender="M" description="*********************************************** &lt;br/&gt;3701, Robbery.&lt;br/&gt;2701, Simple Assault.&lt;br/&gt;"/><marker lat="40.420846354403423" lng="-79.991767714991497" zone="Zone 3" incidentdate="2015-02-18" incidenttime="00:50:00" incidentnumber="15028914" address="Arlington Ave &amp; Industry St" type="ARREST" age="42" gender="M" description="*********************************************** &lt;br/&gt;13(a)(31)(i), Marijuana - Possess Small Amt for Personal Use&lt;br/&gt;3334, Turning Movements and Required Signals.&lt;br/&gt;"/><marker lat="40.454136833164974" lng="-80.001939797868459" zone="Zone 1" incidentdate="2015-02-18" incidenttime="13:48:00" incidentnumber="14097143" address="400 block Foreland St" type="ARREST" age="43" gender="M" description="*********************************************** &lt;br/&gt;3304, Criminal Mischief.&lt;br/&gt;2701, Simple Assault.&lt;br/&gt;2706, Terroristic Threats.&lt;br/&gt;2705, Recklessly Endangering Another Person.&lt;br/&gt;"/><marker lat="40.438943794278437" lng="-79.956702987700893" zone="Zone 4" incidentdate="2015-02-18" incidenttime="21:56:00" incidentnumber="15029421" address="300 block Meyran Ave" type="ARREST" age="43" gender="M" description="*********************************************** &lt;br/&gt;9501, Bench Warrant&lt;br/&gt;"/><marker lat="" lng="" zone="Zone 1" incidentdate="2015-02-18" incidenttime="01:45:00" incidentnumber="15028939" address="General Robinson St W &amp; Art Rooney Ave" type="ARREST" age="33" gender="F" description="*********************************************** &lt;br/&gt;3802(b), DUI - High Rate of Alchol - BAC &gt;=.10% &lt;.16%&lt;br/&gt;3802(a)(1), DUI - General Impairment&lt;br/&gt;"/><marker lat="40.465594019436836" lng="-79.947391829739161" zone="Zone 5" incidentdate="2015-02-18" incidenttime="13:20:00" incidentnumber="15021451" address="Penn Ave &amp; Edmond St" type="ARREST" age="30" gender="F" description="*********************************************** &lt;br/&gt;7122, Altered, Forged or Counterfeit Documents and Plates&lt;br/&gt;"/><marker lat="40.471012276973703" lng="-80.016772844247583" zone="Zone 1" incidentdate="2015-02-18" incidenttime="13:40:00" incidentnumber="15029166" address="500 block Marshall Ave" type="ARREST" age="11" gender="M" description="*********************************************** &lt;br/&gt;2702, Aggravated Assault.&lt;br/&gt;"/><marker lat="40.448221217145651" lng="-79.986889873008863" zone="Zone 2" incidentdate="2015-02-18" incidenttime="09:00:00" incidentnumber="14223357" address="Liberty Ave &amp; 16th St" type="ARREST" age="30" gender="M" description="*********************************************** &lt;br/&gt;3742, Accidents Involving Death or Personal Injury&lt;br/&gt;"/></markers>
